"PrefCode","PrefName","MuniCode","MuniName","DistCode","DistName","lat","lon","SrcCode","CatCode"
"01","北海道","01106","札幌市南区","011060001000","石山","42.946783","141.328331","0","1"
"01","北海道","01106","札幌市南区","011060002001","石山一条一丁目","42.979022","141.343076","0","3"
"01","北海道","01106","札幌市南区","011060002002","石山一条二丁目","42.973293","141.341311","0","3"
"01","北海道","01106","札幌市南区","011060002003","石山一条三丁目","42.969534","141.336055","0","3"
"01","北海道","01106","札幌市南区","011060002004","石山一条四丁目","42.966106","141.328872","0","3"
"01","北海道","01106","札幌市南区","011060002005","石山一条五丁目","42.964700","141.326203","0","3"
"01","北海道","01106","札幌市南区","011060002006","石山一条六丁目","42.964707","141.323503","0","3"
"01","北海道","01106","札幌市南区","011060002007","石山一条七丁目","42.964152","141.319956","0","3"
"01","北海道","01106","札幌市南区","011060002008","石山一条八丁目","42.963533","141.316726","0","3"
"01","北海道","01106","札幌市南区","011060002009","石山一条九丁目","42.963114","141.314993","0","3"
"01","北海道","01106","札幌市南区","011060003002","石山二条二丁目","42.969827","141.339175","0","3"
"01","北海道","01106","札幌市南区","011060003003","石山二条三丁目","42.967298","141.335824","0","3"
"01","北海道","01106","札幌市南区","011060003004","石山二条四丁目","42.964557","141.329123","0","3"
"01","北海道","01106","札幌市南区","011060003005","石山二条五丁目","42.962808","141.326462","0","3"
"01","北海道","01106","札幌市南区","011060003006","石山二条六丁目","42.961540","141.323822","0","3"
"01","北海道","01106","札幌市南区","011060003007","石山二条七丁目","42.960681","141.320940","0","3"
"01","北海道","01106","札幌市南区","011060003008","石山二条八丁目","42.960126","141.318405","0","3"
"01","北海道","01106","札幌市南区","011060003009","石山二条九丁目","42.959764","141.314883","0","3"
"01","北海道","01106","札幌市南区","011060004005","石山三条五丁目","42.960791","141.328139","0","3"
"01","北海道","01106","札幌市南区","011060004006","石山三条六丁目","42.959126","141.324773","0","3"
"01","北海道","01106","札幌市南区","011060004007","石山三条七丁目","42.958162","141.321663","0","3"
"01","北海道","01106","札幌市南区","011060004008","石山三条八丁目","42.957335","141.319389","0","3"
"01","北海道","01106","札幌市南区","011060005006","石山四条六丁目","42.956187","141.323889","0","3"
"01","北海道","01106","札幌市南区","011060006001","石山東一丁目","42.972462","141.345108","0","3"
"01","北海道","01106","札幌市南区","011060006002","石山東二丁目","42.968908","141.344474","0","3"
"01","北海道","01106","札幌市南区","011060006003","石山東三丁目","42.966776","141.344650","0","3"
"01","北海道","01106","札幌市南区","011060006004","石山東四丁目","42.963424","141.344544","0","3"
"01","北海道","01106","札幌市南区","011060006005","石山東五丁目","42.960577","141.344776","0","3"
"01","北海道","01106","札幌市南区","011060006006","石山東六丁目","42.957763","141.344714","0","3"
"01","北海道","01106","札幌市南区","011060006007","石山東七丁目","42.953890","141.344460","0","3"
"01","北海道","01106","札幌市南区","011060007000","硬石山","42.973435","141.315639","0","1"
"01","北海道","01106","札幌市南区","011060008001","川沿十条一丁目","42.984021","141.336837","0","3"
"01","北海道","01106","札幌市南区","011060008002","川沿十条二丁目","42.983369","141.334137","0","3"
"01","北海道","01106","札幌市南区","011060008003","川沿十条三丁目","42.983295","141.331583","0","3"
"01","北海道","01106","札幌市南区","011060009001","川沿十一条一丁目","42.982255","141.337077","0","3"
"01","北海道","01106","札幌市南区","011060009002","川沿十一条二丁目","42.982308","141.334829","0","3"
"01","北海道","01106","札幌市南区","011060009003","川沿十一条三丁目","42.981530","141.329410","0","3"
"01","北海道","01106","札幌市南区","011060010001","川沿十二条一丁目","42.980920","141.338094","0","3"
"01","北海道","01106","札幌市南区","011060010002","川沿十二条二丁目","42.980777","141.334753","0","3"
"01","北海道","01106","札幌市南区","011060010003","川沿十二条三丁目","42.980623","141.331945","0","3"
"01","北海道","01106","札幌市南区","011060010004","川沿十二条四丁目","42.979678","141.329482","0","3"
"01","北海道","01106","札幌市南区","011060010005","川沿十二条五丁目","42.979372","141.327561","0","3"
"01","北海道","01106","札幌市南区","011060011001","川沿十三条一丁目","42.979169","141.338338","0","3"
"01","北海道","01106","札幌市南区","011060011002","川沿十三条二丁目","42.979040","141.335068","0","3"
"01","北海道","01106","札幌市南区","011060011003","川沿十三条三丁目","42.979138","141.332135","0","3"
"01","北海道","01106","札幌市南区","011060012001","川沿十四条一丁目","42.977279","141.338064","0","3"
"01","北海道","01106","札幌市南区","011060012002","川沿十四条二丁目","42.977959","141.335205","0","3"
"01","北海道","01106","札幌市南区","011060013001","川沿十五条一丁目","42.975412","141.337052","0","3"
"01","北海道","01106","札幌市南区","011060013002","川沿十五条二丁目","42.977035","141.333914","0","3"
"01","北海道","01106","札幌市南区","011060014001","川沿十六条一丁目","42.974110","141.336307","0","3"
"01","北海道","01106","札幌市南区","011060014002","川沿十六条二丁目","42.975204","141.333553","0","3"
"01","北海道","01106","札幌市南区","011060015001","川沿十七条一丁目","42.972353","141.335153","0","3"
"01","北海道","01106","札幌市南区","011060015002","川沿十七条二丁目","42.974064","141.332793","0","3"
"01","北海道","01106","札幌市南区","011060016001","川沿十八条一丁目","42.970864","141.333096","0","3"
"01","北海道","01106","札幌市南区","011060016002","川沿十八条二丁目","42.972273","141.332637","0","3"
"01","北海道","01106","札幌市南区","011060017001","川沿一条一丁目","43.000959","141.338236","0","3"
"01","北海道","01106","札幌市南区","011060017002","川沿一条二丁目","43.002354","141.334299","0","3"
"01","北海道","01106","札幌市南区","011060017003","川沿一条三丁目","43.001674","141.329297","0","3"
"01","北海道","01106","札幌市南区","011060017004","川沿一条四丁目","43.001739","141.326851","0","3"
"01","北海道","01106","札幌市南区","011060017005","川沿一条五丁目","43.000402","141.324731","0","3"
"01","北海道","01106","札幌市南区","011060017006","川沿一条六丁目","43.000710","141.321137","0","3"
"01","北海道","01106","札幌市南区","011060018001","川沿二条一丁目","42.998420","141.338053","0","3"
"01","北海道","01106","札幌市南区","011060018002","川沿二条二丁目","42.998868","141.335097","0","3"
"01","北海道","01106","札幌市南区","011060018003","川沿二条三丁目","42.999238","141.330703","0","3"
"01","北海道","01106","札幌市南区","011060018004","川沿二条四丁目","42.998754","141.327010","0","3"
"01","北海道","01106","札幌市南区","011060018005","川沿二条五丁目","42.998925","141.324910","0","3"
"01","北海道","01106","札幌市南区","011060018006","川沿二条六丁目","42.998621","141.321651","0","3"
"01","北海道","01106","札幌市南区","011060019001","川沿三条一丁目","42.996399","141.337371","0","3"
"01","北海道","01106","札幌市南区","011060019002","川沿三条二丁目","42.996830","141.334162","0","3"
"01","北海道","01106","札幌市南区","011060019003","川沿三条三丁目","42.996904","141.330294","0","3"
"01","北海道","01106","札幌市南区","011060019004","川沿三条四丁目","42.996945","141.327470","0","3"
"01","北海道","01106","札幌市南区","011060019005","川沿三条五丁目","42.996993","141.325071","0","3"
"01","北海道","01106","札幌市南区","011060020001","川沿四条一丁目","42.994469","141.336826","0","3"
"01","北海道","01106","札幌市南区","011060020002","川沿四条二丁目","42.994946","141.333623","0","3"
"01","北海道","01106","札幌市南区","011060020003","川沿四条三丁目","42.994642","141.330258","0","3"
"01","北海道","01106","札幌市南区","011060020004","川沿四条四丁目","42.994431","141.327792","0","3"
"01","北海道","01106","札幌市南区","011060020005","川沿四条五丁目","42.994480","141.325691","0","3"
"01","北海道","01106","札幌市南区","011060021001","川沿五条一丁目","42.992542","141.335757","0","3"
"01","北海道","01106","札幌市南区","011060021002","川沿五条二丁目","42.992845","141.333407","0","3"
"01","北海道","01106","札幌市南区","011060021003","川沿五条三丁目","42.992669","141.330527","0","3"
"01","北海道","01106","札幌市南区","011060021004","川沿五条四丁目","42.992369","141.327837","0","3"
"01","北海道","01106","札幌市南区","011060022002","川沿六条二丁目","42.990082","141.333862","0","3"
"01","北海道","01106","札幌市南区","011060022003","川沿六条三丁目","42.990902","141.330856","0","3"
"01","北海道","01106","札幌市南区","011060022004","川沿六条四丁目","42.990799","141.328046","0","3"
"01","北海道","01106","札幌市南区","011060023002","川沿七条二丁目","42.989143","141.332730","0","3"
"01","北海道","01106","札幌市南区","011060023003","川沿七条三丁目","42.988970","141.330823","0","3"
"01","北海道","01106","札幌市南区","011060023004","川沿七条四丁目","42.988789","141.328253","0","3"
"01","北海道","01106","札幌市南区","011060024001","川沿八条一丁目","42.987355","141.334790","0","3"
"01","北海道","01106","札幌市南区","011060024002","川沿八条二丁目","42.987212","141.333440","0","3"
"01","北海道","01106","札幌市南区","011060024003","川沿八条三丁目","42.987218","141.331038","0","3"
"01","北海道","01106","札幌市南区","011060024004","川沿八条四丁目","42.987317","141.328892","0","3"
"01","北海道","01106","札幌市南区","011060025001","川沿九条一丁目","42.985532","141.335441","0","3"
"01","北海道","01106","札幌市南区","011060025002","川沿九条二丁目","42.985803","141.333694","0","3"
"01","北海道","01106","札幌市南区","011060025003","川沿九条三丁目","42.985827","141.331432","0","3"
"01","北海道","01106","札幌市南区","011060025004","川沿九条四丁目","42.985871","141.329444","0","3"
"01","北海道","01106","札幌市南区","011060026000","川沿町","42.979953","141.340793","0","1"
"01","北海道","01106","札幌市南区","011060027000","北ノ沢","43.013255","141.309119","0","1"
"01","北海道","01106","札幌市南区","011060028001","北ノ沢一丁目","43.004041","141.330074","0","3"
"01","北海道","01106","札幌市南区","011060028002","北ノ沢二丁目","43.005676","141.327049","0","3"
"01","北海道","01106","札幌市南区","011060028003","北ノ沢三丁目","43.007939","141.325570","0","3"
"01","北海道","01106","札幌市南区","011060028004","北ノ沢四丁目","43.006308","141.322596","0","3"
"01","北海道","01106","札幌市南区","011060028005","北ノ沢五丁目","43.004611","141.321827","0","3"
"01","北海道","01106","札幌市南区","011060028006","北ノ沢六丁目","43.003675","141.325016","0","3"
"01","北海道","01106","札幌市南区","011060028007","北ノ沢七丁目","43.001530","141.324582","0","3"
"01","北海道","01106","札幌市南区","011060028008","北ノ沢八丁目","43.002791","141.321594","0","3"
"01","北海道","01106","札幌市南区","011060028009","北ノ沢九丁目","43.002321","141.318903","0","3"
"01","北海道","01106","札幌市南区","011060029001","芸術の森一丁目","42.944695","141.341132","0","3"
"01","北海道","01106","札幌市南区","011060029002","芸術の森二丁目","42.937567","141.338682","0","3"
"01","北海道","01106","札幌市南区","011060029003","芸術の森三丁目","42.932425","141.337082","0","3"
"01","北海道","01106","札幌市南区","011060030000","小金湯","42.970700","141.209459","0","1"
"01","北海道","01106","札幌市南区","011060031000","定山渓","42.952518","141.116440","0","1"
"01","北海道","01106","札幌市南区","011060032001","定山渓温泉西一丁目","42.972031","141.170743","0","3"
"01","北海道","01106","札幌市南区","011060032002","定山渓温泉西二丁目","42.971403","141.165472","0","3"
"01","北海道","01106","札幌市南区","011060032003","定山渓温泉西三丁目","42.967838","141.164005","0","3"
"01","北海道","01106","札幌市南区","011060032004","定山渓温泉西四丁目","42.965522","141.160089","0","3"
"01","北海道","01106","札幌市南区","011060033001","定山渓温泉東一丁目","42.970899","141.177033","0","3"
"01","北海道","01106","札幌市南区","011060033002","定山渓温泉東二丁目","42.968770","141.169614","0","3"
"01","北海道","01106","札幌市南区","011060033003","定山渓温泉東三丁目","42.965847","141.167013","0","3"
"01","北海道","01106","札幌市南区","011060033004","定山渓温泉東四丁目","42.962184","141.158728","0","3"
"01","北海道","01106","札幌市南区","011060034000","白川","42.978147","141.282997","0","1"
"01","北海道","01106","札幌市南区","011060035000","澄川","42.981970","141.364727","0","1"
"01","北海道","01106","札幌市南区","011060036001","澄川一条一丁目","43.019073","141.360247","0","3"
"01","北海道","01106","札幌市南区","011060036002","澄川一条二丁目","43.017066","141.360064","0","3"
"01","北海道","01106","札幌市南区","011060036003","澄川一条三丁目","43.015099","141.360086","0","3"
"01","北海道","01106","札幌市南区","011060036004","澄川一条四丁目","43.012544","141.359429","0","3"
"01","北海道","01106","札幌市南区","011060037001","澄川二条一丁目","43.018771","141.362115","0","3"
"01","北海道","01106","札幌市南区","011060037002","澄川二条二丁目","43.016827","141.362944","0","3"
"01","北海道","01106","札幌市南区","011060037003","澄川二条三丁目","43.014876","141.362682","0","3"
"01","北海道","01106","札幌市南区","011060037004","澄川二条四丁目","43.012740","141.362115","0","3"
"01","北海道","01106","札幌市南区","011060037005","澄川二条五丁目","43.010635","141.362489","0","3"
"01","北海道","01106","札幌市南区","011060038001","澄川三条一丁目","43.018625","141.364948","0","3"
"01","北海道","01106","札幌市南区","011060038002","澄川三条二丁目","43.016628","141.365508","0","3"
"01","北海道","01106","札幌市南区","011060038003","澄川三条三丁目","43.014655","141.365138","0","3"
"01","北海道","01106","札幌市南区","011060038004","澄川三条四丁目","43.012581","141.364874","0","3"
"01","北海道","01106","札幌市南区","011060038005","澄川三条五丁目","43.010612","141.364723","0","3"
"01","北海道","01106","札幌市南区","011060038006","澄川三条六丁目","43.007968","141.364348","0","3"
"01","北海道","01106","札幌市南区","011060039010","澄川四条十丁目","42.999804","141.366127","0","3"
"01","北海道","01106","札幌市南区","011060039011","澄川四条十一丁目","42.998044","141.365804","0","3"
"01","北海道","01106","札幌市南区","011060039012","澄川四条十二丁目","42.995457","141.365135","0","3"
"01","北海道","01106","札幌市南区","011060039001","澄川四条一丁目","43.018363","141.368710","0","3"
"01","北海道","01106","札幌市南区","011060039002","澄川四条二丁目","43.016524","141.369205","0","3"
"01","北海道","01106","札幌市南区","011060039003","澄川四条三丁目","43.014394","141.367575","0","3"
"01","北海道","01106","札幌市南区","011060039004","澄川四条四丁目","43.012292","141.367837","0","3"
"01","北海道","01106","札幌市南区","011060039005","澄川四条五丁目","43.010575","141.367358","0","3"
"01","北海道","01106","札幌市南区","011060039006","澄川四条六丁目","43.008541","141.366870","0","3"
"01","北海道","01106","札幌市南区","011060039007","澄川四条七丁目","43.006432","141.366867","0","3"
"01","北海道","01106","札幌市南区","011060039008","澄川四条八丁目","43.004424","141.366805","0","3"
"01","北海道","01106","札幌市南区","011060039009","澄川四条九丁目","43.002265","141.367523","0","3"
"01","北海道","01106","札幌市南区","011060040010","澄川五条十丁目","43.000481","141.369016","0","3"
"01","北海道","01106","札幌市南区","011060040011","澄川五条十一丁目","42.998379","141.368790","0","3"
"01","北海道","01106","札幌市南区","011060040012","澄川五条十二丁目","42.995640","141.367969","0","3"
"01","北海道","01106","札幌市南区","011060040013","澄川五条十三丁目","42.992671","141.368215","0","3"
"01","北海道","01106","札幌市南区","011060040003","澄川五条三丁目","43.014184","141.371242","0","3"
"01","北海道","01106","札幌市南区","011060040004","澄川五条四丁目","43.012346","141.371503","0","3"
"01","北海道","01106","札幌市南区","011060040005","澄川五条五丁目","43.010486","141.371361","0","3"
"01","北海道","01106","札幌市南区","011060040006","澄川五条六丁目","43.008308","141.370666","0","3"
"01","北海道","01106","札幌市南区","011060040007","澄川五条七丁目","43.006620","141.370653","0","3"
"01","北海道","01106","札幌市南区","011060040008","澄川五条八丁目","43.004194","141.369993","0","3"
"01","北海道","01106","札幌市南区","011060040009","澄川五条九丁目","43.002643","141.370392","0","3"
"01","北海道","01106","札幌市南区","011060041010","澄川六条十丁目","43.000390","141.372675","0","3"
"01","北海道","01106","札幌市南区","011060041011","澄川六条十一丁目","42.998184","141.372757","0","3"
"01","北海道","01106","札幌市南区","011060041012","澄川六条十二丁目","42.995247","141.371767","0","3"
"01","北海道","01106","札幌市南区","011060041013","澄川六条十三丁目","42.992429","141.371692","0","3"
"01","北海道","01106","札幌市南区","011060041003","澄川六条三丁目","43.013527","141.375350","0","3"
"01","北海道","01106","札幌市南区","011060041004","澄川六条四丁目","43.011235","141.375312","0","3"
"01","北海道","01106","札幌市南区","011060041005","澄川六条五丁目","43.009373","141.374695","0","3"
"01","北海道","01106","札幌市南区","011060041006","澄川六条六丁目","43.007070","141.373712","0","3"
"01","北海道","01106","札幌市南区","011060041007","澄川六条七丁目","43.005327","141.373329","0","3"
"01","北海道","01106","札幌市南区","011060041008","澄川六条八丁目","43.004085","141.372541","0","3"
"01","北海道","01106","札幌市南区","011060041009","澄川六条九丁目","43.001750","141.373025","0","3"
"01","北海道","01106","札幌市南区","011060042000","滝野","42.901583","141.366966","0","1"
"01","北海道","01106","札幌市南区","011060043000","砥石山","43.000688","141.271668","0","1"
"01","北海道","01106","札幌市南区","011060044000","常盤","42.917723","141.322103","0","1"
"01","北海道","01106","札幌市南区","011060045001","常盤一条一丁目","42.954904","141.347359","0","3"
"01","北海道","01106","札幌市南区","011060045002","常盤一条二丁目","42.952558","141.347670","0","3"
"01","北海道","01106","札幌市南区","011060046001","常盤二条一丁目","42.948995","141.345966","0","3"
"01","北海道","01106","札幌市南区","011060046002","常盤二条二丁目","42.948444","141.348374","0","3"
"01","北海道","01106","札幌市南区","011060046003","常盤二条三丁目","42.946659","141.350707","0","3"
"01","北海道","01106","札幌市南区","011060047001","常盤三条一丁目","42.944451","141.345269","0","3"
"01","北海道","01106","札幌市南区","011060047002","常盤三条二丁目","42.944081","141.346685","0","3"
"01","北海道","01106","札幌市南区","011060048001","常盤四条一丁目","42.940327","141.344127","0","3"
"01","北海道","01106","札幌市南区","011060048002","常盤四条二丁目","42.940188","141.345417","0","3"
"01","北海道","01106","札幌市南区","011060049001","常盤五条一丁目","42.937711","141.342410","0","3"
"01","北海道","01106","札幌市南区","011060049002","常盤五条二丁目","42.937371","141.344476","0","3"
"01","北海道","01106","札幌市南区","011060050001","常盤六条一丁目","42.935768","141.341620","0","3"
"01","北海道","01106","札幌市南区","011060050002","常盤六条二丁目","42.934499","141.343054","0","3"
"01","北海道","01106","札幌市南区","011060051000","砥山","42.977148","141.245052","0","1"
"01","北海道","01106","札幌市南区","011060052000","豊滝","42.928343","141.218081","0","1"
"01","北海道","01106","札幌市南区","011060053001","豊滝一丁目","42.951979","141.237213","0","3"
"01","北海道","01106","札幌市南区","011060053002","豊滝二丁目","42.951944","141.234615","0","3"
"01","北海道","01106","札幌市南区","011060054000","中ノ沢","42.998716","141.295152","0","1"
"01","北海道","01106","札幌市南区","011060055001","中ノ沢一丁目","42.995307","141.323616","0","3"
"01","北海道","01106","札幌市南区","011060055002","中ノ沢二丁目","42.997331","141.321485","0","3"
"01","北海道","01106","札幌市南区","011060055003","中ノ沢三丁目","42.994624","141.321183","0","3"
"01","北海道","01106","札幌市南区","011060055004","中ノ沢四丁目","42.995548","141.317451","0","3"
"01","北海道","01106","札幌市南区","011060055005","中ノ沢五丁目","42.997120","141.317341","0","3"
"01","北海道","01106","札幌市南区","011060055006","中ノ沢六丁目","42.998193","141.316865","0","3"
"01","北海道","01106","札幌市南区","011060055007","中ノ沢七丁目","42.997793","141.313598","0","3"
"01","北海道","01106","札幌市南区","011060056000","藤野","42.936499","141.295094","0","1"
"01","北海道","01106","札幌市南区","011060057010","藤野一条十丁目","42.964451","141.283721","0","3"
"01","北海道","01106","札幌市南区","011060057005","藤野一条五丁目","42.965515","141.299984","0","3"
"01","北海道","01106","札幌市南区","011060057006","藤野一条六丁目","42.966440","141.297158","0","3"
"01","北海道","01106","札幌市南区","011060057007","藤野一条七丁目","42.966791","141.293604","0","3"
"01","北海道","01106","札幌市南区","011060057008","藤野一条八丁目","42.966892","141.290048","0","3"
"01","北海道","01106","札幌市南区","011060057009","藤野一条九丁目","42.966556","141.287717","0","3"
"01","北海道","01106","札幌市南区","011060058010","藤野二条十丁目","42.962480","141.282631","0","3"
"01","北海道","01106","札幌市南区","011060058011","藤野二条十一丁目","42.962471","141.279367","0","3"
"01","北海道","01106","札幌市南区","011060058012","藤野二条十二丁目","42.962901","141.276382","0","3"
"01","北海道","01106","札幌市南区","011060058013","藤野二条十三丁目","42.963058","141.273731","0","3"
"01","北海道","01106","札幌市南区","011060058001","藤野二条一丁目","42.962389","141.312020","0","3"
"01","北海道","01106","札幌市南区","011060058002","藤野二条二丁目","42.961810","141.309030","0","3"
"01","北海道","01106","札幌市南区","011060058003","藤野二条三丁目","42.962271","141.305811","0","3"
"01","北海道","01106","札幌市南区","011060058004","藤野二条四丁目","42.962857","141.302301","0","3"
"01","北海道","01106","札幌市南区","011060058005","藤野二条五丁目","42.962735","141.299175","0","3"
"01","北海道","01106","札幌市南区","011060058006","藤野二条六丁目","42.963373","141.296234","0","3"
"01","北海道","01106","札幌市南区","011060058007","藤野二条七丁目","42.963497","141.292959","0","3"
"01","北海道","01106","札幌市南区","011060058008","藤野二条八丁目","42.963625","141.289849","0","3"
"01","北海道","01106","札幌市南区","011060058009","藤野二条九丁目","42.963450","141.286481","0","3"
"01","北海道","01106","札幌市南区","011060059010","藤野三条十丁目","42.960101","141.282096","0","3"
"01","北海道","01106","札幌市南区","011060059011","藤野三条十一丁目","42.959827","141.278469","0","3"
"01","北海道","01106","札幌市南区","011060059001","藤野三条一丁目","42.960099","141.310716","0","3"
"01","北海道","01106","札幌市南区","011060059002","藤野三条二丁目","42.960158","141.308989","0","3"
"01","北海道","01106","札幌市南区","011060059003","藤野三条三丁目","42.959768","141.306131","0","3"
"01","北海道","01106","札幌市南区","011060059004","藤野三条四丁目","42.959210","141.302797","0","3"
"01","北海道","01106","札幌市南区","011060059005","藤野三条五丁目","42.960897","141.300408","0","3"
"01","北海道","01106","札幌市南区","011060059006","藤野三条六丁目","42.960758","141.296415","0","3"
"01","北海道","01106","札幌市南区","011060059007","藤野三条七丁目","42.960522","141.292409","0","3"
"01","北海道","01106","札幌市南区","011060059008","藤野三条八丁目","42.960887","141.288966","0","3"
"01","北海道","01106","札幌市南区","011060059009","藤野三条九丁目","42.960864","141.285932","0","3"
"01","北海道","01106","札幌市南区","011060060010","藤野四条十丁目","42.958607","141.282845","0","3"
"01","北海道","01106","札幌市南区","011060060011","藤野四条十一丁目","42.957759","141.277978","0","3"
"01","北海道","01106","札幌市南区","011060060001","藤野四条一丁目","42.957144","141.310265","0","3"
"01","北海道","01106","札幌市南区","011060060002","藤野四条二丁目","42.957585","141.308822","0","3"
"01","北海道","01106","札幌市南区","011060060003","藤野四条三丁目","42.957406","141.306528","0","3"
"01","北海道","01106","札幌市南区","011060060004","藤野四条四丁目","42.957057","141.303430","0","3"
"01","北海道","01106","札幌市南区","011060060005","藤野四条五丁目","42.958159","141.299334","0","3"
"01","北海道","01106","札幌市南区","011060060006","藤野四条六丁目","42.958384","141.294816","0","3"
"01","北海道","01106","札幌市南区","011060060007","藤野四条七丁目","42.958754","141.291070","0","3"
"01","北海道","01106","札幌市南区","011060060008","藤野四条八丁目","42.959036","141.288168","0","3"
"01","北海道","01106","札幌市南区","011060060009","藤野四条九丁目","42.958814","141.285121","0","3"
"01","北海道","01106","札幌市南区","011060061010","藤野五条十丁目","42.956168","141.282824","0","3"
"01","北海道","01106","札幌市南区","011060061001","藤野五条一丁目","42.954296","141.311369","0","3"
"01","北海道","01106","札幌市南区","011060061002","藤野五条二丁目","42.954533","141.308799","0","3"
"01","北海道","01106","札幌市南区","011060061003","藤野五条三丁目","42.954637","141.306243","0","3"
"01","北海道","01106","札幌市南区","011060061004","藤野五条四丁目","42.954942","141.303026","0","3"
"01","北海道","01106","札幌市南区","011060061005","藤野五条五丁目","42.955092","141.298386","0","3"
"01","北海道","01106","札幌市南区","011060061006","藤野五条六丁目","42.955452","141.293515","0","3"
"01","北海道","01106","札幌市南区","011060061007","藤野五条七丁目","42.956005","141.290221","0","3"
"01","北海道","01106","札幌市南区","011060061008","藤野五条八丁目","42.956238","141.288004","0","3"
"01","北海道","01106","札幌市南区","011060061009","藤野五条九丁目","42.956302","141.285819","0","3"
"01","北海道","01106","札幌市南区","011060062001","藤野六条一丁目","42.952754","141.311105","0","3"
"01","北海道","01106","札幌市南区","011060062002","藤野六条二丁目","42.952764","141.308450","0","3"
"01","北海道","01106","札幌市南区","011060062003","藤野六条三丁目","42.952783","141.305833","0","3"
"01","北海道","01106","札幌市南区","011060062004","藤野六条四丁目","42.951990","141.303181","0","3"
"01","北海道","01106","札幌市南区","011060062006","藤野六条六丁目","42.953024","141.291615","0","3"
"01","北海道","01106","札幌市南区","011060062009","藤野六条九丁目","42.954725","141.284867","0","3"
"01","北海道","01106","札幌市南区","011060063000","真駒内","42.956587","141.356462","0","1"
"01","北海道","01106","札幌市南区","011060064001","真駒内曙町一丁目","43.002302","141.350778","0","3"
"01","北海道","01106","札幌市南区","011060064002","真駒内曙町二丁目","42.999440","141.349874","0","3"
"01","北海道","01106","札幌市南区","011060064003","真駒内曙町三丁目","42.999569","141.352011","0","3"
"01","北海道","01106","札幌市南区","011060064004","真駒内曙町四丁目","42.999673","141.354398","0","3"
"01","北海道","01106","札幌市南区","011060065001","真駒内泉町一丁目","42.987574","141.351966","0","3"
"01","北海道","01106","札幌市南区","011060065002","真駒内泉町二丁目","42.986908","141.353816","0","3"
"01","北海道","01106","札幌市南区","011060065003","真駒内泉町三丁目","42.986366","141.355342","0","3"
"01","北海道","01106","札幌市南区","011060065004","真駒内泉町四丁目","42.986021","141.356951","0","3"
"01","北海道","01106","札幌市南区","011060066010","真駒内柏丘十丁目","42.983053","141.347952","0","3"
"01","北海道","01106","札幌市南区","011060066011","真駒内柏丘十一丁目","42.977073","141.345824","0","3"
"01","北海道","01106","札幌市南区","011060066012","真駒内柏丘十二丁目","42.982201","141.343476","0","3"
"01","北海道","01106","札幌市南区","011060066001","真駒内柏丘一丁目","42.991698","141.347393","0","3"
"01","北海道","01106","札幌市南区","011060066002","真駒内柏丘二丁目","42.989399","141.348229","0","3"
"01","北海道","01106","札幌市南区","011060066003","真駒内柏丘三丁目","42.988427","141.350187","0","3"
"01","北海道","01106","札幌市南区","011060066004","真駒内柏丘四丁目","42.987474","141.347055","0","3"
"01","北海道","01106","札幌市南区","011060066005","真駒内柏丘五丁目","42.988489","141.344596","0","3"
"01","北海道","01106","札幌市南区","011060066006","真駒内柏丘六丁目","42.989957","141.343823","0","3"
"01","北海道","01106","札幌市南区","011060066007","真駒内柏丘七丁目","42.987240","141.341594","0","3"
"01","北海道","01106","札幌市南区","011060066008","真駒内柏丘八丁目","42.985868","141.346412","0","3"
"01","北海道","01106","札幌市南区","011060066009","真駒内柏丘九丁目","42.982749","141.345601","0","3"
"01","北海道","01106","札幌市南区","011060067001","真駒内上町一丁目","42.996450","141.349679","0","3"
"01","北海道","01106","札幌市南区","011060067002","真駒内上町二丁目","42.996549","141.350685","0","3"
"01","北海道","01106","札幌市南区","011060067003","真駒内上町三丁目","42.996916","141.353428","0","3"
"01","北海道","01106","札幌市南区","011060067004","真駒内上町四丁目","42.996665","141.355763","0","3"
"01","北海道","01106","札幌市南区","011060067005","真駒内上町五丁目","42.996456","141.358273","0","3"
"01","北海道","01106","札幌市南区","011060068000","真駒内公園","42.994365","141.344149","0","1"
"01","北海道","01106","札幌市南区","011060069001","真駒内幸町一丁目","42.989993","141.351668","0","3"
"01","北海道","01106","札幌市南区","011060069002","真駒内幸町二丁目","42.990070","141.354229","0","3"
"01","北海道","01106","札幌市南区","011060069003","真駒内幸町三丁目","42.990114","141.356791","0","3"
"01","北海道","01106","札幌市南区","011060070001","真駒内東町一丁目","43.003361","141.364406","0","3"
"01","北海道","01106","札幌市南区","011060070002","真駒内東町二丁目","42.999594","141.363889","0","3"
"01","北海道","01106","札幌市南区","011060070003","真駒内東町三丁目","42.998191","141.364151","0","3"
"01","北海道","01106","札幌市南区","011060071001","真駒内本町一丁目","43.010493","141.353140","0","3"
"01","北海道","01106","札幌市南区","011060071002","真駒内本町二丁目","43.007508","141.351483","0","3"
"01","北海道","01106","札幌市南区","011060071003","真駒内本町三丁目","43.007156","141.348946","0","3"
"01","北海道","01106","札幌市南区","011060071004","真駒内本町四丁目","43.006398","141.347201","0","3"
"01","北海道","01106","札幌市南区","011060071005","真駒内本町五丁目","43.005023","141.350164","0","3"
"01","北海道","01106","札幌市南区","011060071006","真駒内本町六丁目","43.004324","141.347145","0","3"
"01","北海道","01106","札幌市南区","011060071007","真駒内本町七丁目","43.002355","141.346822","0","3"
"01","北海道","01106","札幌市南区","011060072001","真駒内緑町一丁目","42.992709","141.349844","0","3"
"01","北海道","01106","札幌市南区","011060072002","真駒内緑町二丁目","42.992790","141.352112","0","3"
"01","北海道","01106","札幌市南区","011060072003","真駒内緑町三丁目","42.992905","141.354685","0","3"
"01","北海道","01106","札幌市南区","011060072004","真駒内緑町四丁目","42.993034","141.357240","0","3"
"01","北海道","01106","札幌市南区","011060073001","真駒内南町一丁目","42.984681","141.350458","0","3"
"01","北海道","01106","札幌市南区","011060073002","真駒内南町二丁目","42.982983","141.352753","0","3"
"01","北海道","01106","札幌市南区","011060073003","真駒内南町三丁目","42.982117","141.353755","0","3"
"01","北海道","01106","札幌市南区","011060073004","真駒内南町四丁目","42.981304","141.350518","0","3"
"01","北海道","01106","札幌市南区","011060073005","真駒内南町五丁目","42.977897","141.347799","0","3"
"01","北海道","01106","札幌市南区","011060073006","真駒内南町六丁目","42.977209","141.349661","0","3"
"01","北海道","01106","札幌市南区","011060073007","真駒内南町七丁目","42.973345","141.347399","0","3"
"01","北海道","01106","札幌市南区","011060074000","簾舞","42.917035","141.254455","0","1"
"01","北海道","01106","札幌市南区","011060075001","簾舞一条一丁目","42.964460","141.271233","0","3"
"01","北海道","01106","札幌市南区","011060075002","簾舞一条二丁目","42.963915","141.267917","0","3"
"01","北海道","01106","札幌市南区","011060075004","簾舞一条四丁目","42.963961","141.264154","0","3"
"01","北海道","01106","札幌市南区","011060075005","簾舞一条五丁目","42.962790","141.260038","0","3"
"01","北海道","01106","札幌市南区","011060076001","簾舞二条一丁目","42.962820","141.271121","0","3"
"01","北海道","01106","札幌市南区","011060076002","簾舞二条二丁目","42.962922","141.269151","0","3"
"01","北海道","01106","札幌市南区","011060076003","簾舞二条三丁目","42.962553","141.267154","0","3"
"01","北海道","01106","札幌市南区","011060076004","簾舞二条四丁目","42.962783","141.263823","0","3"
"01","北海道","01106","札幌市南区","011060076005","簾舞二条五丁目","42.962112","141.260986","0","3"
"01","北海道","01106","札幌市南区","011060077001","簾舞三条一丁目","42.960475","141.273940","0","3"
"01","北海道","01106","札幌市南区","011060077002","簾舞三条二丁目","42.960547","141.271249","0","3"
"01","北海道","01106","札幌市南区","011060077003","簾舞三条三丁目","42.960777","141.267688","0","3"
"01","北海道","01106","札幌市南区","011060077005","簾舞三条五丁目","42.959944","141.261410","0","3"
"01","北海道","01106","札幌市南区","011060077006","簾舞三条六丁目","42.960089","141.258111","0","3"
"01","北海道","01106","札幌市南区","011060078001","簾舞四条一丁目","42.958608","141.274565","0","3"
"01","北海道","01106","札幌市南区","011060078002","簾舞四条二丁目","42.958310","141.271749","0","3"
"01","北海道","01106","札幌市南区","011060078003","簾舞四条三丁目","42.958840","141.268639","0","3"
"01","北海道","01106","札幌市南区","011060078006","簾舞四条六丁目","42.958631","141.258808","0","3"
"01","北海道","01106","札幌市南区","011060079001","簾舞五条一丁目","42.956505","141.274925","0","3"
"01","北海道","01106","札幌市南区","011060079002","簾舞五条二丁目","42.956294","141.272477","0","3"
"01","北海道","01106","札幌市南区","011060080001","簾舞六条一丁目","42.954397","141.275090","0","3"
"01","北海道","01106","札幌市南区","011060080002","簾舞六条二丁目","42.953894","141.272243","0","3"
"01","北海道","01106","札幌市南区","011060081008","南三十条西八丁目","43.019362","141.350285","0","3"
"01","北海道","01106","札幌市南区","011060082010","南三十一条西十丁目","43.017547","141.347292","0","3"
"01","北海道","01106","札幌市南区","011060082011","南三十一条西十一丁目","43.016977","141.346355","0","3"
"01","北海道","01106","札幌市南区","011060082008","南三十一条西八丁目","43.017177","141.350852","0","3"
"01","北海道","01106","札幌市南区","011060082009","南三十一条西九丁目","43.017509","141.348720","0","3"
"01","北海道","01106","札幌市南区","011060083010","南三十二条西十丁目","43.015680","141.347503","0","3"
"01","北海道","01106","札幌市南区","011060083011","南三十二条西十一丁目","43.015858","141.345849","0","3"
"01","北海道","01106","札幌市南区","011060083008","南三十二条西八丁目","43.015709","141.350945","0","3"
"01","北海道","01106","札幌市南区","011060083009","南三十二条西九丁目","43.015556","141.348928","0","3"
"01","北海道","01106","札幌市南区","011060084010","南三十三条西十丁目","43.013969","141.347394","0","3"
"01","北海道","01106","札幌市南区","011060084011","南三十三条西十一丁目","43.014534","141.345695","0","3"
"01","北海道","01106","札幌市南区","011060084008","南三十三条西八丁目","43.014445","141.351119","0","3"
"01","北海道","01106","札幌市南区","011060084009","南三十三条西九丁目","43.014184","141.349103","0","3"
"01","北海道","01106","札幌市南区","011060085010","南三十四条西十丁目","43.012456","141.347291","0","3"
"01","北海道","01106","札幌市南区","011060085011","南三十四条西十一丁目","43.012773","141.345022","0","3"
"01","北海道","01106","札幌市南区","011060085008","南三十四条西八丁目","43.012239","141.350662","0","3"
"01","北海道","01106","札幌市南区","011060085009","南三十四条西九丁目","43.012601","141.349302","0","3"
"01","北海道","01106","札幌市南区","011060086010","南三十五条西十丁目","43.010425","141.347080","0","3"
"01","北海道","01106","札幌市南区","011060086011","南三十五条西十一丁目","43.011173","141.344640","0","3"
"01","北海道","01106","札幌市南区","011060086009","南三十五条西九丁目","43.010948","141.349492","0","3"
"01","北海道","01106","札幌市南区","011060087010","南三十六条西十丁目","43.009332","141.345907","0","3"
"01","北海道","01106","札幌市南区","011060087011","南三十六条西十一丁目","43.009730","141.344037","0","3"
"01","北海道","01106","札幌市南区","011060088010","南三十七条西十丁目","43.007836","141.344825","0","3"
"01","北海道","01106","札幌市南区","011060088011","南三十七条西十一丁目","43.008065","141.342938","0","3"
"01","北海道","01106","札幌市南区","011060089010","南三十八条西十丁目","43.006478","141.344264","0","3"
"01","北海道","01106","札幌市南区","011060089011","南三十八条西十一丁目","43.006506","141.342399","0","3"
"01","北海道","01106","札幌市南区","011060090010","南三十九条西十丁目","43.004818","141.343681","0","3"
"01","北海道","01106","札幌市南区","011060090011","南三十九条西十一丁目","43.004027","141.342691","0","3"
"01","北海道","01106","札幌市南区","011060091000","南沢","42.983772","141.304200","0","1"
"01","北海道","01106","札幌市南区","011060092001","南沢一条一丁目","42.983357","141.325923","0","3"
"01","北海道","01106","札幌市南区","011060092002","南沢一条二丁目","42.982268","141.327037","0","3"
"01","北海道","01106","札幌市南区","011060092003","南沢一条三丁目","42.981469","141.324100","0","3"
"01","北海道","01106","札幌市南区","011060093001","南沢二条一丁目","42.985571","141.325706","0","3"
"01","北海道","01106","札幌市南区","011060093002","南沢二条二丁目","42.984116","141.322560","0","3"
"01","北海道","01106","札幌市南区","011060093003","南沢二条三丁目","42.981925","141.319211","0","3"
"01","北海道","01106","札幌市南区","011060093004","南沢二条四丁目","42.980973","141.315775","0","3"
"01","北海道","01106","札幌市南区","011060094001","南沢三条一丁目","42.987737","141.321135","0","3"
"01","北海道","01106","札幌市南区","011060094002","南沢三条二丁目","42.985523","141.320331","0","3"
"01","北海道","01106","札幌市南区","011060094003","南沢三条三丁目","42.984378","141.316669","0","3"
"01","北海道","01106","札幌市南区","011060094004","南沢三条四丁目","42.983302","141.314376","0","3"
"01","北海道","01106","札幌市南区","011060095001","南沢四条一丁目","42.989703","141.319614","0","3"
"01","北海道","01106","札幌市南区","011060095002","南沢四条二丁目","42.987930","141.316637","0","3"
"01","北海道","01106","札幌市南区","011060095003","南沢四条三丁目","42.986367","141.314737","0","3"
"01","北海道","01106","札幌市南区","011060095004","南沢四条四丁目","42.984969","141.312732","0","3"
"01","北海道","01106","札幌市南区","011060096001","南沢五条一丁目","42.990814","141.317293","0","3"
"01","北海道","01106","札幌市南区","011060096002","南沢五条二丁目","42.989736","141.313519","0","3"
"01","北海道","01106","札幌市南区","011060096003","南沢五条三丁目","42.987999","141.312073","0","3"
"01","北海道","01106","札幌市南区","011060096004","南沢五条四丁目","42.986658","141.309826","0","3"
"01","北海道","01106","札幌市南区","011060097002","南沢六条二丁目","42.990986","141.312513","0","3"
"01","北海道","01106","札幌市南区","011060097003","南沢六条三丁目","42.989687","141.308871","0","3"
"01","北海道","01106","札幌市南区","011060097004","南沢六条四丁目","42.987633","141.306720","0","3"
"01","北海道","01106","札幌市南区","011060098000","藻岩下","43.012642","141.331858","0","1"
"01","北海道","01106","札幌市南区","011060099001","藻岩下一丁目","43.010513","141.340121","0","3"
"01","北海道","01106","札幌市南区","011060099002","藻岩下二丁目","43.008142","141.340801","0","3"
"01","北海道","01106","札幌市南区","011060099003","藻岩下三丁目","43.007862","141.338371","0","3"
"01","北海道","01106","札幌市南区","011060099004","藻岩下四丁目","43.008542","141.335576","0","3"
"01","北海道","01106","札幌市南区","011060099005","藻岩下五丁目","43.010139","141.336317","0","3"
"01","北海道","01106","札幌市南区","011060100000","藻岩山","43.019034","141.330408","0","1"
