"PrefCode","PrefName","MuniCode","MuniName","DistCode","DistName","lat","lon","SrcCode","CatCode"
"01","北海道","01103","札幌市東区","011030001000","丘珠町","43.120789","141.394435","0","1"
"01","北海道","01103","札幌市東区","011030002000","雁来町","43.069887","141.394781","0","1"
"01","北海道","01103","札幌市東区","011030003010","北十条東十丁目","43.075621","141.369501","0","3"
"01","北海道","01103","札幌市東区","011030003011","北十条東十一丁目","43.076228","141.370316","0","3"
"01","北海道","01103","札幌市東区","011030003012","北十条東十二丁目","43.076181","141.372567","0","3"
"01","北海道","01103","札幌市東区","011030003013","北十条東十三丁目","43.076386","141.374117","0","3"
"01","北海道","01103","札幌市東区","011030003014","北十条東十四丁目","43.076441","141.375298","0","3"
"01","北海道","01103","札幌市東区","011030003015","北十条東十五丁目","43.076760","141.376855","0","3"
"01","北海道","01103","札幌市東区","011030003016","北十条東十六丁目","43.076927","141.378069","0","3"
"01","北海道","01103","札幌市東区","011030003017","北十条東十七丁目","43.077097","141.379322","0","3"
"01","北海道","01103","札幌市東区","011030003001","北十条東一丁目","43.073835","141.354784","0","3"
"01","北海道","01103","札幌市東区","011030003002","北十条東二丁目","43.074065","141.356460","0","3"
"01","北海道","01103","札幌市東区","011030003003","北十条東三丁目","43.074278","141.358025","0","3"
"01","北海道","01103","札幌市東区","011030003004","北十条東四丁目","43.074497","141.359577","0","3"
"01","北海道","01103","札幌市東区","011030003005","北十条東五丁目","43.074711","141.361132","0","3"
"01","北海道","01103","札幌市東区","011030003006","北十条東六丁目","43.074916","141.362701","0","3"
"01","北海道","01103","札幌市東区","011030003007","北十条東七丁目","43.074997","141.364077","0","3"
"01","北海道","01103","札幌市東区","011030003008","北十条東八丁目","43.075502","141.365430","0","3"
"01","北海道","01103","札幌市東区","011030003009","北十条東九丁目","43.075871","141.367531","0","3"
"01","北海道","01103","札幌市東区","011030004010","北十一条東十丁目","43.076885","141.368389","0","3"
"01","北海道","01103","札幌市東区","011030004011","北十一条東十一丁目","43.077281","141.370253","0","3"
"01","北海道","01103","札幌市東区","011030004012","北十一条東十二丁目","43.077327","141.372243","0","3"
"01","北海道","01103","札幌市東区","011030004013","北十一条東十三丁目","43.077681","141.373357","0","3"
"01","北海道","01103","札幌市東区","011030004014","北十一条東十四丁目","43.077528","141.374857","0","3"
"01","北海道","01103","札幌市東区","011030004015","北十一条東十五丁目","43.077887","141.376354","0","3"
"01","北海道","01103","札幌市東区","011030004016","北十一条東十六丁目","43.078001","141.377860","0","3"
"01","北海道","01103","札幌市東区","011030004017","北十一条東十七丁目","43.078104","141.379079","0","3"
"01","北海道","01103","札幌市東区","011030004001","北十一条東一丁目","43.074999","141.354484","0","3"
"01","北海道","01103","札幌市東区","011030004002","北十一条東二丁目","43.075216","141.356168","0","3"
"01","北海道","01103","札幌市東区","011030004003","北十一条東三丁目","43.075400","141.357744","0","3"
"01","北海道","01103","札幌市東区","011030004004","北十一条東四丁目","43.075643","141.359295","0","3"
"01","北海道","01103","札幌市東区","011030004005","北十一条東五丁目","43.075851","141.360849","0","3"
"01","北海道","01103","札幌市東区","011030004006","北十一条東六丁目","43.076059","141.362414","0","3"
"01","北海道","01103","札幌市東区","011030004007","北十一条東七丁目","43.076195","141.363711","0","3"
"01","北海道","01103","札幌市東区","011030004008","北十一条東八丁目","43.076474","141.364771","0","3"
"01","北海道","01103","札幌市東区","011030004009","北十一条東九丁目","43.076626","141.366614","0","3"
"01","北海道","01103","札幌市東区","011030005010","北十二条東十丁目","43.078064","141.368519","0","3"
"01","北海道","01103","札幌市東区","011030005011","北十二条東十一丁目","43.078204","141.370018","0","3"
"01","北海道","01103","札幌市東区","011030005012","北十二条東十二丁目","43.078369","141.371578","0","3"
"01","北海道","01103","札幌市東区","011030005013","北十二条東十三丁目","43.078757","141.372860","0","3"
"01","北海道","01103","札幌市東区","011030005014","北十二条東十四丁目","43.078524","141.374105","0","3"
"01","北海道","01103","札幌市東区","011030005015","北十二条東十五丁目","43.078912","141.375944","0","3"
"01","北海道","01103","札幌市東区","011030005016","北十二条東十六丁目","43.079033","141.377657","0","3"
"01","北海道","01103","札幌市東区","011030005017","北十二条東十七丁目","43.078976","141.379322","0","3"
"01","北海道","01103","札幌市東区","011030005001","北十二条東一丁目","43.076046","141.354087","0","3"
"01","北海道","01103","札幌市東区","011030005002","北十二条東二丁目","43.076360","141.355880","0","3"
"01","北海道","01103","札幌市東区","011030005003","北十二条東三丁目","43.076459","141.357479","0","3"
"01","北海道","01103","札幌市東区","011030005004","北十二条東四丁目","43.076794","141.359007","0","3"
"01","北海道","01103","札幌市東区","011030005005","北十二条東五丁目","43.076978","141.360565","0","3"
"01","北海道","01103","札幌市東区","011030005006","北十二条東六丁目","43.077319","141.362085","0","3"
"01","北海道","01103","札幌市東区","011030005007","北十二条東七丁目","43.077456","141.363559","0","3"
"01","北海道","01103","札幌市東区","011030005008","北十二条東八丁目","43.077581","141.364970","0","3"
"01","北海道","01103","札幌市東区","011030005009","北十二条東九丁目","43.077747","141.366920","0","3"
"01","北海道","01103","札幌市東区","011030006010","北十三条東十丁目","43.079293","141.368876","0","3"
"01","北海道","01103","札幌市東区","011030006012","北十三条東十二丁目","43.079450","141.370763","0","3"
"01","北海道","01103","札幌市東区","011030006013","北十三条東十三丁目","43.079800","141.371857","0","3"
"01","北海道","01103","札幌市東区","011030006014","北十三条東十四丁目","43.079940","141.373566","0","3"
"01","北海道","01103","札幌市東区","011030006015","北十三条東十五丁目","43.080225","141.375311","0","3"
"01","北海道","01103","札幌市東区","011030006016","北十三条東十六丁目","43.080434","141.377371","0","3"
"01","北海道","01103","札幌市東区","011030006001","北十三条東一丁目","43.077283","141.353875","0","3"
"01","北海道","01103","札幌市東区","011030006002","北十三条東二丁目","43.077504","141.355592","0","3"
"01","北海道","01103","札幌市東区","011030006003","北十三条東三丁目","43.077719","141.357162","0","3"
"01","北海道","01103","札幌市東区","011030006004","北十三条東四丁目","43.077815","141.358763","0","3"
"01","北海道","01103","札幌市東区","011030006005","北十三条東五丁目","43.078125","141.360276","0","3"
"01","北海道","01103","札幌市東区","011030006006","北十三条東六丁目","43.078334","141.361835","0","3"
"01","北海道","01103","札幌市東区","011030006007","北十三条東七丁目","43.078605","141.363444","0","3"
"01","北海道","01103","札幌市東区","011030006008","北十三条東八丁目","43.078965","141.364719","0","3"
"01","北海道","01103","札幌市東区","011030006009","北十三条東九丁目","43.079292","141.366439","0","3"
"01","北海道","01103","札幌市東区","011030007010","北十四条東十丁目","43.080239","141.368052","0","3"
"01","北海道","01103","札幌市東区","011030007012","北十四条東十二丁目","43.080567","141.369555","0","3"
"01","北海道","01103","札幌市東区","011030007013","北十四条東十三丁目","43.080858","141.370891","0","3"
"01","北海道","01103","札幌市東区","011030007014","北十四条東十四丁目","43.081029","141.372599","0","3"
"01","北海道","01103","札幌市東区","011030007015","北十四条東十五丁目","43.081365","141.374957","0","3"
"01","北海道","01103","札幌市東区","011030007016","北十四条東十六丁目","43.081737","141.377784","0","3"
"01","北海道","01103","札幌市東区","011030007001","北十四条東一丁目","43.078448","141.353299","0","3"
"01","北海道","01103","札幌市東区","011030007002","北十四条東二丁目","43.078640","141.355305","0","3"
"01","北海道","01103","札幌市東区","011030007003","北十四条東三丁目","43.078855","141.356875","0","3"
"01","北海道","01103","札幌市東区","011030007004","北十四条東四丁目","43.079088","141.358592","0","3"
"01","北海道","01103","札幌市東区","011030007005","北十四条東五丁目","43.079284","141.359987","0","3"
"01","北海道","01103","札幌市東区","011030007006","北十四条東六丁目","43.079530","141.361264","0","3"
"01","北海道","01103","札幌市東区","011030007007","北十四条東七丁目","43.079732","141.363164","0","3"
"01","北海道","01103","札幌市東区","011030007008","北十四条東八丁目","43.079932","141.364754","0","3"
"01","北海道","01103","札幌市東区","011030007009","北十四条東九丁目","43.080400","141.365810","0","3"
"01","北海道","01103","札幌市東区","011030008010","北十五条東十丁目","43.081534","141.367543","0","3"
"01","北海道","01103","札幌市東区","011030008012","北十五条東十二丁目","43.081486","141.369053","0","3"
"01","北海道","01103","札幌市東区","011030008013","北十五条東十三丁目","43.081828","141.370470","0","3"
"01","北海道","01103","札幌市東区","011030008014","北十五条東十四丁目","43.081993","141.372037","0","3"
"01","北海道","01103","札幌市東区","011030008015","北十五条東十五丁目","43.082155","141.373551","0","3"
"01","北海道","01103","札幌市東区","011030008016","北十五条東十六丁目","43.082508","141.375118","0","3"
"01","北海道","01103","札幌市東区","011030008017","北十五条東十七丁目","43.082416","141.376345","0","3"
"01","北海道","01103","札幌市東区","011030008018","北十五条東十八丁目","43.083057","141.378215","0","3"
"01","北海道","01103","札幌市東区","011030008001","北十五条東一丁目","43.079527","141.353209","0","3"
"01","北海道","01103","札幌市東区","011030008002","北十五条東二丁目","43.079810","141.355172","0","3"
"01","北海道","01103","札幌市東区","011030008003","北十五条東三丁目","43.079998","141.356581","0","3"
"01","北海道","01103","札幌市東区","011030008004","北十五条東四丁目","43.080214","141.358138","0","3"
"01","北海道","01103","札幌市東区","011030008005","北十五条東五丁目","43.080422","141.359697","0","3"
"01","北海道","01103","札幌市東区","011030008006","北十五条東六丁目","43.080635","141.361252","0","3"
"01","北海道","01103","札幌市東区","011030008007","北十五条東七丁目","43.080857","141.362877","0","3"
"01","北海道","01103","札幌市東区","011030008008","北十五条東八丁目","43.081073","141.364473","0","3"
"01","北海道","01103","札幌市東区","011030008009","北十五条東九丁目","43.081121","141.366117","0","3"
"01","北海道","01103","札幌市東区","011030009010","北十六条東十丁目","43.082645","141.367282","0","3"
"01","北海道","01103","札幌市東区","011030009012","北十六条東十二丁目","43.082681","141.368676","0","3"
"01","北海道","01103","札幌市東区","011030009013","北十六条東十三丁目","43.083004","141.370280","0","3"
"01","北海道","01103","札幌市東区","011030009014","北十六条東十四丁目","43.083204","141.371805","0","3"
"01","北海道","01103","札幌市東区","011030009015","北十六条東十五丁目","43.083448","141.373418","0","3"
"01","北海道","01103","札幌市東区","011030009016","北十六条東十六丁目","43.083619","141.375162","0","3"
"01","北海道","01103","札幌市東区","011030009017","北十六条東十七丁目","43.083570","141.376676","0","3"
"01","北海道","01103","札幌市東区","011030009018","北十六条東十八丁目","43.084080","141.378577","0","3"
"01","北海道","01103","札幌市東区","011030009019","北十六条東十九丁目","43.083442","141.380530","0","3"
"01","北海道","01103","札幌市東区","011030009001","北十六条東一丁目","43.080652","141.352816","0","3"
"01","北海道","01103","札幌市東区","011030009002","北十六条東二丁目","43.080934","141.354721","0","3"
"01","北海道","01103","札幌市東区","011030009003","北十六条東三丁目","43.081147","141.356278","0","3"
"01","北海道","01103","札幌市東区","011030009004","北十六条東四丁目","43.081359","141.357839","0","3"
"01","北海道","01103","札幌市東区","011030009005","北十六条東五丁目","43.081568","141.359403","0","3"
"01","北海道","01103","札幌市東区","011030009006","北十六条東六丁目","43.081782","141.360960","0","3"
"01","北海道","01103","札幌市東区","011030009007","北十六条東七丁目","43.082002","141.362585","0","3"
"01","北海道","01103","札幌市東区","011030009008","北十六条東八丁目","43.082183","141.363958","0","3"
"01","北海道","01103","札幌市東区","011030009009","北十六条東九丁目","43.082159","141.365563","0","3"
"01","北海道","01103","札幌市東区","011030010010","北十七条東十丁目","43.083786","141.367014","0","3"
"01","北海道","01103","札幌市東区","011030010012","北十七条東十二丁目","43.083998","141.368547","0","3"
"01","北海道","01103","札幌市東区","011030010013","北十七条東十三丁目","43.084121","141.370320","0","3"
"01","北海道","01103","札幌市東区","011030010014","北十七条東十四丁目","43.084404","141.371528","0","3"
"01","北海道","01103","札幌市東区","011030010015","北十七条東十五丁目","43.084615","141.373090","0","3"
"01","北海道","01103","札幌市東区","011030010016","北十七条東十六丁目","43.084872","141.375006","0","3"
"01","北海道","01103","札幌市東区","011030010017","北十七条東十七丁目","43.085035","141.376925","0","3"
"01","北海道","01103","札幌市東区","011030010018","北十七条東十八丁目","43.085001","141.378896","0","3"
"01","北海道","01103","札幌市東区","011030010019","北十七条東十九丁目","43.084512","141.380990","0","3"
"01","北海道","01103","札幌市東区","011030010001","北十七条東一丁目","43.081798","141.352388","0","3"
"01","北海道","01103","札幌市東区","011030010020","北十七条東二十丁目","43.083651","141.382885","0","3"
"01","北海道","01103","札幌市東区","011030010002","北十七条東二丁目","43.082080","141.354430","0","3"
"01","北海道","01103","札幌市東区","011030010003","北十七条東三丁目","43.082287","141.355985","0","3"
"01","北海道","01103","札幌市東区","011030010004","北十七条東四丁目","43.082486","141.357391","0","3"
"01","北海道","01103","札幌市東区","011030010005","北十七条東五丁目","43.082721","141.359110","0","3"
"01","北海道","01103","札幌市東区","011030010006","北十七条東六丁目","43.082931","141.360673","0","3"
"01","北海道","01103","札幌市東区","011030010007","北十七条東七丁目","43.083149","141.362303","0","3"
"01","北海道","01103","札幌市東区","011030010008","北十七条東八丁目","43.083239","141.363914","0","3"
"01","北海道","01103","札幌市東区","011030010009","北十七条東九丁目","43.083654","141.365196","0","3"
"01","北海道","01103","札幌市東区","011030011010","北十八条東十丁目","43.084927","141.366729","0","3"
"01","北海道","01103","札幌市東区","011030011012","北十八条東十二丁目","43.085113","141.368269","0","3"
"01","北海道","01103","札幌市東区","011030011013","北十八条東十三丁目","43.085369","141.369899","0","3"
"01","北海道","01103","札幌市東区","011030011014","北十八条東十四丁目","43.085611","141.371358","0","3"
"01","北海道","01103","札幌市東区","011030011015","北十八条東十五丁目","43.085768","141.372787","0","3"
"01","北海道","01103","札幌市東区","011030011016","北十八条東十六丁目","43.086092","141.374528","0","3"
"01","北海道","01103","札幌市東区","011030011017","北十八条東十七丁目","43.086345","141.376513","0","3"
"01","北海道","01103","札幌市東区","011030011018","北十八条東十八丁目","43.086437","141.377809","0","3"
"01","北海道","01103","札幌市東区","011030011019","北十八条東十九丁目","43.086169","141.379318","0","3"
"01","北海道","01103","札幌市東区","011030011001","北十八条東一丁目","43.083002","141.351894","0","3"
"01","北海道","01103","札幌市東区","011030011020","北十八条東二十丁目","43.085528","141.381477","0","3"
"01","北海道","01103","札幌市東区","011030011021","北十八条東二十一丁目","43.084736","141.383281","0","3"
"01","北海道","01103","札幌市東区","011030011002","北十八条東二丁目","43.083227","141.354147","0","3"
"01","北海道","01103","札幌市東区","011030011003","北十八条東三丁目","43.083438","141.355705","0","3"
"01","北海道","01103","札幌市東区","011030011004","北十八条東四丁目","43.083654","141.357267","0","3"
"01","北海道","01103","札幌市東区","011030011005","北十八条東五丁目","43.083866","141.358825","0","3"
"01","北海道","01103","札幌市東区","011030011006","北十八条東六丁目","43.084421","141.360305","0","3"
"01","北海道","01103","札幌市東区","011030011007","北十八条東七丁目","43.084294","141.362016","0","3"
"01","北海道","01103","札幌市東区","011030011008","北十八条東八丁目","43.084485","141.363638","0","3"
"01","北海道","01103","札幌市東区","011030011009","北十八条東九丁目","43.084717","141.365188","0","3"
"01","北海道","01103","札幌市東区","011030012010","北十九条東十丁目","43.086283","141.366384","0","3"
"01","北海道","01103","札幌市東区","011030012012","北十九条東十二丁目","43.086472","141.367921","0","3"
"01","北海道","01103","札幌市東区","011030012013","北十九条東十三丁目","43.086752","141.369557","0","3"
"01","北海道","01103","札幌市東区","011030012014","北十九条東十四丁目","43.087004","141.371322","0","3"
"01","北海道","01103","札幌市東区","011030012015","北十九条東十五丁目","43.087209","141.372723","0","3"
"01","北海道","01103","札幌市東区","011030012016","北十九条東十六丁目","43.087566","141.374318","0","3"
"01","北海道","01103","札幌市東区","011030012017","北十九条東十七丁目","43.087960","141.376293","0","3"
"01","北海道","01103","札幌市東区","011030012018","北十九条東十八丁目","43.087726","141.377872","0","3"
"01","北海道","01103","札幌市東区","011030012019","北十九条東十九丁目","43.087379","141.379776","0","3"
"01","北海道","01103","札幌市東区","011030012001","北十九条東一丁目","43.084443","141.351450","0","3"
"01","北海道","01103","札幌市東区","011030012020","北十九条東二十丁目","43.087362","141.381505","0","3"
"01","北海道","01103","札幌市東区","011030012021","北十九条東二十一丁目","43.086734","141.382463","0","3"
"01","北海道","01103","札幌市東区","011030012022","北十九条東二十二丁目","43.086005","141.384514","0","3"
"01","北海道","01103","札幌市東区","011030012002","北十九条東二丁目","43.084638","141.353802","0","3"
"01","北海道","01103","札幌市東区","011030012003","北十九条東三丁目","43.084927","141.355339","0","3"
"01","北海道","01103","札幌市東区","011030012004","北十九条東四丁目","43.085027","141.356926","0","3"
"01","北海道","01103","札幌市東区","011030012005","北十九条東五丁目","43.085267","141.358476","0","3"
"01","北海道","01103","札幌市東区","011030012006","北十九条東六丁目","43.085804","141.359964","0","3"
"01","北海道","01103","札幌市東区","011030012007","北十九条東七丁目","43.085703","141.361664","0","3"
"01","北海道","01103","札幌市東区","011030012008","北十九条東八丁目","43.085915","141.363278","0","3"
"01","北海道","01103","札幌市東区","011030012009","北十九条東九丁目","43.086002","141.364864","0","3"
"01","北海道","01103","札幌市東区","011030013010","北二十条東十丁目","43.087890","141.365974","0","3"
"01","北海道","01103","札幌市東区","011030013012","北二十条東十二丁目","43.088097","141.367508","0","3"
"01","北海道","01103","札幌市東区","011030013013","北二十条東十三丁目","43.088284","141.369046","0","3"
"01","北海道","01103","札幌市東区","011030013014","北二十条東十四丁目","43.088525","141.370529","0","3"
"01","北海道","01103","札幌市東区","011030013015","北二十条東十五丁目","43.088726","141.372072","0","3"
"01","北海道","01103","札幌市東区","011030013016","北二十条東十六丁目","43.088994","141.373978","0","3"
"01","北海道","01103","札幌市東区","011030013017","北二十条東十七丁目","43.089312","141.375819","0","3"
"01","北海道","01103","札幌市東区","011030013018","北二十条東十八丁目","43.089389","141.378041","0","3"
"01","北海道","01103","札幌市東区","011030013019","北二十条東十九丁目","43.088954","141.380356","0","3"
"01","北海道","01103","札幌市東区","011030013001","北二十条東一丁目","43.085880","141.351057","0","3"
"01","北海道","01103","札幌市東区","011030013020","北二十条東二十丁目","43.088691","141.382703","0","3"
"01","北海道","01103","札幌市東区","011030013021","北二十条東二十一丁目","43.088026","141.384062","0","3"
"01","北海道","01103","札幌市東区","011030013022","北二十条東二十二丁目","43.087353","141.385799","0","3"
"01","北海道","01103","札幌市東区","011030013002","北二十条東二丁目","43.086232","141.353409","0","3"
"01","北海道","01103","札幌市東区","011030013003","北二十条東三丁目","43.086443","141.354963","0","3"
"01","北海道","01103","札幌市東区","011030013004","北二十条東四丁目","43.086637","141.356536","0","3"
"01","北海道","01103","札幌市東区","011030013005","北二十条東五丁目","43.086847","141.358101","0","3"
"01","北海道","01103","札幌市東区","011030013006","北二十条東六丁目","43.087058","141.359657","0","3"
"01","北海道","01103","札幌市東区","011030013007","北二十条東七丁目","43.087266","141.361267","0","3"
"01","北海道","01103","札幌市東区","011030013008","北二十条東八丁目","43.087472","141.362885","0","3"
"01","北海道","01103","札幌市東区","011030013009","北二十条東九丁目","43.087682","141.364442","0","3"
"01","北海道","01103","札幌市東区","011030014010","北二十一条東十丁目","43.089331","141.365610","0","3"
"01","北海道","01103","札幌市東区","011030014012","北二十一条東十二丁目","43.089540","141.367151","0","3"
"01","北海道","01103","札幌市東区","011030014013","北二十一条東十三丁目","43.089750","141.368684","0","3"
"01","北海道","01103","札幌市東区","011030014014","北二十一条東十四丁目","43.089959","141.370203","0","3"
"01","北海道","01103","札幌市東区","011030014015","北二十一条東十五丁目","43.090183","141.371741","0","3"
"01","北海道","01103","札幌市東区","011030014016","北二十一条東十六丁目","43.090439","141.373631","0","3"
"01","北海道","01103","札幌市東区","011030014017","北二十一条東十七丁目","43.090695","141.375479","0","3"
"01","北海道","01103","札幌市東区","011030014018","北二十一条東十八丁目","43.091028","141.377594","0","3"
"01","北海道","01103","札幌市東区","011030014019","北二十一条東十九丁目","43.090708","141.379261","0","3"
"01","北海道","01103","札幌市東区","011030014001","北二十一条東一丁目","43.087330","141.350680","0","3"
"01","北海道","01103","札幌市東区","011030014020","北二十一条東二十丁目","43.090612","141.380915","0","3"
"01","北海道","01103","札幌市東区","011030014021","北二十一条東二十一丁目","43.090250","141.382938","0","3"
"01","北海道","01103","札幌市東区","011030014022","北二十一条東二十二丁目","43.089612","141.385231","0","3"
"01","北海道","01103","札幌市東区","011030014023","北二十一条東二十三丁目","43.088662","141.387519","0","3"
"01","北海道","01103","札幌市東区","011030014002","北二十一条東二丁目","43.087646","141.353065","0","3"
"01","北海道","01103","札幌市東区","011030014003","北二十一条東三丁目","43.087856","141.354617","0","3"
"01","北海道","01103","札幌市東区","011030014004","北二十一条東四丁目","43.088065","141.356179","0","3"
"01","北海道","01103","札幌市東区","011030014005","北二十一条東五丁目","43.088281","141.357751","0","3"
"01","北海道","01103","札幌市東区","011030014006","北二十一条東六丁目","43.088502","141.359308","0","3"
"01","北海道","01103","札幌市東区","011030014007","北二十一条東七丁目","43.088708","141.360912","0","3"
"01","北海道","01103","札幌市東区","011030014008","北二十一条東八丁目","43.088918","141.362519","0","3"
"01","北海道","01103","札幌市東区","011030014009","北二十一条東九丁目","43.089126","141.364073","0","3"
"01","北海道","01103","札幌市東区","011030015010","北二十二条東十丁目","43.090768","141.365242","0","3"
"01","北海道","01103","札幌市東区","011030015012","北二十二条東十二丁目","43.090982","141.366790","0","3"
"01","北海道","01103","札幌市東区","011030015013","北二十二条東十三丁目","43.091194","141.368326","0","3"
"01","北海道","01103","札幌市東区","011030015014","北二十二条東十四丁目","43.091403","141.369849","0","3"
"01","北海道","01103","札幌市東区","011030015015","北二十二条東十五丁目","43.091649","141.371385","0","3"
"01","北海道","01103","札幌市東区","011030015016","北二十二条東十六丁目","43.091876","141.373288","0","3"
"01","北海道","01103","札幌市東区","011030015017","北二十二条東十七丁目","43.092132","141.375140","0","3"
"01","北海道","01103","札幌市東区","011030015018","北二十二条東十八丁目","43.092399","141.377309","0","3"
"01","北海道","01103","札幌市東区","011030015019","北二十二条東十九丁目","43.092332","141.379526","0","3"
"01","北海道","01103","札幌市東区","011030015001","北二十二条東一丁目","43.088751","141.350312","0","3"
"01","北海道","01103","札幌市東区","011030015020","北二十二条東二十丁目","43.092307","141.381105","0","3"
"01","北海道","01103","札幌市東区","011030015021","北二十二条東二十一丁目","43.091967","141.383960","0","3"
"01","北海道","01103","札幌市東区","011030015022","北二十二条東二十二丁目","43.091244","141.386745","0","3"
"01","北海道","01103","札幌市東区","011030015023","北二十二条東二十三丁目","43.090540","141.388412","0","3"
"01","北海道","01103","札幌市東区","011030015002","北二十二条東二丁目","43.089077","141.352721","0","3"
"01","北海道","01103","札幌市東区","011030015003","北二十二条東三丁目","43.089286","141.354272","0","3"
"01","北海道","01103","札幌市東区","011030015004","北二十二条東四丁目","43.089489","141.355824","0","3"
"01","北海道","01103","札幌市東区","011030015005","北二十二条東五丁目","43.089704","141.357395","0","3"
"01","北海道","01103","札幌市東区","011030015006","北二十二条東六丁目","43.089922","141.358963","0","3"
"01","北海道","01103","札幌市東区","011030015007","北二十二条東七丁目","43.090133","141.360562","0","3"
"01","北海道","01103","札幌市東区","011030015008","北二十二条東八丁目","43.090350","141.362159","0","3"
"01","北海道","01103","札幌市東区","011030015009","北二十二条東九丁目","43.090559","141.363705","0","3"
"01","北海道","01103","札幌市東区","011030016010","北二十三条東十丁目","43.092303","141.364855","0","3"
"01","北海道","01103","札幌市東区","011030016012","北二十三条東十二丁目","43.092515","141.366398","0","3"
"01","北海道","01103","札幌市東区","011030016013","北二十三条東十三丁目","43.092727","141.367940","0","3"
"01","北海道","01103","札幌市東区","011030016014","北二十三条東十四丁目","43.092939","141.369476","0","3"
"01","北海道","01103","札幌市東区","011030016015","北二十三条東十五丁目","43.093158","141.371125","0","3"
"01","北海道","01103","札幌市東区","011030016016","北二十三条東十六丁目","43.093544","141.372825","0","3"
"01","北海道","01103","札幌市東区","011030016017","北二十三条東十七丁目","43.093562","141.374795","0","3"
"01","北海道","01103","札幌市東区","011030016018","北二十三条東十八丁目","43.093862","141.377187","0","3"
"01","北海道","01103","札幌市東区","011030016019","北二十三条東十九丁目","43.093881","141.379748","0","3"
"01","北海道","01103","札幌市東区","011030016001","北二十三条東一丁目","43.090276","141.349917","0","3"
"01","北海道","01103","札幌市東区","011030016020","北二十三条東二十丁目","43.093630","141.381796","0","3"
"01","北海道","01103","札幌市東区","011030016021","北二十三条東二十一丁目","43.093650","141.384168","0","3"
"01","北海道","01103","札幌市東区","011030016022","北二十三条東二十二丁目","43.092989","141.385999","0","3"
"01","北海道","01103","札幌市東区","011030016023","北二十三条東二十三丁目","43.092840","141.388043","0","3"
"01","北海道","01103","札幌市東区","011030016002","北二十三条東二丁目","43.090605","141.352343","0","3"
"01","北海道","01103","札幌市東区","011030016003","北二十三条東三丁目","43.090812","141.353898","0","3"
"01","北海道","01103","札幌市東区","011030016004","北二十三条東四丁目","43.091021","141.355450","0","3"
"01","北海道","01103","札幌市東区","011030016005","北二十三条東五丁目","43.091235","141.357009","0","3"
"01","北海道","01103","札幌市東区","011030016006","北二十三条東六丁目","43.091450","141.358581","0","3"
"01","北海道","01103","札幌市東区","011030016007","北二十三条東七丁目","43.091667","141.360181","0","3"
"01","北海道","01103","札幌市東区","011030016008","北二十三条東八丁目","43.091883","141.361773","0","3"
"01","北海道","01103","札幌市東区","011030016009","北二十三条東九丁目","43.092090","141.363320","0","3"
"01","北海道","01103","札幌市東区","011030017010","北二十四条東十丁目","43.093681","141.364506","0","3"
"01","北海道","01103","札幌市東区","011030017012","北二十四条東十二丁目","43.093888","141.366047","0","3"
"01","北海道","01103","札幌市東区","011030017013","北二十四条東十三丁目","43.094101","141.367599","0","3"
"01","北海道","01103","札幌市東区","011030017014","北二十四条東十四丁目","43.094314","141.369149","0","3"
"01","北海道","01103","札幌市東区","011030017015","北二十四条東十五丁目","43.094501","141.370719","0","3"
"01","北海道","01103","札幌市東区","011030017016","北二十四条東十六丁目","43.094649","141.372640","0","3"
"01","北海道","01103","札幌市東区","011030017017","北二十四条東十七丁目","43.094769","141.374544","0","3"
"01","北海道","01103","札幌市東区","011030017018","北二十四条東十八丁目","43.095167","141.376847","0","3"
"01","北海道","01103","札幌市東区","011030017019","北二十四条東十九丁目","43.095262","141.379887","0","3"
"01","北海道","01103","札幌市東区","011030017001","北二十四条東一丁目","43.091678","141.349556","0","3"
"01","北海道","01103","札幌市東区","011030017020","北二十四条東二十丁目","43.095115","141.382404","0","3"
"01","北海道","01103","札幌市東区","011030017021","北二十四条東二十一丁目","43.094841","141.384816","0","3"
"01","北海道","01103","札幌市東区","011030017022","北二十四条東二十二丁目","43.094427","141.387213","0","3"
"01","北海道","01103","札幌市東区","011030017002","北二十四条東二丁目","43.091986","141.352004","0","3"
"01","北海道","01103","札幌市東区","011030017003","北二十四条東三丁目","43.092192","141.353558","0","3"
"01","北海道","01103","札幌市東区","011030017004","北二十四条東四丁目","43.092346","141.354630","0","3"
"01","北海道","01103","札幌市東区","011030017005","北二十四条東五丁目","43.092624","141.356914","0","3"
"01","北海道","01103","札幌市東区","011030017006","北二十四条東六丁目","43.092836","141.358236","0","3"
"01","北海道","01103","札幌市東区","011030017007","北二十四条東七丁目","43.093053","141.359837","0","3"
"01","北海道","01103","札幌市東区","011030017008","北二十四条東八丁目","43.093265","141.361425","0","3"
"01","北海道","01103","札幌市東区","011030017009","北二十四条東九丁目","43.093472","141.362968","0","3"
"01","北海道","01103","札幌市東区","011030018010","北二十五条東十丁目","43.094832","141.364217","0","3"
"01","北海道","01103","札幌市東区","011030018012","北二十五条東十二丁目","43.095036","141.365752","0","3"
"01","北海道","01103","札幌市東区","011030018013","北二十五条東十三丁目","43.095247","141.367311","0","3"
"01","北海道","01103","札幌市東区","011030018014","北二十五条東十四丁目","43.095456","141.368867","0","3"
"01","北海道","01103","札幌市東区","011030018015","北二十五条東十五丁目","43.095582","141.370738","0","3"
"01","北海道","01103","札幌市東区","011030018016","北二十五条東十六丁目","43.095838","141.372377","0","3"
"01","北海道","01103","札幌市東区","011030018017","北二十五条東十七丁目","43.096049","141.374196","0","3"
"01","北海道","01103","札幌市東区","011030018018","北二十五条東十八丁目","43.096441","141.376569","0","3"
"01","北海道","01103","札幌市東区","011030018019","北二十五条東十九丁目","43.096428","141.379749","0","3"
"01","北海道","01103","札幌市東区","011030018001","北二十五条東一丁目","43.092710","141.349297","0","3"
"01","北海道","01103","札幌市東区","011030018020","北二十五条東二十丁目","43.096760","141.382633","0","3"
"01","北海道","01103","札幌市東区","011030018021","北二十五条東二十一丁目","43.096397","141.384984","0","3"
"01","北海道","01103","札幌市東区","011030018022","北二十五条東二十二丁目","43.096246","141.386934","0","3"
"01","北海道","01103","札幌市東区","011030018002","北二十五条東二丁目","43.093163","141.351715","0","3"
"01","北海道","01103","札幌市東区","011030018003","北二十五条東三丁目","43.093367","141.353269","0","3"
"01","北海道","01103","札幌市東区","011030018004","北二十五条東四丁目","43.093282","141.355141","0","3"
"01","北海道","01103","札幌市東区","011030018005","北二十五条東五丁目","43.093814","141.356381","0","3"
"01","北海道","01103","札幌市東区","011030018006","北二十五条東六丁目","43.093998","141.357952","0","3"
"01","北海道","01103","札幌市東区","011030018007","北二十五条東七丁目","43.094213","141.359546","0","3"
"01","北海道","01103","札幌市東区","011030018008","北二十五条東八丁目","43.094424","141.361132","0","3"
"01","北海道","01103","札幌市東区","011030018009","北二十五条東九丁目","43.094629","141.362677","0","3"
"01","北海道","01103","札幌市東区","011030019010","北二十六条東十丁目","43.095964","141.363938","0","3"
"01","北海道","01103","札幌市東区","011030019012","北二十六条東十二丁目","43.096168","141.365471","0","3"
"01","北海道","01103","札幌市東区","011030019013","北二十六条東十三丁目","43.096374","141.367028","0","3"
"01","北海道","01103","札幌市東区","011030019014","北二十六条東十四丁目","43.096582","141.368585","0","3"
"01","北海道","01103","札幌市東区","011030019015","北二十六条東十五丁目","43.096776","141.370182","0","3"
"01","北海道","01103","札幌市東区","011030019016","北二十六条東十六丁目","43.097074","141.372099","0","3"
"01","北海道","01103","札幌市東区","011030019017","北二十六条東十七丁目","43.097321","141.373920","0","3"
"01","北海道","01103","札幌市東区","011030019018","北二十六条東十八丁目","43.097735","141.376541","0","3"
"01","北海道","01103","札幌市東区","011030019019","北二十六条東十九丁目","43.097462","141.379539","0","3"
"01","北海道","01103","札幌市東区","011030019001","北二十六条東一丁目","43.094038","141.348959","0","3"
"01","北海道","01103","札幌市東区","011030019020","北二十六条東二十丁目","43.098137","141.382000","0","3"
"01","北海道","01103","札幌市東区","011030019021","北二十六条東二十一丁目","43.098015","141.384311","0","3"
"01","北海道","01103","札幌市東区","011030019022","北二十六条東二十二丁目","43.097784","141.386808","0","3"
"01","北海道","01103","札幌市東区","011030019002","北二十六条東二丁目","43.094341","141.351429","0","3"
"01","北海道","01103","札幌市東区","011030019003","北二十六条東三丁目","43.094550","141.352984","0","3"
"01","北海道","01103","札幌市東区","011030019004","北二十六条東四丁目","43.094757","141.354535","0","3"
"01","北海道","01103","札幌市東区","011030019005","北二十六条東五丁目","43.094958","141.356099","0","3"
"01","北海道","01103","札幌市東区","011030019006","北二十六条東六丁目","43.095164","141.357668","0","3"
"01","北海道","01103","札幌市東区","011030019007","北二十六条東七丁目","43.095369","141.359254","0","3"
"01","北海道","01103","札幌市東区","011030019008","北二十六条東八丁目","43.095567","141.360844","0","3"
"01","北海道","01103","札幌市東区","011030019009","北二十六条東九丁目","43.095763","141.362400","0","3"
"01","北海道","01103","札幌市東区","011030020010","北二十七条東十丁目","43.097128","141.363647","0","3"
"01","北海道","01103","札幌市東区","011030020012","北二十七条東十二丁目","43.097332","141.365186","0","3"
"01","北海道","01103","札幌市東区","011030020013","北二十七条東十三丁目","43.097534","141.366741","0","3"
"01","北海道","01103","札幌市東区","011030020014","北二十七条東十四丁目","43.097731","141.368304","0","3"
"01","北海道","01103","札幌市東区","011030020015","北二十七条東十五丁目","43.097959","141.369893","0","3"
"01","北海道","01103","札幌市東区","011030020016","北二十七条東十六丁目","43.098127","141.371882","0","3"
"01","北海道","01103","札幌市東区","011030020017","北二十七条東十七丁目","43.098553","141.373793","0","3"
"01","北海道","01103","札幌市東区","011030020018","北二十七条東十八丁目","43.098676","141.376050","0","3"
"01","北海道","01103","札幌市東区","011030020019","北二十七条東十九丁目","43.098835","141.379188","0","3"
"01","北海道","01103","札幌市東区","011030020001","北二十七条東一丁目","43.095081","141.348697","0","3"
"01","北海道","01103","札幌市東区","011030020020","北二十七条東二十丁目","43.099142","141.381706","0","3"
"01","北海道","01103","札幌市東区","011030020021","北二十七条東二十一丁目","43.099555","141.383801","0","3"
"01","北海道","01103","札幌市東区","011030020022","北二十七条東二十二丁目","43.099513","141.386470","0","3"
"01","北海道","01103","札幌市東区","011030020002","北二十七条東二丁目","43.095492","141.351149","0","3"
"01","北海道","01103","札幌市東区","011030020003","北二十七条東三丁目","43.095701","141.352703","0","3"
"01","北海道","01103","札幌市東区","011030020004","北二十七条東四丁目","43.095902","141.354256","0","3"
"01","北海道","01103","札幌市東区","011030020005","北二十七条東五丁目","43.096103","141.355817","0","3"
"01","北海道","01103","札幌市東区","011030020006","北二十七条東六丁目","43.096312","141.357390","0","3"
"01","北海道","01103","札幌市東区","011030020007","北二十七条東七丁目","43.096518","141.358974","0","3"
"01","北海道","01103","札幌市東区","011030020008","北二十七条東八丁目","43.096722","141.360553","0","3"
"01","北海道","01103","札幌市東区","011030020009","北二十七条東九丁目","43.096924","141.362107","0","3"
"01","北海道","01103","札幌市東区","011030021010","北二十八条東十丁目","43.098271","141.363365","0","3"
"01","北海道","01103","札幌市東区","011030021012","北二十八条東十二丁目","43.098467","141.364902","0","3"
"01","北海道","01103","札幌市東区","011030021013","北二十八条東十三丁目","43.098665","141.366459","0","3"
"01","北海道","01103","札幌市東区","011030021014","北二十八条東十四丁目","43.098856","141.368026","0","3"
"01","北海道","01103","札幌市東区","011030021015","北二十八条東十五丁目","43.099106","141.369612","0","3"
"01","北海道","01103","札幌市東区","011030021016","北二十八条東十六丁目","43.099294","141.371286","0","3"
"01","北海道","01103","札幌市東区","011030021017","北二十八条東十七丁目","43.099494","141.373035","0","3"
"01","北海道","01103","札幌市東区","011030021018","北二十八条東十八丁目","43.099760","141.375665","0","3"
"01","北海道","01103","札幌市東区","011030021019","北二十八条東十九丁目","43.100099","141.378492","0","3"
"01","北海道","01103","札幌市東区","011030021001","北二十八条東一丁目","43.096193","141.348419","0","3"
"01","北海道","01103","札幌市東区","011030021020","北二十八条東二十丁目","43.100390","141.381088","0","3"
"01","北海道","01103","札幌市東区","011030021021","北二十八条東二十一丁目","43.100727","141.383673","0","3"
"01","北海道","01103","札幌市東区","011030021002","北二十八条東二丁目","43.096602","141.350870","0","3"
"01","北海道","01103","札幌市東区","011030021003","北二十八条東三丁目","43.096821","141.352422","0","3"
"01","北海道","01103","札幌市東区","011030021004","北二十八条東四丁目","43.097159","141.354067","0","3"
"01","北海道","01103","札幌市東区","011030021005","北二十八条東五丁目","43.097232","141.355547","0","3"
"01","北海道","01103","札幌市東区","011030021006","北二十八条東六丁目","43.097439","141.357122","0","3"
"01","北海道","01103","札幌市東区","011030021007","北二十八条東七丁目","43.097651","141.358699","0","3"
"01","北海道","01103","札幌市東区","011030021008","北二十八条東八丁目","43.097868","141.360265","0","3"
"01","北海道","01103","札幌市東区","011030021009","北二十八条東九丁目","43.098076","141.361819","0","3"
"01","北海道","01103","札幌市東区","011030022010","北三十条東十丁目","43.099338","141.363099","0","3"
"01","北海道","01103","札幌市東区","011030022012","北三十条東十二丁目","43.099532","141.364656","0","3"
"01","北海道","01103","札幌市東区","011030022013","北三十条東十三丁目","43.099722","141.366223","0","3"
"01","北海道","01103","札幌市東区","011030022014","北三十条東十四丁目","43.099910","141.367770","0","3"
"01","北海道","01103","札幌市東区","011030022015","北三十条東十五丁目","43.100031","141.369535","0","3"
"01","北海道","01103","札幌市東区","011030022016","北三十条東十六丁目","43.100316","141.371049","0","3"
"01","北海道","01103","札幌市東区","011030022017","北三十条東十七丁目","43.100598","141.372756","0","3"
"01","北海道","01103","札幌市東区","011030022018","北三十条東十八丁目","43.100915","141.375373","0","3"
"01","北海道","01103","札幌市東区","011030022019","北三十条東十九丁目","43.101455","141.377899","0","3"
"01","北海道","01103","札幌市東区","011030022001","北三十条東一丁目","43.097463","141.348092","0","3"
"01","北海道","01103","札幌市東区","011030022020","北三十条東二十丁目","43.101903","141.380508","0","3"
"01","北海道","01103","札幌市東区","011030022002","北三十条東二丁目","43.097710","141.350598","0","3"
"01","北海道","01103","札幌市東区","011030022003","北三十条東三丁目","43.097931","141.352147","0","3"
"01","北海道","01103","札幌市東区","011030022004","北三十条東四丁目","43.098135","141.353597","0","3"
"01","北海道","01103","札幌市東区","011030022005","北三十条東五丁目","43.098209","141.355061","0","3"
"01","北海道","01103","札幌市東区","011030022006","北三十条東六丁目","43.098564","141.356856","0","3"
"01","北海道","01103","札幌市東区","011030022007","北三十条東七丁目","43.098770","141.358422","0","3"
"01","北海道","01103","札幌市東区","011030022008","北三十条東八丁目","43.098966","141.359993","0","3"
"01","北海道","01103","札幌市東区","011030022009","北三十条東九丁目","43.099278","141.361667","0","3"
"01","北海道","01103","札幌市東区","011030023010","北三十一条東十丁目","43.100237","141.362702","0","3"
"01","北海道","01103","札幌市東区","011030023012","北三十一条東十二丁目","43.100554","141.364426","0","3"
"01","北海道","01103","札幌市東区","011030023013","北三十一条東十三丁目","43.100748","141.366013","0","3"
"01","北海道","01103","札幌市東区","011030023014","北三十一条東十四丁目","43.101140","141.367500","0","3"
"01","北海道","01103","札幌市東区","011030023015","北三十一条東十五丁目","43.101116","141.369119","0","3"
"01","北海道","01103","札幌市東区","011030023016","北三十一条東十六丁目","43.101456","141.370783","0","3"
"01","北海道","01103","札幌市東区","011030023017","北三十一条東十七丁目","43.101807","141.372637","0","3"
"01","北海道","01103","札幌市東区","011030023018","北三十一条東十八丁目","43.101909","141.375103","0","3"
"01","北海道","01103","札幌市東区","011030023019","北三十一条東十九丁目","43.102908","141.377887","0","3"
"01","北海道","01103","札幌市東区","011030023001","北三十一条東一丁目","43.098687","141.347784","0","3"
"01","北海道","01103","札幌市東区","011030023002","北三十一条東二丁目","43.098857","141.350324","0","3"
"01","北海道","01103","札幌市東区","011030023003","北三十一条東三丁目","43.099068","141.351866","0","3"
"01","北海道","01103","札幌市東区","011030023004","北三十一条東四丁目","43.099263","141.353316","0","3"
"01","北海道","01103","札幌市東区","011030023005","北三十一条東五丁目","43.099470","141.354898","0","3"
"01","北海道","01103","札幌市東区","011030023006","北三十一条東六丁目","43.099698","141.356581","0","3"
"01","北海道","01103","札幌市東区","011030023007","北三十一条東七丁目","43.099997","141.358325","0","3"
"01","北海道","01103","札幌市東区","011030023008","北三十一条東八丁目","43.099978","141.359786","0","3"
"01","北海道","01103","札幌市東区","011030023009","北三十一条東九丁目","43.100161","141.361299","0","3"
"01","北海道","01103","札幌市東区","011030024010","北三十二条東十丁目","43.101459","141.362584","0","3"
"01","北海道","01103","札幌市東区","011030024012","北三十二条東十二丁目","43.101619","141.364281","0","3"
"01","北海道","01103","札幌市東区","011030024013","北三十二条東十三丁目","43.101725","141.365793","0","3"
"01","北海道","01103","札幌市東区","011030024014","北三十二条東十四丁目","43.101955","141.367304","0","3"
"01","北海道","01103","札幌市東区","011030024015","北三十二条東十五丁目","43.102079","141.368883","0","3"
"01","北海道","01103","札幌市東区","011030024016","北三十二条東十六丁目","43.102490","141.370530","0","3"
"01","北海道","01103","札幌市東区","011030024017","北三十二条東十七丁目","43.102726","141.372234","0","3"
"01","北海道","01103","札幌市東区","011030024018","北三十二条東十八丁目","43.103014","141.374881","0","3"
"01","北海道","01103","札幌市東区","011030024001","北三十二条東一丁目","43.099812","141.347495","0","3"
"01","北海道","01103","札幌市東区","011030024002","北三十二条東二丁目","43.099964","141.350058","0","3"
"01","北海道","01103","札幌市東区","011030024003","北三十二条東三丁目","43.100211","141.351587","0","3"
"01","北海道","01103","札幌市東区","011030024004","北三十二条東四丁目","43.100415","141.353034","0","3"
"01","北海道","01103","札幌市東区","011030024005","北三十二条東五丁目","43.100621","141.354617","0","3"
"01","北海道","01103","札幌市東区","011030024006","北三十二条東六丁目","43.100842","141.356297","0","3"
"01","北海道","01103","札幌市東区","011030024007","北三十二条東七丁目","43.101109","141.358066","0","3"
"01","北海道","01103","札幌市東区","011030024008","北三十二条東八丁目","43.100953","141.359545","0","3"
"01","北海道","01103","札幌市東区","011030024009","北三十二条東九丁目","43.101108","141.361109","0","3"
"01","北海道","01103","札幌市東区","011030025010","北三十三条東十丁目","43.102591","141.362310","0","3"
"01","北海道","01103","札幌市東区","011030025012","北三十三条東十二丁目","43.102602","141.363626","0","3"
"01","北海道","01103","札幌市東区","011030025013","北三十三条東十三丁目","43.102932","141.365147","0","3"
"01","北海道","01103","札幌市東区","011030025014","北三十三条東十四丁目","43.103175","141.366837","0","3"
"01","北海道","01103","札幌市東区","011030025015","北三十三条東十五丁目","43.103428","141.368605","0","3"
"01","北海道","01103","札幌市東区","011030025016","北三十三条東十六丁目","43.103820","141.370274","0","3"
"01","北海道","01103","札幌市東区","011030025017","北三十三条東十七丁目","43.103685","141.372001","0","3"
"01","北海道","01103","札幌市東区","011030025018","北三十三条東十八丁目","43.103811","141.374634","0","3"
"01","北海道","01103","札幌市東区","011030025001","北三十三条東一丁目","43.100884","141.347241","0","3"
"01","北海道","01103","札幌市東区","011030025002","北三十三条東二丁目","43.101133","141.349877","0","3"
"01","北海道","01103","札幌市東区","011030025003","北三十三条東三丁目","43.101320","141.351301","0","3"
"01","北海道","01103","札幌市東区","011030025004","北三十三条東四丁目","43.101517","141.352681","0","3"
"01","北海道","01103","札幌市東区","011030025005","北三十三条東五丁目","43.101783","141.354331","0","3"
"01","北海道","01103","札幌市東区","011030025006","北三十三条東六丁目","43.101982","141.356010","0","3"
"01","北海道","01103","札幌市東区","011030025007","北三十三条東七丁目","43.102201","141.357620","0","3"
"01","北海道","01103","札幌市東区","011030025008","北三十三条東八丁目","43.102091","141.359043","0","3"
"01","北海道","01103","札幌市東区","011030025009","北三十三条東九丁目","43.102113","141.360801","0","3"
"01","北海道","01103","札幌市東区","011030026010","北三十四条東十丁目","43.104119","141.362095","0","3"
"01","北海道","01103","札幌市東区","011030026012","北三十四条東十二丁目","43.104101","141.363406","0","3"
"01","北海道","01103","札幌市東区","011030026013","北三十四条東十三丁目","43.104280","141.364724","0","3"
"01","北海道","01103","札幌市東区","011030026014","北三十四条東十四丁目","43.104528","141.366464","0","3"
"01","北海道","01103","札幌市東区","011030026015","北三十四条東十五丁目","43.104694","141.368336","0","3"
"01","北海道","01103","札幌市東区","011030026016","北三十四条東十六丁目","43.105110","141.369911","0","3"
"01","北海道","01103","札幌市東区","011030026017","北三十四条東十七丁目","43.105006","141.371681","0","3"
"01","北海道","01103","札幌市東区","011030026018","北三十四条東十八丁目","43.105115","141.373311","0","3"
"01","北海道","01103","札幌市東区","011030026019","北三十四条東十九丁目","43.105041","141.375121","0","3"
"01","北海道","01103","札幌市東区","011030026001","北三十四条東一丁目","43.102074","141.346951","0","3"
"01","北海道","01103","札幌市東区","011030026020","北三十四条東二十丁目","43.104700","141.377186","0","3"
"01","北海道","01103","札幌市東区","011030026021","北三十四条東二十一丁目","43.104317","141.378398","0","3"
"01","北海道","01103","札幌市東区","011030026022","北三十四条東二十二丁目","43.103822","141.379729","0","3"
"01","北海道","01103","札幌市東区","011030026023","北三十四条東二十三丁目","43.103211","141.381611","0","3"
"01","北海道","01103","札幌市東区","011030026024","北三十四条東二十四丁目","43.102586","141.383060","0","3"
"01","北海道","01103","札幌市東区","011030026025","北三十四条東二十五丁目","43.101759","141.384092","0","3"
"01","北海道","01103","札幌市東区","011030026026","北三十四条東二十六丁目","43.101246","141.385823","0","3"
"01","北海道","01103","札幌市東区","011030026027","北三十四条東二十七丁目","43.100763","141.387536","0","3"
"01","北海道","01103","札幌市東区","011030026028","北三十四条東二十八丁目","43.099477","141.390737","0","3"
"01","北海道","01103","札幌市東区","011030026002","北三十四条東二丁目","43.102305","141.349617","0","3"
"01","北海道","01103","札幌市東区","011030026003","北三十四条東三丁目","43.102663","141.351092","0","3"
"01","北海道","01103","札幌市東区","011030026004","北三十四条東四丁目","43.102770","141.352394","0","3"
"01","北海道","01103","札幌市東区","011030026005","北三十四条東五丁目","43.102994","141.354023","0","3"
"01","北海道","01103","札幌市東区","011030026006","北三十四条東六丁目","43.103191","141.355712","0","3"
"01","北海道","01103","札幌市東区","011030026007","北三十四条東七丁目","43.103393","141.357331","0","3"
"01","北海道","01103","札幌市東区","011030026008","北三十四条東八丁目","43.103600","141.358827","0","3"
"01","北海道","01103","札幌市東区","011030026009","北三十四条東九丁目","43.103808","141.360368","0","3"
"01","北海道","01103","札幌市東区","011030027010","北三十五条東十丁目","43.105308","141.361812","0","3"
"01","北海道","01103","札幌市東区","011030027012","北三十五条東十二丁目","43.104950","141.363061","0","3"
"01","北海道","01103","札幌市東区","011030027013","北三十五条東十三丁目","43.105206","141.364636","0","3"
"01","北海道","01103","札幌市東区","011030027014","北三十五条東十四丁目","43.105380","141.366437","0","3"
"01","北海道","01103","札幌市東区","011030027015","北三十五条東十五丁目","43.105524","141.368152","0","3"
"01","北海道","01103","札幌市東区","011030027016","北三十五条東十六丁目","43.105906","141.369735","0","3"
"01","北海道","01103","札幌市東区","011030027017","北三十五条東十七丁目","43.105968","141.371283","0","3"
"01","北海道","01103","札幌市東区","011030027018","北三十五条東十八丁目","43.106158","141.373121","0","3"
"01","北海道","01103","札幌市東区","011030027019","北三十五条東十九丁目","43.106395","141.374812","0","3"
"01","北海道","01103","札幌市東区","011030027001","北三十五条東一丁目","43.103286","141.346765","0","3"
"01","北海道","01103","札幌市東区","011030027020","北三十五条東二十丁目","43.106223","141.377068","0","3"
"01","北海道","01103","札幌市東区","011030027021","北三十五条東二十一丁目","43.105835","141.379035","0","3"
"01","北海道","01103","札幌市東区","011030027022","北三十五条東二十二丁目","43.105489","141.380864","0","3"
"01","北海道","01103","札幌市東区","011030027023","北三十五条東二十三丁目","43.104696","141.382490","0","3"
"01","北海道","01103","札幌市東区","011030027024","北三十五条東二十四丁目","43.103901","141.384033","0","3"
"01","北海道","01103","札幌市東区","011030027025","北三十五条東二十五丁目","43.103171","141.385451","0","3"
"01","北海道","01103","札幌市東区","011030027026","北三十五条東二十六丁目","43.102374","141.386910","0","3"
"01","北海道","01103","札幌市東区","011030027027","北三十五条東二十七丁目","43.102172","141.388592","0","3"
"01","北海道","01103","札幌市東区","011030027028","北三十五条東二十八丁目","43.100819","141.392355","0","3"
"01","北海道","01103","札幌市東区","011030027002","北三十五条東二丁目","43.103677","141.349295","0","3"
"01","北海道","01103","札幌市東区","011030027003","北三十五条東三丁目","43.103782","141.350986","0","3"
"01","北海道","01103","札幌市東区","011030027004","北三十五条東四丁目","43.104072","141.352134","0","3"
"01","北海道","01103","札幌市東区","011030027005","北三十五条東五丁目","43.104281","141.353702","0","3"
"01","北海道","01103","札幌市東区","011030027006","北三十五条東六丁目","43.104481","141.355394","0","3"
"01","北海道","01103","札幌市東区","011030027007","北三十五条東七丁目","43.104680","141.357020","0","3"
"01","北海道","01103","札幌市東区","011030027008","北三十五条東八丁目","43.104886","141.358538","0","3"
"01","北海道","01103","札幌市東区","011030027009","北三十五条東九丁目","43.105091","141.360072","0","3"
"01","北海道","01103","札幌市東区","011030028010","北三十六条東十丁目","43.106347","141.361573","0","3"
"01","北海道","01103","札幌市東区","011030028012","北三十六条東十二丁目","43.105986","141.362822","0","3"
"01","北海道","01103","札幌市東区","011030028013","北三十六条東十三丁目","43.106434","141.364204","0","3"
"01","北海道","01103","札幌市東区","011030028014","北三十六条東十四丁目","43.106265","141.366056","0","3"
"01","北海道","01103","札幌市東区","011030028015","北三十六条東十五丁目","43.106585","141.367884","0","3"
"01","北海道","01103","札幌市東区","011030028016","北三十六条東十六丁目","43.106710","141.369837","0","3"
"01","北海道","01103","札幌市東区","011030028017","北三十六条東十七丁目","43.107019","141.371492","0","3"
"01","北海道","01103","札幌市東区","011030028018","北三十六条東十八丁目","43.107181","141.372825","0","3"
"01","北海道","01103","札幌市東区","011030028019","北三十六条東十九丁目","43.107433","141.374498","0","3"
"01","北海道","01103","札幌市東区","011030028001","北三十六条東一丁目","43.104247","141.346605","0","3"
"01","北海道","01103","札幌市東区","011030028020","北三十六条東二十丁目","43.107755","141.376615","0","3"
"01","北海道","01103","札幌市東区","011030028021","北三十六条東二十一丁目","43.107653","141.379046","0","3"
"01","北海道","01103","札幌市東区","011030028022","北三十六条東二十二丁目","43.107173","141.382180","0","3"
"01","北海道","01103","札幌市東区","011030028023","北三十六条東二十三丁目","43.106246","141.383863","0","3"
"01","北海道","01103","札幌市東区","011030028024","北三十六条東二十四丁目","43.105448","141.385455","0","3"
"01","北海道","01103","札幌市東区","011030028025","北三十六条東二十五丁目","43.104561","141.386783","0","3"
"01","北海道","01103","札幌市東区","011030028026","北三十六条東二十六丁目","43.103705","141.387998","0","3"
"01","北海道","01103","札幌市東区","011030028027","北三十六条東二十七丁目","43.102892","141.389337","0","3"
"01","北海道","01103","札幌市東区","011030028028","北三十六条東二十八丁目","43.101786","141.393065","0","3"
"01","北海道","01103","札幌市東区","011030028029","北三十六条東二十九丁目","43.100433","141.395691","0","3"
"01","北海道","01103","札幌市東区","011030028002","北三十六条東二丁目","43.104739","141.349037","0","3"
"01","北海道","01103","札幌市東区","011030028003","北三十六条東三丁目","43.104948","141.350596","0","3"
"01","北海道","01103","札幌市東区","011030028004","北三十六条東四丁目","43.105116","141.351876","0","3"
"01","北海道","01103","札幌市東区","011030028005","北三十六条東五丁目","43.105317","141.353437","0","3"
"01","北海道","01103","札幌市東区","011030028006","北三十六条東六丁目","43.105525","141.355130","0","3"
"01","北海道","01103","札幌市東区","011030028007","北三十六条東七丁目","43.105728","141.356760","0","3"
"01","北海道","01103","札幌市東区","011030028008","北三十六条東八丁目","43.105917","141.358288","0","3"
"01","北海道","01103","札幌市東区","011030028009","北三十六条東九丁目","43.106112","141.359825","0","3"
"01","北海道","01103","札幌市東区","011030029010","北三十七条東十丁目","43.107075","141.361245","0","3"
"01","北海道","01103","札幌市東区","011030029012","北三十七条東十二丁目","43.107085","141.362700","0","3"
"01","北海道","01103","札幌市東区","011030029013","北三十七条東十三丁目","43.107564","141.363932","0","3"
"01","北海道","01103","札幌市東区","011030029014","北三十七条東十四丁目","43.107523","141.365742","0","3"
"01","北海道","01103","札幌市東区","011030029015","北三十七条東十五丁目","43.107864","141.367391","0","3"
"01","北海道","01103","札幌市東区","011030029016","北三十七条東十六丁目","43.107996","141.369183","0","3"
"01","北海道","01103","札幌市東区","011030029017","北三十七条東十七丁目","43.108201","141.370847","0","3"
"01","北海道","01103","札幌市東区","011030029018","北三十七条東十八丁目","43.108448","141.372465","0","3"
"01","北海道","01103","札幌市東区","011030029019","北三十七条東十九丁目","43.108703","141.374126","0","3"
"01","北海道","01103","札幌市東区","011030029001","北三十七条東一丁目","43.105162","141.346450","0","3"
"01","北海道","01103","札幌市東区","011030029020","北三十七条東二十丁目","43.109017","141.376258","0","3"
"01","北海道","01103","札幌市東区","011030029021","北三十七条東二十一丁目","43.109567","141.378665","0","3"
"01","北海道","01103","札幌市東区","011030029022","北三十七条東二十二丁目","43.108575","141.380912","0","3"
"01","北海道","01103","札幌市東区","011030029025","北三十七条東二十五丁目","43.105896","141.386358","0","3"
"01","北海道","01103","札幌市東区","011030029026","北三十七条東二十六丁目","43.104932","141.388744","0","3"
"01","北海道","01103","札幌市東区","011030029027","北三十七条東二十七丁目","43.104029","141.391225","0","3"
"01","北海道","01103","札幌市東区","011030029028","北三十七条東二十八丁目","43.103285","141.393667","0","3"
"01","北海道","01103","札幌市東区","011030029029","北三十七条東二十九丁目","43.102944","141.396941","0","3"
"01","北海道","01103","札幌市東区","011030029002","北三十七条東二丁目","43.105587","141.348835","0","3"
"01","北海道","01103","札幌市東区","011030029030","北三十七条東三十丁目","43.102504","141.399531","0","3"
"01","北海道","01103","札幌市東区","011030029003","北三十七条東三丁目","43.105788","141.350397","0","3"
"01","北海道","01103","札幌市東区","011030029004","北三十七条東四丁目","43.105948","141.351678","0","3"
"01","北海道","01103","札幌市東区","011030029005","北三十七条東五丁目","43.106138","141.353235","0","3"
"01","北海道","01103","札幌市東区","011030029006","北三十七条東六丁目","43.106339","141.354920","0","3"
"01","北海道","01103","札幌市東区","011030029007","北三十七条東七丁目","43.106521","141.356556","0","3"
"01","北海道","01103","札幌市東区","011030029008","北三十七条東八丁目","43.106684","141.358096","0","3"
"01","北海道","01103","札幌市東区","011030029009","北三十七条東九丁目","43.106873","141.359641","0","3"
"01","北海道","01103","札幌市東区","011030030010","北三十八条東十丁目","43.108024","141.361013","0","3"
"01","北海道","01103","札幌市東区","011030030012","北三十八条東十二丁目","43.108212","141.362431","0","3"
"01","北海道","01103","札幌市東区","011030030013","北三十八条東十三丁目","43.108389","141.363729","0","3"
"01","北海道","01103","札幌市東区","011030030014","北三十八条東十四丁目","43.108553","141.365702","0","3"
"01","北海道","01103","札幌市東区","011030030015","北三十八条東十五丁目","43.108885","141.367293","0","3"
"01","北海道","01103","札幌市東区","011030030016","北三十八条東十六丁目","43.109137","141.368885","0","3"
"01","北海道","01103","札幌市東区","011030030017","北三十八条東十七丁目","43.109421","141.370525","0","3"
"01","北海道","01103","札幌市東区","011030030018","北三十八条東十八丁目","43.109707","141.371880","0","3"
"01","北海道","01103","札幌市東区","011030030019","北三十八条東十九丁目","43.109873","141.373822","0","3"
"01","北海道","01103","札幌市東区","011030030001","北三十八条東一丁目","43.106132","141.346279","0","3"
"01","北海道","01103","札幌市東区","011030030020","北三十八条東二十丁目","43.110061","141.375696","0","3"
"01","北海道","01103","札幌市東区","011030030021","北三十八条東二十一丁目","43.110474","141.378236","0","3"
"01","北海道","01103","札幌市東区","011030030002","北三十八条東二丁目","43.106395","141.348643","0","3"
"01","北海道","01103","札幌市東区","011030030003","北三十八条東三丁目","43.106591","141.350199","0","3"
"01","北海道","01103","札幌市東区","011030030004","北三十八条東四丁目","43.106752","141.351476","0","3"
"01","北海道","01103","札幌市東区","011030030005","北三十八条東五丁目","43.107007","141.352892","0","3"
"01","北海道","01103","札幌市東区","011030030006","北三十八条東六丁目","43.107152","141.354718","0","3"
"01","北海道","01103","札幌市東区","011030030007","北三十八条東七丁目","43.107363","141.356348","0","3"
"01","北海道","01103","札幌市東区","011030030008","北三十八条東八丁目","43.107625","141.357868","0","3"
"01","北海道","01103","札幌市東区","011030030009","北三十八条東九丁目","43.107878","141.359237","0","3"
"01","北海道","01103","札幌市東区","011030031010","北三十九条東十丁目","43.109020","141.360772","0","3"
"01","北海道","01103","札幌市東区","011030031012","北三十九条東十二丁目","43.109226","141.362188","0","3"
"01","北海道","01103","札幌市東区","011030031013","北三十九条東十三丁目","43.109424","141.363482","0","3"
"01","北海道","01103","札幌市東区","011030031014","北三十九条東十四丁目","43.109682","141.365300","0","3"
"01","北海道","01103","札幌市東区","011030031015","北三十九条東十五丁目","43.109950","141.367113","0","3"
"01","北海道","01103","札幌市東区","011030031016","北三十九条東十六丁目","43.110193","141.368621","0","3"
"01","北海道","01103","札幌市東区","011030031017","北三十九条東十七丁目","43.110462","141.370264","0","3"
"01","北海道","01103","札幌市東区","011030031018","北三十九条東十八丁目","43.110684","141.371899","0","3"
"01","北海道","01103","札幌市東区","011030031019","北三十九条東十九丁目","43.111068","141.373663","0","3"
"01","北海道","01103","札幌市東区","011030031001","北三十九条東一丁目","43.106809","141.346143","0","3"
"01","北海道","01103","札幌市東区","011030031020","北三十九条東二十丁目","43.111110","141.374980","0","3"
"01","北海道","01103","札幌市東区","011030031021","北三十九条東二十一丁目","43.112054","141.376503","0","3"
"01","北海道","01103","札幌市東区","011030031002","北三十九条東二丁目","43.107218","141.348437","0","3"
"01","北海道","01103","札幌市東区","011030031003","北三十九条東三丁目","43.107431","141.349971","0","3"
"01","北海道","01103","札幌市東区","011030031004","北三十九条東四丁目","43.107649","141.351373","0","3"
"01","北海道","01103","札幌市東区","011030031005","北三十九条東五丁目","43.107836","141.352952","0","3"
"01","北海道","01103","札幌市東区","011030031006","北三十九条東六丁目","43.108040","141.354508","0","3"
"01","北海道","01103","札幌市東区","011030031007","北三十九条東七丁目","43.108260","141.356143","0","3"
"01","北海道","01103","札幌市東区","011030031008","北三十九条東八丁目","43.108573","141.357675","0","3"
"01","北海道","01103","札幌市東区","011030031009","北三十九条東九丁目","43.108793","141.359197","0","3"
"01","北海道","01103","札幌市東区","011030032010","北四十条東十丁目","43.109664","141.360623","0","3"
"01","北海道","01103","札幌市東区","011030032012","北四十条東十二丁目","43.110224","141.361911","0","3"
"01","北海道","01103","札幌市東区","011030032013","北四十条東十三丁目","43.110453","141.363240","0","3"
"01","北海道","01103","札幌市東区","011030032014","北四十条東十四丁目","43.110832","141.365144","0","3"
"01","北海道","01103","札幌市東区","011030032015","北四十条東十五丁目","43.110956","141.366850","0","3"
"01","北海道","01103","札幌市東区","011030032016","北四十条東十六丁目","43.111229","141.368348","0","3"
"01","北海道","01103","札幌市東区","011030032017","北四十条東十七丁目","43.111465","141.370014","0","3"
"01","北海道","01103","札幌市東区","011030032018","北四十条東十八丁目","43.111726","141.371643","0","3"
"01","北海道","01103","札幌市東区","011030032019","北四十条東十九丁目","43.111973","141.373261","0","3"
"01","北海道","01103","札幌市東区","011030032001","北四十条東一丁目","43.107943","141.345899","0","3"
"01","北海道","01103","札幌市東区","011030032020","北四十条東二十丁目","43.112019","141.374535","0","3"
"01","北海道","01103","札幌市東区","011030032002","北四十条東二丁目","43.108248","141.348186","0","3"
"01","北海道","01103","札幌市東区","011030032003","北四十条東三丁目","43.108476","141.349693","0","3"
"01","北海道","01103","札幌市東区","011030032004","北四十条東四丁目","43.108674","141.350959","0","3"
"01","北海道","01103","札幌市東区","011030032005","北四十条東五丁目","43.108755","141.352452","0","3"
"01","北海道","01103","札幌市東区","011030032006","北四十条東六丁目","43.109260","141.354035","0","3"
"01","北海道","01103","札幌市東区","011030032007","北四十条東七丁目","43.109292","141.356038","0","3"
"01","北海道","01103","札幌市東区","011030032008","北四十条東八丁目","43.109607","141.357419","0","3"
"01","北海道","01103","札幌市東区","011030032009","北四十条東九丁目","43.109782","141.358856","0","3"
"01","北海道","01103","札幌市東区","011030033010","北四十一条東十丁目","43.110904","141.360139","0","3"
"01","北海道","01103","札幌市東区","011030033012","北四十一条東十二丁目","43.111505","141.361550","0","3"
"01","北海道","01103","札幌市東区","011030033013","北四十一条東十三丁目","43.111741","141.363071","0","3"
"01","北海道","01103","札幌市東区","011030033014","北四十一条東十四丁目","43.111926","141.364476","0","3"
"01","北海道","01103","札幌市東区","011030033015","北四十一条東十五丁目","43.112193","141.366223","0","3"
"01","北海道","01103","札幌市東区","011030033016","北四十一条東十六丁目","43.112460","141.368052","0","3"
"01","北海道","01103","札幌市東区","011030033017","北四十一条東十七丁目","43.112695","141.369704","0","3"
"01","北海道","01103","札幌市東区","011030033018","北四十一条東十八丁目","43.112892","141.371333","0","3"
"01","北海道","01103","札幌市東区","011030033019","北四十一条東十九丁目","43.113419","141.372913","0","3"
"01","北海道","01103","札幌市東区","011030033001","北四十一条東一丁目","43.109169","141.345632","0","3"
"01","北海道","01103","札幌市東区","011030033020","北四十一条東二十丁目","43.113167","141.374390","0","3"
"01","北海道","01103","札幌市東区","011030033002","北四十一条東二丁目","43.109532","141.347879","0","3"
"01","北海道","01103","札幌市東区","011030033003","北四十一条東三丁目","43.109749","141.349386","0","3"
"01","北海道","01103","札幌市東区","011030033004","北四十一条東四丁目","43.109933","141.350660","0","3"
"01","北海道","01103","札幌市東区","011030033005","北四十一条東五丁目","43.110070","141.352463","0","3"
"01","北海道","01103","札幌市東区","011030033006","北四十一条東六丁目","43.110447","141.353910","0","3"
"01","北海道","01103","札幌市東区","011030033007","北四十一条東七丁目","43.110661","141.355512","0","3"
"01","北海道","01103","札幌市東区","011030033008","北四十一条東八丁目","43.110869","141.357096","0","3"
"01","北海道","01103","札幌市東区","011030033009","北四十一条東九丁目","43.111065","141.358490","0","3"
"01","北海道","01103","札幌市東区","011030034010","北四十二条東十丁目","43.112848","141.359766","0","3"
"01","北海道","01103","札幌市東区","011030034012","北四十二条東十二丁目","43.112788","141.361249","0","3"
"01","北海道","01103","札幌市東区","011030034013","北四十二条東十三丁目","43.112973","141.362575","0","3"
"01","北海道","01103","札幌市東区","011030034014","北四十二条東十四丁目","43.113139","141.364197","0","3"
"01","北海道","01103","札幌市東区","011030034015","北四十二条東十五丁目","43.113472","141.366013","0","3"
"01","北海道","01103","札幌市東区","011030034016","北四十二条東十六丁目","43.113875","141.367684","0","3"
"01","北海道","01103","札幌市東区","011030034017","北四十二条東十七丁目","43.114144","141.369419","0","3"
"01","北海道","01103","札幌市東区","011030034018","北四十二条東十八丁目","43.114439","141.371129","0","3"
"01","北海道","01103","札幌市東区","011030034019","北四十二条東十九丁目","43.114637","141.372620","0","3"
"01","北海道","01103","札幌市東区","011030034001","北四十二条東一丁目","43.110563","141.345303","0","3"
"01","北海道","01103","札幌市東区","011030034002","北四十二条東二丁目","43.110977","141.347547","0","3"
"01","北海道","01103","札幌市東区","011030034003","北四十二条東三丁目","43.111052","141.349072","0","3"
"01","北海道","01103","札幌市東区","011030034004","北四十二条東四丁目","43.111238","141.350354","0","3"
"01","北海道","01103","札幌市東区","011030034005","北四十二条東五丁目","43.111470","141.351977","0","3"
"01","北海道","01103","札幌市東区","011030034006","北四十二条東六丁目","43.111706","141.353612","0","3"
"01","北海道","01103","札幌市東区","011030034007","北四十二条東七丁目","43.111903","141.355202","0","3"
"01","北海道","01103","札幌市東区","011030034008","北四十二条東八丁目","43.112065","141.356786","0","3"
"01","北海道","01103","札幌市東区","011030034009","北四十二条東九丁目","43.112191","141.358390","0","3"
"01","北海道","01103","札幌市東区","011030035010","北四十三条東十丁目","43.113734","141.358964","0","3"
"01","北海道","01103","札幌市東区","011030035012","北四十三条東十二丁目","43.113994","141.360828","0","3"
"01","北海道","01103","札幌市東区","011030035013","北四十三条東十三丁目","43.114209","141.362260","0","3"
"01","北海道","01103","札幌市東区","011030035014","北四十三条東十四丁目","43.114441","141.363890","0","3"
"01","北海道","01103","札幌市東区","011030035015","北四十三条東十五丁目","43.114691","141.365708","0","3"
"01","北海道","01103","札幌市東区","011030035016","北四十三条東十六丁目","43.115666","141.367322","0","3"
"01","北海道","01103","札幌市東区","011030035017","北四十三条東十七丁目","43.115904","141.369294","0","3"
"01","北海道","01103","札幌市東区","011030035018","北四十三条東十八丁目","43.116058","141.370722","0","3"
"01","北海道","01103","札幌市東区","011030035019","北四十三条東十九丁目","43.116262","141.372230","0","3"
"01","北海道","01103","札幌市東区","011030035001","北四十三条東一丁目","43.111845","141.345074","0","3"
"01","北海道","01103","札幌市東区","011030035002","北四十三条東二丁目","43.112151","141.347247","0","3"
"01","北海道","01103","札幌市東区","011030035003","北四十三条東三丁目","43.112312","141.348765","0","3"
"01","北海道","01103","札幌市東区","011030035004","北四十三条東四丁目","43.112499","141.350048","0","3"
"01","北海道","01103","札幌市東区","011030035005","北四十三条東五丁目","43.112732","141.351686","0","3"
"01","北海道","01103","札幌市東区","011030035006","北四十三条東六丁目","43.112955","141.353318","0","3"
"01","北海道","01103","札幌市東区","011030035007","北四十三条東七丁目","43.113170","141.354888","0","3"
"01","北海道","01103","札幌市東区","011030035008","北四十三条東八丁目","43.113313","141.356479","0","3"
"01","北海道","01103","札幌市東区","011030035009","北四十三条東九丁目","43.113517","141.357954","0","3"
"01","北海道","01103","札幌市東区","011030036010","北四十四条東十丁目","43.115051","141.359206","0","3"
"01","北海道","01103","札幌市東区","011030036012","北四十四条東十二丁目","43.115221","141.360639","0","3"
"01","北海道","01103","札幌市東区","011030036013","北四十四条東十三丁目","43.115404","141.361961","0","3"
"01","北海道","01103","札幌市東区","011030036014","北四十四条東十四丁目","43.115625","141.363589","0","3"
"01","北海道","01103","札幌市東区","011030036015","北四十四条東十五丁目","43.115988","141.365581","0","3"
"01","北海道","01103","札幌市東区","011030036001","北四十四条東一丁目","43.113182","141.345064","0","3"
"01","北海道","01103","札幌市東区","011030036002","北四十四条東二丁目","43.113352","141.346958","0","3"
"01","北海道","01103","札幌市東区","011030036003","北四十四条東三丁目","43.113561","141.348456","0","3"
"01","北海道","01103","札幌市東区","011030036004","北四十四条東四丁目","43.113734","141.349747","0","3"
"01","北海道","01103","札幌市東区","011030036005","北四十四条東五丁目","43.113950","141.351394","0","3"
"01","北海道","01103","札幌市東区","011030036006","北四十四条東六丁目","43.114151","141.352908","0","3"
"01","北海道","01103","札幌市東区","011030036007","北四十四条東七丁目","43.114391","141.354470","0","3"
"01","北海道","01103","札幌市東区","011030036008","北四十四条東八丁目","43.114571","141.356158","0","3"
"01","北海道","01103","札幌市東区","011030036009","北四十四条東九丁目","43.114766","141.357789","0","3"
"01","北海道","01103","札幌市東区","011030037010","北四十五条東十丁目","43.116164","141.358907","0","3"
"01","北海道","01103","札幌市東区","011030037012","北四十五条東十二丁目","43.116361","141.360348","0","3"
"01","北海道","01103","札幌市東区","011030037013","北四十五条東十三丁目","43.116536","141.361676","0","3"
"01","北海道","01103","札幌市東区","011030037014","北四十五条東十四丁目","43.116751","141.363310","0","3"
"01","北海道","01103","札幌市東区","011030037015","北四十五条東十五丁目","43.116995","141.365141","0","3"
"01","北海道","01103","札幌市東区","011030037016","北四十五条東十六丁目","43.117046","141.366744","0","3"
"01","北海道","01103","札幌市東区","011030037017","北四十五条東十七丁目","43.117420","141.368517","0","3"
"01","北海道","01103","札幌市東区","011030037018","北四十五条東十八丁目","43.117521","141.369818","0","3"
"01","北海道","01103","札幌市東区","011030037019","北四十五条東十九丁目","43.117758","141.371641","0","3"
"01","北海道","01103","札幌市東区","011030037001","北四十五条東一丁目","43.114351","141.344842","0","3"
"01","北海道","01103","札幌市東区","011030037002","北四十五条東二丁目","43.114649","141.346649","0","3"
"01","北海道","01103","札幌市東区","011030037003","北四十五条東三丁目","43.114803","141.348153","0","3"
"01","北海道","01103","札幌市東区","011030037004","北四十五条東四丁目","43.114966","141.349449","0","3"
"01","北海道","01103","札幌市東区","011030037005","北四十五条東五丁目","43.115148","141.351108","0","3"
"01","北海道","01103","札幌市東区","011030037006","北四十五条東六丁目","43.115364","141.352612","0","3"
"01","北海道","01103","札幌市東区","011030037007","北四十五条東七丁目","43.115565","141.354145","0","3"
"01","北海道","01103","札幌市東区","011030037008","北四十五条東八丁目","43.115719","141.355832","0","3"
"01","北海道","01103","札幌市東区","011030037009","北四十五条東九丁目","43.115931","141.357319","0","3"
"01","北海道","01103","札幌市東区","011030038010","北四十六条東十丁目","43.117443","141.358442","0","3"
"01","北海道","01103","札幌市東区","011030038012","北四十六条東十二丁目","43.117575","141.360045","0","3"
"01","北海道","01103","札幌市東区","011030038013","北四十六条東十三丁目","43.117746","141.361369","0","3"
"01","北海道","01103","札幌市東区","011030038014","北四十六条東十四丁目","43.117958","141.363005","0","3"
"01","北海道","01103","札幌市東区","011030038015","北四十六条東十五丁目","43.118169","141.364850","0","3"
"01","北海道","01103","札幌市東区","011030038016","北四十六条東十六丁目","43.118355","141.366561","0","3"
"01","北海道","01103","札幌市東区","011030038017","北四十六条東十七丁目","43.118508","141.368367","0","3"
"01","北海道","01103","札幌市東区","011030038018","北四十六条東十八丁目","43.118909","141.369729","0","3"
"01","北海道","01103","札幌市東区","011030038019","北四十六条東十九丁目","43.119122","141.371219","0","3"
"01","北海道","01103","札幌市東区","011030038001","北四十六条東一丁目","43.115698","141.344357","0","3"
"01","北海道","01103","札幌市東区","011030038002","北四十六条東二丁目","43.115896","141.346116","0","3"
"01","北海道","01103","札幌市東区","011030038003","北四十六条東三丁目","43.116097","141.347612","0","3"
"01","北海道","01103","札幌市東区","011030038004","北四十六条東四丁目","43.116325","141.349249","0","3"
"01","北海道","01103","札幌市東区","011030038005","北四十六条東五丁目","43.116482","141.350717","0","3"
"01","北海道","01103","札幌市東区","011030038006","北四十六条東六丁目","43.116403","141.352081","0","3"
"01","北海道","01103","札幌市東区","011030038007","北四十六条東七丁目","43.116738","141.353815","0","3"
"01","北海道","01103","札幌市東区","011030038008","北四十六条東八丁目","43.117122","141.355396","0","3"
"01","北海道","01103","札幌市東区","011030038009","北四十六条東九丁目","43.117415","141.356773","0","3"
"01","北海道","01103","札幌市東区","011030039010","北四十七条東十丁目","43.118834","141.358101","0","3"
"01","北海道","01103","札幌市東区","011030039013","北四十七条東十三丁目","43.119028","141.360430","0","3"
"01","北海道","01103","札幌市東区","011030039014","北四十七条東十四丁目","43.119296","141.362668","0","3"
"01","北海道","01103","札幌市東区","011030039015","北四十七条東十五丁目","43.119458","141.364528","0","3"
"01","北海道","01103","札幌市東区","011030039016","北四十七条東十六丁目","43.119484","141.366270","0","3"
"01","北海道","01103","札幌市東区","011030039017","北四十七条東十七丁目","43.119709","141.367942","0","3"
"01","北海道","01103","札幌市東区","011030039018","北四十七条東十八丁目","43.120116","141.369202","0","3"
"01","北海道","01103","札幌市東区","011030039019","北四十七条東十九丁目","43.120242","141.370870","0","3"
"01","北海道","01103","札幌市東区","011030039001","北四十七条東一丁目","43.116896","141.344292","0","3"
"01","北海道","01103","札幌市東区","011030039002","北四十七条東二丁目","43.117093","141.345840","0","3"
"01","北海道","01103","札幌市東区","011030039003","北四十七条東三丁目","43.117429","141.347053","0","3"
"01","北海道","01103","札幌市東区","011030039004","北四十七条東四丁目","43.117595","141.348966","0","3"
"01","北海道","01103","札幌市東区","011030039005","北四十七条東五丁目","43.117776","141.350422","0","3"
"01","北海道","01103","札幌市東区","011030039006","北四十七条東六丁目","43.117695","141.351696","0","3"
"01","北海道","01103","札幌市東区","011030039007","北四十七条東七丁目","43.117953","141.353698","0","3"
"01","北海道","01103","札幌市東区","011030039008","北四十七条東八丁目","43.118375","141.355262","0","3"
"01","北海道","01103","札幌市東区","011030039009","北四十七条東九丁目","43.118778","141.356443","0","3"
"01","北海道","01103","札幌市東区","011030040010","北四十八条東十丁目","43.119865","141.358276","0","3"
"01","北海道","01103","札幌市東区","011030040013","北四十八条東十三丁目","43.120121","141.360362","0","3"
"01","北海道","01103","札幌市東区","011030040014","北四十八条東十四丁目","43.120322","141.362183","0","3"
"01","北海道","01103","札幌市東区","011030040015","北四十八条東十五丁目","43.120564","141.364257","0","3"
"01","北海道","01103","札幌市東区","011030040016","北四十八条東十六丁目","43.120501","141.365927","0","3"
"01","北海道","01103","札幌市東区","011030040017","北四十八条東十七丁目","43.120865","141.367657","0","3"
"01","北海道","01103","札幌市東区","011030040018","北四十八条東十八丁目","43.121212","141.369028","0","3"
"01","北海道","01103","札幌市東区","011030040019","北四十八条東十九丁目","43.121360","141.370544","0","3"
"01","北海道","01103","札幌市東区","011030040001","北四十八条東一丁目","43.117955","141.344088","0","3"
"01","北海道","01103","札幌市東区","011030040002","北四十八条東二丁目","43.118144","141.345761","0","3"
"01","北海道","01103","札幌市東区","011030040003","北四十八条東三丁目","43.118518","141.347105","0","3"
"01","北海道","01103","札幌市東区","011030040004","北四十八条東四丁目","43.118714","141.348675","0","3"
"01","北海道","01103","札幌市東区","011030040005","北四十八条東五丁目","43.118809","141.350187","0","3"
"01","北海道","01103","札幌市東区","011030040006","北四十八条東六丁目","43.118975","141.351550","0","3"
"01","北海道","01103","札幌市東区","011030040007","北四十八条東七丁目","43.119179","141.353208","0","3"
"01","北海道","01103","札幌市東区","011030040008","北四十八条東八丁目","43.119393","141.354861","0","3"
"01","北海道","01103","札幌市東区","011030040009","北四十八条東九丁目","43.119667","141.356267","0","3"
"01","北海道","01103","札幌市東区","011030041010","北四十九条東十丁目","43.121341","141.358376","0","3"
"01","北海道","01103","札幌市東区","011030041013","北四十九条東十三丁目","43.121522","141.360055","0","3"
"01","北海道","01103","札幌市東区","011030041014","北四十九条東十四丁目","43.121756","141.362043","0","3"
"01","北海道","01103","札幌市東区","011030041015","北四十九条東十五丁目","43.121943","141.364106","0","3"
"01","北海道","01103","札幌市東区","011030041016","北四十九条東十六丁目","43.122078","141.365779","0","3"
"01","北海道","01103","札幌市東区","011030041017","北四十九条東十七丁目","43.122552","141.367412","0","3"
"01","北海道","01103","札幌市東区","011030041002","北四十九条東二丁目","43.119512","141.345245","0","3"
"01","北海道","01103","札幌市東区","011030041003","北四十九条東三丁目","43.119851","141.347544","0","3"
"01","北海道","01103","札幌市東区","011030041004","北四十九条東四丁目","43.119985","141.348760","0","3"
"01","北海道","01103","札幌市東区","011030041005","北四十九条東五丁目","43.120094","141.349891","0","3"
"01","北海道","01103","札幌市東区","011030041006","北四十九条東六丁目","43.120249","141.351253","0","3"
"01","北海道","01103","札幌市東区","011030041007","北四十九条東七丁目","43.120449","141.353022","0","3"
"01","北海道","01103","札幌市東区","011030041008","北四十九条東八丁目","43.121010","141.355030","0","3"
"01","北海道","01103","札幌市東区","011030041009","北四十九条東九丁目","43.121171","141.356916","0","3"
"01","北海道","01103","札幌市東区","011030042010","北四条東十丁目","43.068950","141.370449","0","3"
"01","北海道","01103","札幌市東区","011030042011","北四条東十一丁目","43.068883","141.372178","0","3"
"01","北海道","01103","札幌市東区","011030042012","北四条東十二丁目","43.069172","141.373719","0","3"
"01","北海道","01103","札幌市東区","011030042013","北四条東十三丁目","43.069331","141.375162","0","3"
"01","北海道","01103","札幌市東区","011030042014","北四条東十四丁目","43.069487","141.376868","0","3"
"01","北海道","01103","札幌市東区","011030042015","北四条東十五丁目","43.069673","141.378483","0","3"
"01","北海道","01103","札幌市東区","011030042016","北四条東十六丁目","43.069908","141.380075","0","3"
"01","北海道","01103","札幌市東区","011030043010","北五十条東十丁目","43.122846","141.358195","0","3"
"01","北海道","01103","札幌市東区","011030043013","北五十条東十三丁目","43.123240","141.359702","0","3"
"01","北海道","01103","札幌市東区","011030043014","北五十条東十四丁目","43.123274","141.361059","0","3"
"01","北海道","01103","札幌市東区","011030043015","北五十条東十五丁目","43.123917","141.363037","0","3"
"01","北海道","01103","札幌市東区","011030043002","北五十条東二丁目","43.120660","141.344666","0","3"
"01","北海道","01103","札幌市東区","011030043003","北五十条東三丁目","43.121155","141.347202","0","3"
"01","北海道","01103","札幌市東区","011030043004","北五十条東四丁目","43.121326","141.348437","0","3"
"01","北海道","01103","札幌市東区","011030043005","北五十条東五丁目","43.121573","141.349555","0","3"
"01","北海道","01103","札幌市東区","011030043006","北五十条東六丁目","43.121678","141.350769","0","3"
"01","北海道","01103","札幌市東区","011030043007","北五十条東七丁目","43.122271","141.352846","0","3"
"01","北海道","01103","札幌市東区","011030043008","北五十条東八丁目","43.122770","141.354570","0","3"
"01","北海道","01103","札幌市東区","011030043009","北五十条東九丁目","43.123044","141.356202","0","3"
"01","北海道","01103","札幌市東区","011030044010","北五十一条東十丁目","43.123977","141.358262","0","3"
"01","北海道","01103","札幌市東区","011030044014","北五十一条東十四丁目","43.124534","141.361095","0","3"
"01","北海道","01103","札幌市東区","011030044015","北五十一条東十五丁目","43.125200","141.362764","0","3"
"01","北海道","01103","札幌市東区","011030044002","北五十一条東二丁目","43.122032","141.345132","0","3"
"01","北海道","01103","札幌市東区","011030044003","北五十一条東三丁目","43.122483","141.346872","0","3"
"01","北海道","01103","札幌市東区","011030044004","北五十一条東四丁目","43.122671","141.348126","0","3"
"01","北海道","01103","札幌市東区","011030044005","北五十一条東五丁目","43.123052","141.349238","0","3"
"01","北海道","01103","札幌市東区","011030044006","北五十一条東六丁目","43.123277","141.350556","0","3"
"01","北海道","01103","札幌市東区","011030044007","北五十一条東七丁目","43.123833","141.352720","0","3"
"01","北海道","01103","札幌市東区","011030044008","北五十一条東八丁目","43.124414","141.354756","0","3"
"01","北海道","01103","札幌市東区","011030044009","北五十一条東九丁目","43.124183","141.356134","0","3"
"01","北海道","01103","札幌市東区","011030045010","北五条東十丁目","43.069736","141.370756","0","3"
"01","北海道","01103","札幌市東区","011030045011","北五条東十一丁目","43.070311","141.372029","0","3"
"01","北海道","01103","札幌市東区","011030045012","北五条東十二丁目","43.070282","141.373480","0","3"
"01","北海道","01103","札幌市東区","011030045013","北五条東十三丁目","43.070540","141.374878","0","3"
"01","北海道","01103","札幌市東区","011030045014","北五条東十四丁目","43.070773","141.376553","0","3"
"01","北海道","01103","札幌市東区","011030045015","北五条東十五丁目","43.070978","141.378204","0","3"
"01","北海道","01103","札幌市東区","011030045016","北五条東十六丁目","43.071136","141.379760","0","3"
"01","北海道","01103","札幌市東区","011030045017","北五条東十七丁目","43.071329","141.380890","0","3"
"01","北海道","01103","札幌市東区","011030045004","北五条東四丁目","43.068980","141.360949","0","3"
"01","北海道","01103","札幌市東区","011030045005","北五条東五丁目","43.068945","141.362379","0","3"
"01","北海道","01103","札幌市東区","011030045006","北五条東六丁目","43.068985","141.364185","0","3"
"01","北海道","01103","札幌市東区","011030045007","北五条東七丁目","43.069283","141.365413","0","3"
"01","北海道","01103","札幌市東区","011030045008","北五条東八丁目","43.069523","141.366965","0","3"
"01","北海道","01103","札幌市東区","011030045009","北五条東九丁目","43.069787","141.369869","0","3"
"01","北海道","01103","札幌市東区","011030046012","北六条東十二丁目","43.071264","141.373277","0","3"
"01","北海道","01103","札幌市東区","011030046013","北六条東十三丁目","43.071835","141.374621","0","3"
"01","北海道","01103","札幌市東区","011030046014","北六条東十四丁目","43.072364","141.376210","0","3"
"01","北海道","01103","札幌市東区","011030046015","北六条東十五丁目","43.072125","141.378106","0","3"
"01","北海道","01103","札幌市東区","011030046016","北六条東十六丁目","43.072348","141.379500","0","3"
"01","北海道","01103","札幌市東区","011030046017","北六条東十七丁目","43.072503","141.381010","0","3"
"01","北海道","01103","札幌市東区","011030046018","北六条東十八丁目","43.073092","141.382104","0","3"
"01","北海道","01103","札幌市東区","011030046019","北六条東十九丁目","43.075983","141.384084","0","3"
"01","北海道","01103","札幌市東区","011030046001","北六条東一丁目","43.069284","141.355951","0","3"
"01","北海道","01103","札幌市東区","011030046020","北六条東二十丁目","43.076946","141.384861","0","3"
"01","北海道","01103","札幌市東区","011030046002","北六条東二丁目","43.069381","141.357646","0","3"
"01","北海道","01103","札幌市東区","011030046003","北六条東三丁目","43.069393","141.359226","0","3"
"01","北海道","01103","札幌市東区","011030046004","北六条東四丁目","43.069841","141.360725","0","3"
"01","北海道","01103","札幌市東区","011030046005","北六条東五丁目","43.070062","141.362261","0","3"
"01","北海道","01103","札幌市東区","011030046006","北六条東六丁目","43.070398","141.363646","0","3"
"01","北海道","01103","札幌市東区","011030046007","北六条東七丁目","43.070493","141.365213","0","3"
"01","北海道","01103","札幌市東区","011030046008","北六条東八丁目","43.070959","141.366689","0","3"
"01","北海道","01103","札幌市東区","011030047011","北七条東十一丁目","43.072794","141.371896","0","3"
"01","北海道","01103","札幌市東区","011030047012","北七条東十二丁目","43.072355","141.373390","0","3"
"01","北海道","01103","札幌市東区","011030047013","北七条東十三丁目","43.073016","141.374762","0","3"
"01","北海道","01103","札幌市東区","011030047014","北七条東十四丁目","43.073468","141.375865","0","3"
"01","北海道","01103","札幌市東区","011030047015","北七条東十五丁目","43.073578","141.377603","0","3"
"01","北海道","01103","札幌市東区","011030047016","北七条東十六丁目","43.073951","141.379113","0","3"
"01","北海道","01103","札幌市東区","011030047017","北七条東十七丁目","43.073793","141.380775","0","3"
"01","北海道","01103","札幌市東区","011030047018","北七条東十八丁目","43.074723","141.381666","0","3"
"01","北海道","01103","札幌市東区","011030047019","北七条東十九丁目","43.076237","141.382965","0","3"
"01","北海道","01103","札幌市東区","011030047001","北七条東一丁目","43.070418","141.355661","0","3"
"01","北海道","01103","札幌市東区","011030047020","北七条東二十丁目","43.077362","141.383873","0","3"
"01","北海道","01103","札幌市東区","011030047002","北七条東二丁目","43.070548","141.357483","0","3"
"01","北海道","01103","札幌市東区","011030047003","北七条東三丁目","43.070782","141.358890","0","3"
"01","北海道","01103","札幌市東区","011030047004","北七条東四丁目","43.070984","141.360453","0","3"
"01","北海道","01103","札幌市東区","011030047005","北七条東五丁目","43.071222","141.362143","0","3"
"01","北海道","01103","札幌市東区","011030047006","北七条東六丁目","43.071494","141.363531","0","3"
"01","北海道","01103","札幌市東区","011030047007","北七条東七丁目","43.071658","141.364808","0","3"
"01","北海道","01103","札幌市東区","011030047008","北七条東八丁目","43.072025","141.366481","0","3"
"01","北海道","01103","札幌市東区","011030047009","北七条東九丁目","43.071022","141.370040","0","3"
"01","北海道","01103","札幌市東区","011030048010","北八条東十丁目","43.073598","141.369511","0","3"
"01","北海道","01103","札幌市東区","011030048011","北八条東十一丁目","43.073700","141.371061","0","3"
"01","北海道","01103","札幌市東区","011030048012","北八条東十二丁目","43.073940","141.372665","0","3"
"01","北海道","01103","札幌市東区","011030048013","北八条東十三丁目","43.074077","141.374115","0","3"
"01","北海道","01103","札幌市東区","011030048014","北八条東十四丁目","43.074434","141.375674","0","3"
"01","北海道","01103","札幌市東区","011030048015","北八条東十五丁目","43.074485","141.377010","0","3"
"01","北海道","01103","札幌市東区","011030048016","北八条東十六丁目","43.075135","141.378146","0","3"
"01","北海道","01103","札幌市東区","011030048017","北八条東十七丁目","43.075887","141.379917","0","3"
"01","北海道","01103","札幌市東区","011030048018","北八条東十八丁目","43.077034","141.381414","0","3"
"01","北海道","01103","札幌市東区","011030048019","北八条東十九丁目","43.078061","141.381549","0","3"
"01","北海道","01103","札幌市東区","011030048001","北八条東一丁目","43.071556","141.355366","0","3"
"01","北海道","01103","札幌市東区","011030048002","北八条東二丁目","43.071781","141.357044","0","3"
"01","北海道","01103","札幌市東区","011030048003","北八条東三丁目","43.071994","141.358600","0","3"
"01","北海道","01103","札幌市東区","011030048004","北八条東四丁目","43.072204","141.360161","0","3"
"01","北海道","01103","札幌市東区","011030048005","北八条東五丁目","43.072419","141.361739","0","3"
"01","北海道","01103","札幌市東区","011030048006","北八条東六丁目","43.072615","141.363305","0","3"
"01","北海道","01103","札幌市東区","011030048007","北八条東七丁目","43.072802","141.364566","0","3"
"01","北海道","01103","札幌市東区","011030048008","北八条東八丁目","43.072914","141.366253","0","3"
"01","北海道","01103","札幌市東区","011030048009","北八条東九丁目","43.073279","141.368056","0","3"
"01","北海道","01103","札幌市東区","011030049010","北九条東十丁目","43.075061","141.368822","0","3"
"01","北海道","01103","札幌市東区","011030049011","北九条東十一丁目","43.074820","141.370965","0","3"
"01","北海道","01103","札幌市東区","011030049012","北九条東十二丁目","43.074967","141.372227","0","3"
"01","北海道","01103","札幌市東区","011030049013","北九条東十三丁目","43.075250","141.373681","0","3"
"01","北海道","01103","札幌市東区","011030049014","北九条東十四丁目","43.075417","141.375153","0","3"
"01","北海道","01103","札幌市東区","011030049015","北九条東十五丁目","43.075632","141.376707","0","3"
"01","北海道","01103","札幌市東区","011030049016","北九条東十六丁目","43.076079","141.378235","0","3"
"01","北海道","01103","札幌市東区","011030049001","北九条東一丁目","43.072688","141.355071","0","3"
"01","北海道","01103","札幌市東区","011030049002","北九条東二丁目","43.072916","141.356754","0","3"
"01","北海道","01103","札幌市東区","011030049003","北九条東三丁目","43.073131","141.358314","0","3"
"01","北海道","01103","札幌市東区","011030049004","北九条東四丁目","43.073349","141.359871","0","3"
"01","北海道","01103","札幌市東区","011030049005","北九条東五丁目","43.073564","141.361428","0","3"
"01","北海道","01103","札幌市東区","011030049006","北九条東六丁目","43.073831","141.362874","0","3"
"01","北海道","01103","札幌市東区","011030049007","北九条東七丁目","43.073909","141.364229","0","3"
"01","北海道","01103","札幌市東区","011030049008","北九条東八丁目","43.074345","141.365847","0","3"
"01","北海道","01103","札幌市東区","011030049009","北九条東九丁目","43.074616","141.367730","0","3"
"01","北海道","01103","札幌市東区","011030050002","北丘珠一条二丁目","43.121604","141.408195","0","3"
"01","北海道","01103","札幌市東区","011030050003","北丘珠一条三丁目","43.123809","141.410948","0","3"
"01","北海道","01103","札幌市東区","011030050004","北丘珠一条四丁目","43.124212","141.412677","0","3"
"01","北海道","01103","札幌市東区","011030051001","北丘珠二条一丁目","43.123081","141.405433","0","3"
"01","北海道","01103","札幌市東区","011030051002","北丘珠二条二丁目","43.124066","141.406557","0","3"
"01","北海道","01103","札幌市東区","011030051003","北丘珠二条三丁目","43.125028","141.408729","0","3"
"01","北海道","01103","札幌市東区","011030051004","北丘珠二条四丁目","43.126237","141.411260","0","3"
"01","北海道","01103","札幌市東区","011030052001","北丘珠三条一丁目","43.124312","141.401152","0","3"
"01","北海道","01103","札幌市東区","011030052002","北丘珠三条二丁目","43.125963","141.404772","0","3"
"01","北海道","01103","札幌市東区","011030052003","北丘珠三条三丁目","43.127069","141.407310","0","3"
"01","北海道","01103","札幌市東区","011030052004","北丘珠三条四丁目","43.128709","141.410258","0","3"
"01","北海道","01103","札幌市東区","011030053001","北丘珠四条一丁目","43.126432","141.400277","0","3"
"01","北海道","01103","札幌市東区","011030053002","北丘珠四条二丁目","43.127612","141.403295","0","3"
"01","北海道","01103","札幌市東区","011030053003","北丘珠四条三丁目","43.129242","141.405875","0","3"
"01","北海道","01103","札幌市東区","011030053004","北丘珠四条四丁目","43.130531","141.409026","0","3"
"01","北海道","01103","札幌市東区","011030054001","北丘珠五条一丁目","43.128339","141.399979","0","3"
"01","北海道","01103","札幌市東区","011030054002","北丘珠五条二丁目","43.129222","141.401828","0","3"
"01","北海道","01103","札幌市東区","011030054003","北丘珠五条三丁目","43.130526","141.404573","0","3"
"01","北海道","01103","札幌市東区","011030054004","北丘珠五条四丁目","43.132767","141.407071","0","3"
"01","北海道","01103","札幌市東区","011030055004","北丘珠六条四丁目","43.135080","141.406273","0","3"
"01","北海道","01103","札幌市東区","011030056000","栄町","43.119921","141.376779","0","1"
"01","北海道","01103","札幌市東区","011030057010","苗穂町十丁目","43.073090","141.392660","0","3"
"01","北海道","01103","札幌市東区","011030057011","苗穂町十一丁目","43.070356","141.390537","0","3"
"01","北海道","01103","札幌市東区","011030057012","苗穂町十二丁目","43.070993","141.392406","0","3"
"01","北海道","01103","札幌市東区","011030057013","苗穂町十三丁目","43.071400","141.394634","0","3"
"01","北海道","01103","札幌市東区","011030057014","苗穂町十四丁目","43.072941","141.394882","0","3"
"01","北海道","01103","札幌市東区","011030057015","苗穂町十五丁目","43.071987","141.396657","0","3"
"01","北海道","01103","札幌市東区","011030057016","苗穂町十六丁目","43.070976","141.397471","0","3"
"01","北海道","01103","札幌市東区","011030057001","苗穂町一丁目","43.070147","141.383810","0","3"
"01","北海道","01103","札幌市東区","011030057002","苗穂町二丁目","43.071299","141.382959","0","3"
"01","北海道","01103","札幌市東区","011030057003","苗穂町三丁目","43.073611","141.384093","0","3"
"01","北海道","01103","札幌市東区","011030057004","苗穂町四丁目","43.075803","141.385937","0","3"
"01","北海道","01103","札幌市東区","011030057005","苗穂町五丁目","43.074846","141.388063","0","3"
"01","北海道","01103","札幌市東区","011030057006","苗穂町六丁目","43.072858","141.386605","0","3"
"01","北海道","01103","札幌市東区","011030057007","苗穂町七丁目","43.070785","141.386635","0","3"
"01","北海道","01103","札幌市東区","011030057008","苗穂町八丁目","43.072063","141.389429","0","3"
"01","北海道","01103","札幌市東区","011030057009","苗穂町九丁目","43.074392","141.390864","0","3"
"01","北海道","01103","札幌市東区","011030058001","中沼一条一丁目","43.125633","141.442045","0","3"
"01","北海道","01103","札幌市東区","011030058002","中沼一条二丁目","43.125046","141.444444","0","3"
"01","北海道","01103","札幌市東区","011030058003","中沼一条三丁目","43.124541","141.447020","0","3"
"01","北海道","01103","札幌市東区","011030059001","中沼二条一丁目","43.126554","141.441980","0","3"
"01","北海道","01103","札幌市東区","011030059002","中沼二条二丁目","43.126539","141.443779","0","3"
"01","北海道","01103","札幌市東区","011030060001","中沼三条一丁目","43.127488","141.441831","0","3"
"01","北海道","01103","札幌市東区","011030060002","中沼三条二丁目","43.127607","141.443726","0","3"
"01","北海道","01103","札幌市東区","011030061001","中沼四条一丁目","43.128422","141.441682","0","3"
"01","北海道","01103","札幌市東区","011030061002","中沼四条二丁目","43.128554","141.443881","0","3"
"01","北海道","01103","札幌市東区","011030062001","中沼五条一丁目","43.129314","141.441556","0","3"
"01","北海道","01103","札幌市東区","011030062002","中沼五条二丁目","43.129478","141.444091","0","3"
"01","北海道","01103","札幌市東区","011030063001","中沼六条一丁目","43.130186","141.441808","0","3"
"01","北海道","01103","札幌市東区","011030063002","中沼六条二丁目","43.130528","141.443738","0","3"
"01","北海道","01103","札幌市東区","011030063003","中沼六条三丁目","43.130863","141.445309","0","3"
"01","北海道","01103","札幌市東区","011030064000","中沼町","43.139051","141.433865","0","1"
"01","北海道","01103","札幌市東区","011030065001","中沼西一条一丁目","43.125197","141.414293","0","3"
"01","北海道","01103","札幌市東区","011030065002","中沼西一条二丁目","43.127038","141.416613","0","3"
"01","北海道","01103","札幌市東区","011030066001","中沼西二条一丁目","43.127687","141.413710","0","3"
"01","北海道","01103","札幌市東区","011030066002","中沼西二条二丁目","43.128360","141.415637","0","3"
"01","北海道","01103","札幌市東区","011030067001","中沼西三条一丁目","43.129574","141.413136","0","3"
"01","北海道","01103","札幌市東区","011030067002","中沼西三条二丁目","43.130215","141.414385","0","3"
"01","北海道","01103","札幌市東区","011030068001","中沼西四条一丁目","43.131753","141.411372","0","3"
"01","北海道","01103","札幌市東区","011030068002","中沼西四条二丁目","43.132256","141.412986","0","3"
"01","北海道","01103","札幌市東区","011030069001","中沼西五条一丁目","43.133949","141.410125","0","3"
"01","北海道","01103","札幌市東区","011030069002","中沼西五条二丁目","43.134525","141.411453","0","3"
"01","北海道","01103","札幌市東区","011030070001","東雁来十条一丁目","43.098369","141.423298","0","3"
"01","北海道","01103","札幌市東区","011030070002","東雁来十条二丁目","43.097408","141.426748","0","3"
"01","北海道","01103","札幌市東区","011030070003","東雁来十条三丁目","43.095718","141.428542","0","3"
"01","北海道","01103","札幌市東区","011030070004","東雁来十条四丁目","43.095556","141.431715","0","3"
"01","北海道","01103","札幌市東区","011030071001","東雁来十一条一丁目","43.100399","141.424721","0","3"
"01","北海道","01103","札幌市東区","011030071002","東雁来十一条二丁目","43.099039","141.428055","0","3"
"01","北海道","01103","札幌市東区","011030071003","東雁来十一条三丁目","43.098481","141.431491","0","3"
"01","北海道","01103","札幌市東区","011030071004","東雁来十一条四丁目","43.096379","141.433544","0","3"
"01","北海道","01103","札幌市東区","011030072002","東雁来十二条二丁目","43.101178","141.429771","0","3"
"01","北海道","01103","札幌市東区","011030072003","東雁来十二条三丁目","43.100324","141.433471","0","3"
"01","北海道","01103","札幌市東区","011030072004","東雁来十二条四丁目","43.098126","141.435877","0","3"
"01","北海道","01103","札幌市東区","011030073002","東雁来十三条二丁目","43.103757","141.431781","0","3"
"01","北海道","01103","札幌市東区","011030073003","東雁来十三条三丁目","43.102319","141.435505","0","3"
"01","北海道","01103","札幌市東区","011030073004","東雁来十三条四丁目","43.100686","141.438077","0","3"
"01","北海道","01103","札幌市東区","011030074002","東雁来十四条二丁目","43.105958","141.432783","0","3"
"01","北海道","01103","札幌市東区","011030074003","東雁来十四条三丁目","43.103875","141.436352","0","3"
"01","北海道","01103","札幌市東区","011030074004","東雁来十四条四丁目","43.101826","141.439681","0","3"
"01","北海道","01103","札幌市東区","011030075001","東雁来一条一丁目","43.076695","141.403794","0","3"
"01","北海道","01103","札幌市東区","011030076001","東雁来二条一丁目","43.080109","141.408289","0","3"
"01","北海道","01103","札幌市東区","011030077001","東雁来三条一丁目","43.082421","141.410519","0","3"
"01","北海道","01103","札幌市東区","011030078001","東雁来四条一丁目","43.083903","141.412753","0","3"
"01","北海道","01103","札幌市東区","011030079001","東雁来五条一丁目","43.086073","141.413991","0","3"
"01","北海道","01103","札幌市東区","011030080001","東雁来六条一丁目","43.090186","141.415395","0","3"
"01","北海道","01103","札幌市東区","011030080002","東雁来六条二丁目","43.088516","141.416719","0","3"
"01","北海道","01103","札幌市東区","011030080003","東雁来六条三丁目","43.086481","141.418449","0","3"
"01","北海道","01103","札幌市東区","011030081001","東雁来七条一丁目","43.092424","141.419143","0","3"
"01","北海道","01103","札幌市東区","011030081002","東雁来七条二丁目","43.090266","141.420220","0","3"
"01","北海道","01103","札幌市東区","011030081003","東雁来七条三丁目","43.089148","141.423326","0","3"
"01","北海道","01103","札幌市東区","011030082001","東雁来八条一丁目","43.094286","141.420987","0","3"
"01","北海道","01103","札幌市東区","011030082002","東雁来八条二丁目","43.092343","141.423315","0","3"
"01","北海道","01103","札幌市東区","011030082003","東雁来八条三丁目","43.091235","141.427435","0","3"
"01","北海道","01103","札幌市東区","011030082004","東雁来八条四丁目","43.091212","141.430666","0","3"
"01","北海道","01103","札幌市東区","011030083001","東雁来九条一丁目","43.096229","141.421732","0","3"
"01","北海道","01103","札幌市東区","011030083002","東雁来九条二丁目","43.095394","141.425136","0","3"
"01","北海道","01103","札幌市東区","011030083003","東雁来九条三丁目","43.092729","141.427543","0","3"
"01","北海道","01103","札幌市東区","011030083004","東雁来九条四丁目","43.092915","141.431667","0","3"
"01","北海道","01103","札幌市東区","011030084000","東雁来町","43.093328","141.451072","0","1"
"01","北海道","01103","札幌市東区","011030085001","東苗穂十条一丁目","43.103243","141.411968","0","3"
"01","北海道","01103","札幌市東区","011030085002","東苗穂十条二丁目","43.101405","141.415217","0","3"
"01","北海道","01103","札幌市東区","011030085003","東苗穂十条三丁目","43.099795","141.419583","0","3"
"01","北海道","01103","札幌市東区","011030086001","東苗穂十一条一丁目","43.105289","141.413944","0","3"
"01","北海道","01103","札幌市東区","011030086002","東苗穂十一条二丁目","43.103952","141.417273","0","3"
"01","北海道","01103","札幌市東区","011030086003","東苗穂十一条三丁目","43.101874","141.421305","0","3"
"01","北海道","01103","札幌市東区","011030087001","東苗穂十二条一丁目","43.107616","141.415378","0","3"
"01","北海道","01103","札幌市東区","011030087002","東苗穂十二条二丁目","43.106219","141.418958","0","3"
"01","北海道","01103","札幌市東区","011030087003","東苗穂十二条三丁目","43.104021","141.422992","0","3"
"01","北海道","01103","札幌市東区","011030087004","東苗穂十二条四丁目","43.102526","141.426374","0","3"
"01","北海道","01103","札幌市東区","011030088001","東苗穂十三条一丁目","43.109506","141.416822","0","3"
"01","北海道","01103","札幌市東区","011030088002","東苗穂十三条二丁目","43.108105","141.420476","0","3"
"01","北海道","01103","札幌市東区","011030088003","東苗穂十三条三丁目","43.106554","141.424937","0","3"
"01","北海道","01103","札幌市東区","011030088004","東苗穂十三条四丁目","43.104985","141.428262","0","3"
"01","北海道","01103","札幌市東区","011030089001","東苗穂十四条一丁目","43.111794","141.418584","0","3"
"01","北海道","01103","札幌市東区","011030089002","東苗穂十四条二丁目","43.110692","141.422476","0","3"
"01","北海道","01103","札幌市東区","011030089003","東苗穂十四条三丁目","43.108814","141.426781","0","3"
"01","北海道","01103","札幌市東区","011030089004","東苗穂十四条四丁目","43.107311","141.430075","0","3"
"01","北海道","01103","札幌市東区","011030090001","東苗穂十五条一丁目","43.112922","141.420955","0","3"
"01","北海道","01103","札幌市東区","011030090002","東苗穂十五条二丁目","43.111790","141.424691","0","3"
"01","北海道","01103","札幌市東区","011030090003","東苗穂十五条三丁目","43.110286","141.427865","0","3"
"01","北海道","01103","札幌市東区","011030090004","東苗穂十五条四丁目","43.108878","141.430421","0","3"
"01","北海道","01103","札幌市東区","011030091001","東苗穂一条一丁目","43.079445","141.394130","0","3"
"01","北海道","01103","札幌市東区","011030091002","東苗穂一条二丁目","43.078669","141.398265","0","3"
"01","北海道","01103","札幌市東区","011030091003","東苗穂一条三丁目","43.077541","141.401890","0","3"
"01","北海道","01103","札幌市東区","011030092001","東苗穂二条一丁目","43.082783","141.398377","0","3"
"01","北海道","01103","札幌市東区","011030092002","東苗穂二条二丁目","43.082177","141.402608","0","3"
"01","北海道","01103","札幌市東区","011030092003","東苗穂二条三丁目","43.080408","141.404572","0","3"
"01","北海道","01103","札幌市東区","011030093001","東苗穂三条一丁目","43.086743","141.400526","0","3"
"01","北海道","01103","札幌市東区","011030093002","東苗穂三条二丁目","43.085139","141.403967","0","3"
"01","北海道","01103","札幌市東区","011030093003","東苗穂三条三丁目","43.083891","141.407247","0","3"
"01","北海道","01103","札幌市東区","011030094001","東苗穂四条一丁目","43.088812","141.402190","0","3"
"01","北海道","01103","札幌市東区","011030094002","東苗穂四条二丁目","43.087272","141.405636","0","3"
"01","北海道","01103","札幌市東区","011030094003","東苗穂四条三丁目","43.085961","141.408842","0","3"
"01","北海道","01103","札幌市東区","011030095001","東苗穂五条一丁目","43.091561","141.402967","0","3"
"01","北海道","01103","札幌市東区","011030095002","東苗穂五条二丁目","43.089610","141.406529","0","3"
"01","北海道","01103","札幌市東区","011030095003","東苗穂五条三丁目","43.088758","141.411051","0","3"
"01","北海道","01103","札幌市東区","011030096001","東苗穂六条一丁目","43.094535","141.405741","0","3"
"01","北海道","01103","札幌市東区","011030096002","東苗穂六条二丁目","43.092339","141.408836","0","3"
"01","北海道","01103","札幌市東区","011030096003","東苗穂六条三丁目","43.090745","141.412585","0","3"
"01","北海道","01103","札幌市東区","011030097001","東苗穂七条一丁目","43.096468","141.407230","0","3"
"01","北海道","01103","札幌市東区","011030097002","東苗穂七条二丁目","43.094379","141.410418","0","3"
"01","北海道","01103","札幌市東区","011030097003","東苗穂七条三丁目","43.093201","141.414500","0","3"
"01","北海道","01103","札幌市東区","011030098001","東苗穂八条一丁目","43.098335","141.408210","0","3"
"01","北海道","01103","札幌市東区","011030098002","東苗穂八条二丁目","43.096969","141.412422","0","3"
"01","北海道","01103","札幌市東区","011030098003","東苗穂八条三丁目","43.095435","141.416251","0","3"
"01","北海道","01103","札幌市東区","011030099001","東苗穂九条一丁目","43.101048","141.410515","0","3"
"01","北海道","01103","札幌市東区","011030099002","東苗穂九条二丁目","43.099322","141.413060","0","3"
"01","北海道","01103","札幌市東区","011030099003","東苗穂九条三丁目","43.097643","141.418088","0","3"
"01","北海道","01103","札幌市東区","011030100000","東苗穂町","43.114917","141.421323","0","1"
"01","北海道","01103","札幌市東区","011030101001","伏古十条一丁目","43.097581","141.390255","0","3"
"01","北海道","01103","札幌市東区","011030101002","伏古十条二丁目","43.096046","141.394153","0","3"
"01","北海道","01103","札幌市東区","011030101003","伏古十条三丁目","43.094411","141.397335","0","3"
"01","北海道","01103","札幌市東区","011030101004","伏古十条四丁目","43.093737","141.399700","0","3"
"01","北海道","01103","札幌市東区","011030101005","伏古十条五丁目","43.093081","141.401378","0","3"
"01","北海道","01103","札幌市東区","011030102001","伏古十一条一丁目","43.098406","141.393916","0","3"
"01","北海道","01103","札幌市東区","011030102002","伏古十一条二丁目","43.097346","141.396222","0","3"
"01","北海道","01103","札幌市東区","011030102003","伏古十一条三丁目","43.096747","141.398823","0","3"
"01","北海道","01103","札幌市東区","011030102004","伏古十一条四丁目","43.095675","141.401072","0","3"
"01","北海道","01103","札幌市東区","011030102005","伏古十一条五丁目","43.095008","141.402540","0","3"
"01","北海道","01103","札幌市東区","011030103002","伏古十二条二丁目","43.099548","141.397898","0","3"
"01","北海道","01103","札幌市東区","011030103003","伏古十二条三丁目","43.098680","141.400608","0","3"
"01","北海道","01103","札幌市東区","011030103004","伏古十二条四丁目","43.098007","141.402361","0","3"
"01","北海道","01103","札幌市東区","011030103005","伏古十二条五丁目","43.097250","141.403964","0","3"
"01","北海道","01103","札幌市東区","011030104003","伏古十三条三丁目","43.101206","141.401278","0","3"
"01","北海道","01103","札幌市東区","011030104004","伏古十三条四丁目","43.100366","141.404721","0","3"
"01","北海道","01103","札幌市東区","011030104005","伏古十三条五丁目","43.099468","141.406101","0","3"
"01","北海道","01103","札幌市東区","011030105003","伏古十四条三丁目","43.103727","141.403607","0","3"
"01","北海道","01103","札幌市東区","011030105004","伏古十四条四丁目","43.102533","141.406236","0","3"
"01","北海道","01103","札幌市東区","011030105005","伏古十四条五丁目","43.101882","141.407996","0","3"
"01","北海道","01103","札幌市東区","011030106002","伏古一条二丁目","43.083952","141.386720","0","3"
"01","北海道","01103","札幌市東区","011030106003","伏古一条三丁目","43.082059","141.388466","0","3"
"01","北海道","01103","札幌市東区","011030106004","伏古一条四丁目","43.081626","141.390333","0","3"
"01","北海道","01103","札幌市東区","011030106005","伏古一条五丁目","43.080652","141.391992","0","3"
"01","北海道","01103","札幌市東区","011030107003","伏古二条三丁目","43.083635","141.389689","0","3"
"01","北海道","01103","札幌市東区","011030107004","伏古二条四丁目","43.083041","141.391334","0","3"
"01","北海道","01103","札幌市東区","011030107005","伏古二条五丁目","43.082156","141.392752","0","3"
"01","北海道","01103","札幌市東区","011030108002","伏古三条二丁目","43.086215","141.388003","0","3"
"01","北海道","01103","札幌市東区","011030108003","伏古三条三丁目","43.085268","141.390471","0","3"
"01","北海道","01103","札幌市東区","011030108004","伏古三条四丁目","43.084543","141.392269","0","3"
"01","北海道","01103","札幌市東区","011030108005","伏古三条五丁目","43.083772","141.393816","0","3"
"01","北海道","01103","札幌市東区","011030109002","伏古四条二丁目","43.087376","141.389080","0","3"
"01","北海道","01103","札幌市東区","011030109003","伏古四条三丁目","43.086467","141.391416","0","3"
"01","北海道","01103","札幌市東区","011030109004","伏古四条四丁目","43.085769","141.393218","0","3"
"01","北海道","01103","札幌市東区","011030109005","伏古四条五丁目","43.085090","141.394986","0","3"
"01","北海道","01103","札幌市東区","011030110002","伏古五条二丁目","43.088521","141.390153","0","3"
"01","北海道","01103","札幌市東区","011030110003","伏古五条三丁目","43.087614","141.392301","0","3"
"01","北海道","01103","札幌市東区","011030110004","伏古五条四丁目","43.086878","141.394098","0","3"
"01","北海道","01103","札幌市東区","011030110005","伏古五条五丁目","43.086038","141.395821","0","3"
"01","北海道","01103","札幌市東区","011030111002","伏古六条二丁目","43.089547","141.390872","0","3"
"01","北海道","01103","札幌市東区","011030111003","伏古六条三丁目","43.088728","141.393081","0","3"
"01","北海道","01103","札幌市東区","011030111004","伏古六条四丁目","43.087958","141.394930","0","3"
"01","北海道","01103","札幌市東区","011030111005","伏古六条五丁目","43.087255","141.396632","0","3"
"01","北海道","01103","札幌市東区","011030112002","伏古七条二丁目","43.091397","141.391498","0","3"
"01","北海道","01103","札幌市東区","011030112003","伏古七条三丁目","43.090065","141.393939","0","3"
"01","北海道","01103","札幌市東区","011030112004","伏古七条四丁目","43.089238","141.395919","0","3"
"01","北海道","01103","札幌市東区","011030112005","伏古七条五丁目","43.088544","141.397628","0","3"
"01","北海道","01103","札幌市東区","011030113001","伏古八条一丁目","43.094185","141.389641","0","3"
"01","北海道","01103","札幌市東区","011030113002","伏古八条二丁目","43.093003","141.392672","0","3"
"01","北海道","01103","札幌市東区","011030113003","伏古八条三丁目","43.091716","141.394860","0","3"
"01","北海道","01103","札幌市東区","011030113004","伏古八条四丁目","43.090911","141.397307","0","3"
"01","北海道","01103","札幌市東区","011030113005","伏古八条五丁目","43.090259","141.399038","0","3"
"01","北海道","01103","札幌市東区","011030114001","伏古九条一丁目","43.095743","141.389944","0","3"
"01","北海道","01103","札幌市東区","011030114002","伏古九条二丁目","43.094529","141.392750","0","3"
"01","北海道","01103","札幌市東区","011030114003","伏古九条三丁目","43.093241","141.396030","0","3"
"01","北海道","01103","札幌市東区","011030114004","伏古九条四丁目","43.092286","141.398559","0","3"
"01","北海道","01103","札幌市東区","011030114005","伏古九条五丁目","43.091815","141.400394","0","3"
"01","北海道","01103","札幌市東区","011030115010","本町一条十丁目","43.073405","141.397957","0","3"
"01","北海道","01103","札幌市東区","011030115011","本町一条十一丁目","43.072374","141.399484","0","3"
"01","北海道","01103","札幌市東区","011030115001","本町一条一丁目","43.080229","141.379893","0","3"
"01","北海道","01103","札幌市東区","011030115002","本町一条二丁目","43.079743","141.382604","0","3"
"01","北海道","01103","札幌市東区","011030115003","本町一条三丁目","43.078566","141.384944","0","3"
"01","北海道","01103","札幌市東区","011030115004","本町一条四丁目","43.077899","141.387139","0","3"
"01","北海道","01103","札幌市東区","011030115005","本町一条五丁目","43.077034","141.388974","0","3"
"01","北海道","01103","札幌市東区","011030115006","本町一条六丁目","43.076607","141.390668","0","3"
"01","北海道","01103","札幌市東区","011030115007","本町一条七丁目","43.075593","141.392238","0","3"
"01","北海道","01103","札幌市東区","011030115008","本町一条八丁目","43.075066","141.394158","0","3"
"01","北海道","01103","札幌市東区","011030115009","本町一条九丁目","43.074343","141.395928","0","3"
"01","北海道","01103","札幌市東区","011030116010","本町二条十丁目","43.075281","141.400011","0","3"
"01","北海道","01103","札幌市東区","011030116011","本町二条十一丁目","43.074043","141.401183","0","3"
"01","北海道","01103","札幌市東区","011030116001","本町二条一丁目","43.081873","141.380807","0","3"
"01","北海道","01103","札幌市東区","011030116002","本町二条二丁目","43.081392","141.383933","0","3"
"01","北海道","01103","札幌市東区","011030116003","本町二条三丁目","43.080516","141.386441","0","3"
"01","北海道","01103","札幌市東区","011030116004","本町二条四丁目","43.079703","141.388712","0","3"
"01","北海道","01103","札幌市東区","011030116005","本町二条五丁目","43.078973","141.390435","0","3"
"01","北海道","01103","札幌市東区","011030116006","本町二条六丁目","43.078219","141.391898","0","3"
"01","北海道","01103","札幌市東区","011030116007","本町二条七丁目","43.077317","141.393546","0","3"
"01","北海道","01103","札幌市東区","011030116008","本町二条八丁目","43.076882","141.395538","0","3"
"01","北海道","01103","札幌市東区","011030116009","本町二条九丁目","43.076203","141.397348","0","3"
"01","北海道","01103","札幌市東区","011030117000","モエレ沼公園","43.122131","141.428317","0","1"
