"PrefCode","PrefName","MuniCode","MuniName","DistCode","DistName","lat","lon","SrcCode","CatCode"
"01","北海道","01105","札幌市豊平区","011050001001","旭町一丁目","43.049506","141.365176","0","3"
"01","北海道","01105","札幌市豊平区","011050001002","旭町二丁目","43.049053","141.367551","0","3"
"01","北海道","01105","札幌市豊平区","011050001003","旭町三丁目","43.047648","141.365779","0","3"
"01","北海道","01105","札幌市豊平区","011050001004","旭町四丁目","43.046210","141.368166","0","3"
"01","北海道","01105","札幌市豊平区","011050001005","旭町五丁目","43.045106","141.366220","0","3"
"01","北海道","01105","札幌市豊平区","011050001006","旭町六丁目","43.043489","141.366818","0","3"
"01","北海道","01105","札幌市豊平区","011050001007","旭町七丁目","43.043231","141.368896","0","3"
"01","北海道","01105","札幌市豊平区","011050002001","水車町一丁目","43.052085","141.364392","0","3"
"01","北海道","01105","札幌市豊平区","011050002002","水車町二丁目","43.049050","141.363510","0","3"
"01","北海道","01105","札幌市豊平区","011050002003","水車町三丁目","43.047404","141.363066","0","3"
"01","北海道","01105","札幌市豊平区","011050002004","水車町四丁目","43.047275","141.364661","0","3"
"01","北海道","01105","札幌市豊平区","011050002005","水車町五丁目","43.044784","141.362569","0","3"
"01","北海道","01105","札幌市豊平区","011050002006","水車町六丁目","43.044991","141.364746","0","3"
"01","北海道","01105","札幌市豊平区","011050002007","水車町七丁目","43.043065","141.362375","0","3"
"01","北海道","01105","札幌市豊平区","011050002008","水車町八丁目","43.043252","141.364904","0","3"
"01","北海道","01105","札幌市豊平区","011050003010","月寒中央通十丁目","43.026253","141.399173","0","3"
"01","北海道","01105","札幌市豊平区","011050003011","月寒中央通十一丁目","43.024180","141.400763","0","3"
"01","北海道","01105","札幌市豊平区","011050003001","月寒中央通一丁目","43.037859","141.392050","0","3"
"01","北海道","01105","札幌市豊平区","011050003002","月寒中央通二丁目","43.036686","141.392481","0","3"
"01","北海道","01105","札幌市豊平区","011050003003","月寒中央通三丁目","43.035478","141.393296","0","3"
"01","北海道","01105","札幌市豊平区","011050003004","月寒中央通四丁目","43.034179","141.394130","0","3"
"01","北海道","01105","札幌市豊平区","011050003005","月寒中央通五丁目","43.033167","141.394738","0","3"
"01","北海道","01105","札幌市豊平区","011050003006","月寒中央通六丁目","43.032094","141.395445","0","3"
"01","北海道","01105","札幌市豊平区","011050003007","月寒中央通七丁目","43.030775","141.396127","0","3"
"01","北海道","01105","札幌市豊平区","011050003008","月寒中央通八丁目","43.029235","141.397358","0","3"
"01","北海道","01105","札幌市豊平区","011050003009","月寒中央通九丁目","43.027896","141.398162","0","3"
"01","北海道","01105","札幌市豊平区","011050004010","月寒西一条十丁目","43.025420","141.397188","0","3"
"01","北海道","01105","札幌市豊平区","011050004011","月寒西一条十一丁目","43.022903","141.398626","0","3"
"01","北海道","01105","札幌市豊平区","011050004002","月寒西一条二丁目","43.036100","141.391128","0","3"
"01","北海道","01105","札幌市豊平区","011050004003","月寒西一条三丁目","43.034844","141.391160","0","3"
"01","北海道","01105","札幌市豊平区","011050004004","月寒西一条四丁目","43.033729","141.392226","0","3"
"01","北海道","01105","札幌市豊平区","011050004005","月寒西一条五丁目","43.032648","141.392936","0","3"
"01","北海道","01105","札幌市豊平区","011050004006","月寒西一条六丁目","43.031707","141.393571","0","3"
"01","北海道","01105","札幌市豊平区","011050004007","月寒西一条七丁目","43.030030","141.393893","0","3"
"01","北海道","01105","札幌市豊平区","011050004008","月寒西一条八丁目","43.028374","141.395023","0","3"
"01","北海道","01105","札幌市豊平区","011050004009","月寒西一条九丁目","43.026397","141.395004","0","3"
"01","北海道","01105","札幌市豊平区","011050005010","月寒西二条十丁目","43.024633","141.393592","0","3"
"01","北海道","01105","札幌市豊平区","011050005004","月寒西二条四丁目","43.033493","141.389873","0","3"
"01","北海道","01105","札幌市豊平区","011050005005","月寒西二条五丁目","43.032264","141.390742","0","3"
"01","北海道","01105","札幌市豊平区","011050005006","月寒西二条六丁目","43.031037","141.391699","0","3"
"01","北海道","01105","札幌市豊平区","011050005007","月寒西二条七丁目","43.029585","141.391765","0","3"
"01","北海道","01105","札幌市豊平区","011050005008","月寒西二条八丁目","43.028015","141.392505","0","3"
"01","北海道","01105","札幌市豊平区","011050005009","月寒西二条九丁目","43.026088","141.392887","0","3"
"01","北海道","01105","札幌市豊平区","011050006010","月寒西三条十丁目","43.025017","141.391104","0","3"
"01","北海道","01105","札幌市豊平区","011050006004","月寒西三条四丁目","43.032204","141.388309","0","3"
"01","北海道","01105","札幌市豊平区","011050006005","月寒西三条五丁目","43.031017","141.388392","0","3"
"01","北海道","01105","札幌市豊平区","011050006006","月寒西三条六丁目","43.030392","141.389612","0","3"
"01","北海道","01105","札幌市豊平区","011050006007","月寒西三条七丁目","43.028758","141.390033","0","3"
"01","北海道","01105","札幌市豊平区","011050006008","月寒西三条八丁目","43.027763","141.391050","0","3"
"01","北海道","01105","札幌市豊平区","011050006009","月寒西三条九丁目","43.026585","141.391543","0","3"
"01","北海道","01105","札幌市豊平区","011050007010","月寒西四条十丁目","43.024617","141.388309","0","3"
"01","北海道","01105","札幌市豊平区","011050007005","月寒西四条五丁目","43.030280","141.386613","0","3"
"01","北海道","01105","札幌市豊平区","011050007006","月寒西四条六丁目","43.029182","141.388290","0","3"
"01","北海道","01105","札幌市豊平区","011050007007","月寒西四条七丁目","43.027944","141.388599","0","3"
"01","北海道","01105","札幌市豊平区","011050007008","月寒西四条八丁目","43.026870","141.389036","0","3"
"01","北海道","01105","札幌市豊平区","011050007009","月寒西四条九丁目","43.025473","141.388791","0","3"
"01","北海道","01105","札幌市豊平区","011050008010","月寒西五条十丁目","43.024826","141.386252","0","3"
"01","北海道","01105","札幌市豊平区","011050008006","月寒西五条六丁目","43.029006","141.386467","0","3"
"01","北海道","01105","札幌市豊平区","011050008007","月寒西五条七丁目","43.028051","141.386392","0","3"
"01","北海道","01105","札幌市豊平区","011050008008","月寒西五条八丁目","43.026272","141.386199","0","3"
"01","北海道","01105","札幌市豊平区","011050009010","月寒東一条十丁目","43.027481","141.400881","0","3"
"01","北海道","01105","札幌市豊平区","011050009011","月寒東一条十一丁目","43.025795","141.402756","0","3"
"01","北海道","01105","札幌市豊平区","011050009012","月寒東一条十二丁目","43.023928","141.403449","0","3"
"01","北海道","01105","札幌市豊平区","011050009013","月寒東一条十三丁目","43.022817","141.404895","0","3"
"01","北海道","01105","札幌市豊平区","011050009014","月寒東一条十四丁目","43.021605","141.406395","0","3"
"01","北海道","01105","札幌市豊平区","011050009015","月寒東一条十五丁目","43.019869","141.407766","0","3"
"01","北海道","01105","札幌市豊平区","011050009016","月寒東一条十六丁目","43.018584","141.411171","0","3"
"01","北海道","01105","札幌市豊平区","011050009017","月寒東一条十七丁目","43.016809","141.414164","0","3"
"01","北海道","01105","札幌市豊平区","011050009018","月寒東一条十八丁目","43.014798","141.417559","0","3"
"01","北海道","01105","札幌市豊平区","011050009019","月寒東一条十九丁目","43.012916","141.420861","0","3"
"01","北海道","01105","札幌市豊平区","011050009001","月寒東一条一丁目","43.038709","141.393389","0","3"
"01","北海道","01105","札幌市豊平区","011050009020","月寒東一条二十丁目","43.011267","141.422723","0","3"
"01","北海道","01105","札幌市豊平区","011050009002","月寒東一条二丁目","43.037418","141.394642","0","3"
"01","北海道","01105","札幌市豊平区","011050009003","月寒東一条三丁目","43.035763","141.395739","0","3"
"01","北海道","01105","札幌市豊平区","011050009004","月寒東一条四丁目","43.034760","141.396705","0","3"
"01","北海道","01105","札幌市豊平区","011050009005","月寒東一条五丁目","43.033717","141.396951","0","3"
"01","北海道","01105","札幌市豊平区","011050009006","月寒東一条六丁目","43.032840","141.397627","0","3"
"01","北海道","01105","札幌市豊平区","011050009007","月寒東一条七丁目","43.031500","141.398503","0","3"
"01","北海道","01105","札幌市豊平区","011050009008","月寒東一条八丁目","43.029750","141.399660","0","3"
"01","北海道","01105","札幌市豊平区","011050009009","月寒東一条九丁目","43.028256","141.400131","0","3"
"01","北海道","01105","札幌市豊平区","011050010010","月寒東二条十丁目","43.028676","141.404154","0","3"
"01","北海道","01105","札幌市豊平区","011050010011","月寒東二条十一丁目","43.027019","141.404809","0","3"
"01","北海道","01105","札幌市豊平区","011050010012","月寒東二条十二丁目","43.026339","141.407556","0","3"
"01","北海道","01105","札幌市豊平区","011050010013","月寒東二条十三丁目","43.023703","141.411088","0","3"
"01","北海道","01105","札幌市豊平区","011050010014","月寒東二条十四丁目","43.022702","141.408827","0","3"
"01","北海道","01105","札幌市豊平区","011050010015","月寒東二条十五丁目","43.021288","141.410140","0","3"
"01","北海道","01105","札幌市豊平区","011050010016","月寒東二条十六丁目","43.020434","141.414201","0","3"
"01","北海道","01105","札幌市豊平区","011050010017","月寒東二条十七丁目","43.018970","141.417316","0","3"
"01","北海道","01105","札幌市豊平区","011050010018","月寒東二条十八丁目","43.017147","141.420091","0","3"
"01","北海道","01105","札幌市豊平区","011050010019","月寒東二条十九丁目","43.015094","141.423362","0","3"
"01","北海道","01105","札幌市豊平区","011050010001","月寒東二条一丁目","43.039985","141.395805","0","3"
"01","北海道","01105","札幌市豊平区","011050010020","月寒東二条二十丁目","43.013426","141.425421","0","3"
"01","北海道","01105","札幌市豊平区","011050010002","月寒東二条二丁目","43.038661","141.397516","0","3"
"01","北海道","01105","札幌市豊平区","011050010003","月寒東二条三丁目","43.037430","141.398666","0","3"
"01","北海道","01105","札幌市豊平区","011050010004","月寒東二条四丁目","43.035919","141.399134","0","3"
"01","北海道","01105","札幌市豊平区","011050010005","月寒東二条五丁目","43.035046","141.399894","0","3"
"01","北海道","01105","札幌市豊平区","011050010006","月寒東二条六丁目","43.033971","141.400807","0","3"
"01","北海道","01105","札幌市豊平区","011050010007","月寒東二条七丁目","43.032643","141.401546","0","3"
"01","北海道","01105","札幌市豊平区","011050010008","月寒東二条八丁目","43.031180","141.402558","0","3"
"01","北海道","01105","札幌市豊平区","011050010009","月寒東二条九丁目","43.029755","141.403447","0","3"
"01","北海道","01105","札幌市豊平区","011050011010","月寒東三条十丁目","43.029228","141.407124","0","3"
"01","北海道","01105","札幌市豊平区","011050011011","月寒東三条十一丁目","43.026756","141.414556","0","3"
"01","北海道","01105","札幌市豊平区","011050011015","月寒東三条十五丁目","43.024808","141.417350","0","3"
"01","北海道","01105","札幌市豊平区","011050011016","月寒東三条十六丁目","43.023244","141.418610","0","3"
"01","北海道","01105","札幌市豊平区","011050011017","月寒東三条十七丁目","43.021664","141.420989","0","3"
"01","北海道","01105","札幌市豊平区","011050011018","月寒東三条十八丁目","43.019867","141.423597","0","3"
"01","北海道","01105","札幌市豊平区","011050011019","月寒東三条十九丁目","43.017328","141.425911","0","3"
"01","北海道","01105","札幌市豊平区","011050011003","月寒東三条三丁目","43.038209","141.401113","0","3"
"01","北海道","01105","札幌市豊平区","011050011004","月寒東三条四丁目","43.037337","141.402467","0","3"
"01","北海道","01105","札幌市豊平区","011050011005","月寒東三条五丁目","43.036012","141.402917","0","3"
"01","北海道","01105","札幌市豊平区","011050011006","月寒東三条六丁目","43.034942","141.403488","0","3"
"01","北海道","01105","札幌市豊平区","011050011007","月寒東三条七丁目","43.033631","141.404381","0","3"
"01","北海道","01105","札幌市豊平区","011050011008","月寒東三条八丁目","43.032126","141.405521","0","3"
"01","北海道","01105","札幌市豊平区","011050011009","月寒東三条九丁目","43.030748","141.406375","0","3"
"01","北海道","01105","札幌市豊平区","011050012010","月寒東四条十丁目","43.031442","141.411015","0","3"
"01","北海道","01105","札幌市豊平区","011050012011","月寒東四条十一丁目","43.030311","141.412685","0","3"
"01","北海道","01105","札幌市豊平区","011050012015","月寒東四条十五丁目","43.026945","141.421215","0","3"
"01","北海道","01105","札幌市豊平区","011050012016","月寒東四条十六丁目","43.026089","141.422378","0","3"
"01","北海道","01105","札幌市豊平区","011050012017","月寒東四条十七丁目","43.024585","141.425055","0","3"
"01","北海道","01105","札幌市豊平区","011050012018","月寒東四条十八丁目","43.022732","141.426212","0","3"
"01","北海道","01105","札幌市豊平区","011050012019","月寒東四条十九丁目","43.021321","141.428444","0","3"
"01","北海道","01105","札幌市豊平区","011050012006","月寒東四条六丁目","43.035480","141.405180","0","3"
"01","北海道","01105","札幌市豊平区","011050012007","月寒東四条七丁目","43.034372","141.406444","0","3"
"01","北海道","01105","札幌市豊平区","011050012008","月寒東四条八丁目","43.033433","141.408083","0","3"
"01","北海道","01105","札幌市豊平区","011050012009","月寒東四条九丁目","43.032123","141.408705","0","3"
"01","北海道","01105","札幌市豊平区","011050013010","月寒東五条十丁目","43.033675","141.413105","0","3"
"01","北海道","01105","札幌市豊平区","011050013011","月寒東五条十一丁目","43.032845","141.414033","0","3"
"01","北海道","01105","札幌市豊平区","011050013012","月寒東五条十二丁目","43.032077","141.414795","0","3"
"01","北海道","01105","札幌市豊平区","011050013013","月寒東五条十三丁目","43.031430","141.416315","0","3"
"01","北海道","01105","札幌市豊平区","011050013014","月寒東五条十四丁目","43.030564","141.419490","0","3"
"01","北海道","01105","札幌市豊平区","011050013015","月寒東五条十五丁目","43.029304","141.423462","0","3"
"01","北海道","01105","札幌市豊平区","011050013016","月寒東五条十六丁目","43.027879","141.425370","0","3"
"01","北海道","01105","札幌市豊平区","011050013017","月寒東五条十七丁目","43.026966","141.427959","0","3"
"01","北海道","01105","札幌市豊平区","011050013018","月寒東五条十八丁目","43.025607","141.429643","0","3"
"01","北海道","01105","札幌市豊平区","011050013019","月寒東五条十九丁目","43.024797","141.431975","0","3"
"01","北海道","01105","札幌市豊平区","011050013005","月寒東五条五丁目","43.037025","141.404312","0","3"
"01","北海道","01105","札幌市豊平区","011050013006","月寒東五条六丁目","43.036493","141.405670","0","3"
"01","北海道","01105","札幌市豊平区","011050013007","月寒東五条七丁目","43.035861","141.407507","0","3"
"01","北海道","01105","札幌市豊平区","011050013008","月寒東五条八丁目","43.034803","141.409426","0","3"
"01","北海道","01105","札幌市豊平区","011050013009","月寒東五条九丁目","43.034120","141.411177","0","3"
"01","北海道","01105","札幌市豊平区","011050014010","豊平一条十丁目","43.049412","141.378623","0","3"
"01","北海道","01105","札幌市豊平区","011050014011","豊平一条十一丁目","43.048544","141.380825","0","3"
"01","北海道","01105","札幌市豊平区","011050014012","豊平一条十二丁目","43.047564","141.382345","0","3"
"01","北海道","01105","札幌市豊平区","011050014013","豊平一条十三丁目","43.046636","141.383798","0","3"
"01","北海道","01105","札幌市豊平区","011050014001","豊平一条一丁目","43.056484","141.367844","0","3"
"01","北海道","01105","札幌市豊平区","011050014002","豊平一条二丁目","43.055426","141.369611","0","3"
"01","北海道","01105","札幌市豊平区","011050014003","豊平一条三丁目","43.054580","141.370874","0","3"
"01","北海道","01105","札幌市豊平区","011050014004","豊平一条四丁目","43.053735","141.372273","0","3"
"01","北海道","01105","札幌市豊平区","011050014005","豊平一条五丁目","43.053106","141.373321","0","3"
"01","北海道","01105","札幌市豊平区","011050014006","豊平一条六丁目","43.052439","141.374365","0","3"
"01","北海道","01105","札幌市豊平区","011050014007","豊平一条七丁目","43.051568","141.375722","0","3"
"01","北海道","01105","札幌市豊平区","011050014008","豊平一条八丁目","43.050674","141.377129","0","3"
"01","北海道","01105","札幌市豊平区","011050015010","豊平二条十丁目","43.048421","141.379338","0","3"
"01","北海道","01105","札幌市豊平区","011050015011","豊平二条十一丁目","43.047950","141.380142","0","3"
"01","北海道","01105","札幌市豊平区","011050015012","豊平二条十二丁目","43.046967","141.381563","0","3"
"01","北海道","01105","札幌市豊平区","011050015013","豊平二条十三丁目","43.046228","141.382879","0","3"
"01","北海道","01105","札幌市豊平区","011050015001","豊平二条一丁目","43.055840","141.367289","0","3"
"01","北海道","01105","札幌市豊平区","011050015002","豊平二条二丁目","43.054879","141.368854","0","3"
"01","北海道","01105","札幌市豊平区","011050015003","豊平二条三丁目","43.053988","141.370244","0","3"
"01","北海道","01105","札幌市豊平区","011050015004","豊平二条四丁目","43.053187","141.371552","0","3"
"01","北海道","01105","札幌市豊平区","011050015005","豊平二条五丁目","43.052417","141.372784","0","3"
"01","北海道","01105","札幌市豊平区","011050015006","豊平二条六丁目","43.051730","141.373886","0","3"
"01","北海道","01105","札幌市豊平区","011050015007","豊平二条七丁目","43.050881","141.375127","0","3"
"01","北海道","01105","札幌市豊平区","011050015008","豊平二条八丁目","43.050082","141.376540","0","3"
"01","北海道","01105","札幌市豊平区","011050016010","豊平三条十丁目","43.047835","141.378460","0","3"
"01","北海道","01105","札幌市豊平区","011050016011","豊平三条十一丁目","43.046984","141.379721","0","3"
"01","北海道","01105","札幌市豊平区","011050016012","豊平三条十二丁目","43.046277","141.381107","0","3"
"01","北海道","01105","札幌市豊平区","011050016013","豊平三条十三丁目","43.045546","141.382140","0","3"
"01","北海道","01105","札幌市豊平区","011050016001","豊平三条一丁目","43.055200","141.366473","0","3"
"01","北海道","01105","札幌市豊平区","011050016002","豊平三条二丁目","43.054196","141.368079","0","3"
"01","北海道","01105","札幌市豊平区","011050016003","豊平三条三丁目","43.053408","141.369364","0","3"
"01","北海道","01105","札幌市豊平区","011050016004","豊平三条四丁目","43.052481","141.370869","0","3"
"01","北海道","01105","札幌市豊平区","011050016005","豊平三条五丁目","43.051644","141.371779","0","3"
"01","北海道","01105","札幌市豊平区","011050016006","豊平三条六丁目","43.051070","141.373132","0","3"
"01","北海道","01105","札幌市豊平区","011050016007","豊平三条七丁目","43.050325","141.374401","0","3"
"01","北海道","01105","札幌市豊平区","011050016008","豊平三条八丁目","43.049279","141.375780","0","3"
"01","北海道","01105","札幌市豊平区","011050016009","豊平三条九丁目","43.048391","141.377243","0","3"
"01","北海道","01105","札幌市豊平区","011050017010","豊平四条十丁目","43.046729","141.377123","0","3"
"01","北海道","01105","札幌市豊平区","011050017011","豊平四条十一丁目","43.046118","141.378027","0","3"
"01","北海道","01105","札幌市豊平区","011050017012","豊平四条十二丁目","43.045323","141.379427","0","3"
"01","北海道","01105","札幌市豊平区","011050017013","豊平四条十三丁目","43.044404","141.380770","0","3"
"01","北海道","01105","札幌市豊平区","011050017001","豊平四条一丁目","43.054371","141.365517","0","3"
"01","北海道","01105","札幌市豊平区","011050017002","豊平四条二丁目","43.053438","141.367047","0","3"
"01","北海道","01105","札幌市豊平区","011050017003","豊平四条三丁目","43.051581","141.369422","0","3"
"01","北海道","01105","札幌市豊平区","011050017005","豊平四条五丁目","43.050821","141.370847","0","3"
"01","北海道","01105","札幌市豊平区","011050017006","豊平四条六丁目","43.050549","141.372200","0","3"
"01","北海道","01105","札幌市豊平区","011050017007","豊平四条七丁目","43.049442","141.373391","0","3"
"01","北海道","01105","札幌市豊平区","011050017008","豊平四条八丁目","43.048467","141.374241","0","3"
"01","北海道","01105","札幌市豊平区","011050017009","豊平四条九丁目","43.047620","141.375724","0","3"
"01","北海道","01105","札幌市豊平区","011050018010","豊平五条十丁目","43.046156","141.375326","0","3"
"01","北海道","01105","札幌市豊平区","011050018011","豊平五条十一丁目","43.043935","141.376038","0","3"
"01","北海道","01105","札幌市豊平区","011050018013","豊平五条十三丁目","43.043159","141.378470","0","3"
"01","北海道","01105","札幌市豊平区","011050018001","豊平五条一丁目","43.053696","141.365036","0","3"
"01","北海道","01105","札幌市豊平区","011050018002","豊平五条二丁目","43.052478","141.366240","0","3"
"01","北海道","01105","札幌市豊平区","011050018003","豊平五条三丁目","43.051518","141.367074","0","3"
"01","北海道","01105","札幌市豊平区","011050018005","豊平五条五丁目","43.050011","141.370153","0","3"
"01","北海道","01105","札幌市豊平区","011050018006","豊平五条六丁目","43.049484","141.371403","0","3"
"01","北海道","01105","札幌市豊平区","011050018007","豊平五条七丁目","43.048605","141.372325","0","3"
"01","北海道","01105","札幌市豊平区","011050018008","豊平五条八丁目","43.047535","141.373187","0","3"
"01","北海道","01105","札幌市豊平区","011050018009","豊平五条九丁目","43.047011","141.374235","0","3"
"01","北海道","01105","札幌市豊平区","011050019010","豊平六条十丁目","43.045055","141.374400","0","3"
"01","北海道","01105","札幌市豊平区","011050019002","豊平六条二丁目","43.051075","141.365399","0","3"
"01","北海道","01105","札幌市豊平区","011050019003","豊平六条三丁目","43.050338","141.366616","0","3"
"01","北海道","01105","札幌市豊平区","011050019005","豊平六条五丁目","43.049110","141.369362","0","3"
"01","北海道","01105","札幌市豊平区","011050019006","豊平六条六丁目","43.047962","141.370026","0","3"
"01","北海道","01105","札幌市豊平区","011050019007","豊平六条七丁目","43.047664","141.371717","0","3"
"01","北海道","01105","札幌市豊平区","011050019008","豊平六条八丁目","43.046945","141.372543","0","3"
"01","北海道","01105","札幌市豊平区","011050019009","豊平六条九丁目","43.045954","141.373024","0","3"
"01","北海道","01105","札幌市豊平区","011050020010","豊平七条十丁目","43.044258","141.373360","0","3"
"01","北海道","01105","札幌市豊平区","011050020013","豊平七条十三丁目","43.041648","141.377596","0","3"
"01","北海道","01105","札幌市豊平区","011050020007","豊平七条七丁目","43.046335","141.370093","0","3"
"01","北海道","01105","札幌市豊平区","011050020008","豊平七条八丁目","43.046093","141.371722","0","3"
"01","北海道","01105","札幌市豊平区","011050020009","豊平七条九丁目","43.044967","141.371907","0","3"
"01","北海道","01105","札幌市豊平区","011050021010","豊平八条十丁目","43.043438","141.371974","0","3"
"01","北海道","01105","札幌市豊平区","011050021011","豊平八条十一丁目","43.043196","141.373453","0","3"
"01","北海道","01105","札幌市豊平区","011050021012","豊平八条十二丁目","43.041951","141.375769","0","3"
"01","北海道","01105","札幌市豊平区","011050021013","豊平八条十三丁目","43.040669","141.376432","0","3"
"01","北海道","01105","札幌市豊平区","011050021008","豊平八条八丁目","43.044573","141.370165","0","3"
"01","北海道","01105","札幌市豊平区","011050021009","豊平八条九丁目","43.044378","141.371358","0","3"
"01","北海道","01105","札幌市豊平区","011050022009","豊平九条九丁目","43.042855","141.370658","0","3"
"01","北海道","01105","札幌市豊平区","011050023000","中の島","43.026451","141.354002","0","1"
"01","北海道","01105","札幌市豊平区","011050024010","中の島一条十丁目","43.021604","141.355080","0","3"
"01","北海道","01105","札幌市豊平区","011050024011","中の島一条十一丁目","43.019841","141.354880","0","3"
"01","北海道","01105","札幌市豊平区","011050024012","中の島一条十二丁目","43.019062","141.355706","0","3"
"01","北海道","01105","札幌市豊平区","011050024013","中の島一条十三丁目","43.017331","141.355419","0","3"
"01","北海道","01105","札幌市豊平区","011050024014","中の島一条十四丁目","43.015812","141.355134","0","3"
"01","北海道","01105","札幌市豊平区","011050024001","中の島一条一丁目","43.039073","141.360488","0","3"
"01","北海道","01105","札幌市豊平区","011050024002","中の島一条二丁目","43.037625","141.359005","0","3"
"01","北海道","01105","札幌市豊平区","011050024003","中の島一条三丁目","43.035805","141.358252","0","3"
"01","北海道","01105","札幌市豊平区","011050024004","中の島一条四丁目","43.033364","141.358301","0","3"
"01","北海道","01105","札幌市豊平区","011050024005","中の島一条五丁目","43.031253","141.358834","0","3"
"01","北海道","01105","札幌市豊平区","011050024006","中の島一条六丁目","43.029329","141.357729","0","3"
"01","北海道","01105","札幌市豊平区","011050024007","中の島一条七丁目","43.027177","141.356500","0","3"
"01","北海道","01105","札幌市豊平区","011050024008","中の島一条八丁目","43.025425","141.356078","0","3"
"01","北海道","01105","札幌市豊平区","011050024009","中の島一条九丁目","43.023379","141.355515","0","3"
"01","北海道","01105","札幌市豊平区","011050025010","中の島二条十丁目","43.021755","141.357966","0","3"
"01","北海道","01105","札幌市豊平区","011050025011","中の島二条十一丁目","43.020661","141.357428","0","3"
"01","北海道","01105","札幌市豊平区","011050025012","中の島二条十二丁目","43.019474","141.357459","0","3"
"01","北海道","01105","札幌市豊平区","011050025001","中の島二条一丁目","43.037705","141.363430","0","3"
"01","北海道","01105","札幌市豊平区","011050025002","中の島二条二丁目","43.036202","141.361948","0","3"
"01","北海道","01105","札幌市豊平区","011050025003","中の島二条三丁目","43.034502","141.361194","0","3"
"01","北海道","01105","札幌市豊平区","011050025004","中の島二条四丁目","43.032871","141.360675","0","3"
"01","北海道","01105","札幌市豊平区","011050025005","中の島二条五丁目","43.031062","141.360980","0","3"
"01","北海道","01105","札幌市豊平区","011050025006","中の島二条六丁目","43.028839","141.360627","0","3"
"01","北海道","01105","札幌市豊平区","011050025007","中の島二条七丁目","43.026670","141.359779","0","3"
"01","北海道","01105","札幌市豊平区","011050025008","中の島二条八丁目","43.025057","141.358956","0","3"
"01","北海道","01105","札幌市豊平区","011050025009","中の島二条九丁目","43.023238","141.358199","0","3"
"01","北海道","01105","札幌市豊平区","011050026000","西岡","42.959718","141.380158","0","1"
"01","北海道","01105","札幌市豊平区","011050027010","西岡一条十丁目","43.005679","141.376726","0","3"
"01","北海道","01105","札幌市豊平区","011050027011","西岡一条十一丁目","43.003395","141.375903","0","3"
"01","北海道","01105","札幌市豊平区","011050027002","西岡一条二丁目","43.022265","141.383505","0","3"
"01","北海道","01105","札幌市豊平区","011050027003","西岡一条三丁目","43.020164","141.382307","0","3"
"01","北海道","01105","札幌市豊平区","011050027004","西岡一条四丁目","43.017497","141.381118","0","3"
"01","北海道","01105","札幌市豊平区","011050027005","西岡一条五丁目","43.015802","141.380204","0","3"
"01","北海道","01105","札幌市豊平区","011050027006","西岡一条六丁目","43.014206","141.379690","0","3"
"01","北海道","01105","札幌市豊平区","011050027007","西岡一条七丁目","43.011980","141.378700","0","3"
"01","北海道","01105","札幌市豊平区","011050027008","西岡一条八丁目","43.009637","141.378474","0","3"
"01","北海道","01105","札幌市豊平区","011050027009","西岡一条九丁目","43.007345","141.378625","0","3"
"01","北海道","01105","札幌市豊平区","011050028010","西岡二条十丁目","43.003921","141.379511","0","3"
"01","北海道","01105","札幌市豊平区","011050028011","西岡二条十一丁目","43.001091","141.377947","0","3"
"01","北海道","01105","札幌市豊平区","011050028012","西岡二条十二丁目","42.998286","141.376233","0","3"
"01","北海道","01105","札幌市豊平区","011050028013","西岡二条十三丁目","42.996442","141.374838","0","3"
"01","北海道","01105","札幌市豊平区","011050028014","西岡二条十四丁目","42.993277","141.374180","0","3"
"01","北海道","01105","札幌市豊平区","011050028001","西岡二条一丁目","43.022921","141.387029","0","3"
"01","北海道","01105","札幌市豊平区","011050028002","西岡二条二丁目","43.021016","141.385303","0","3"
"01","北海道","01105","札幌市豊平区","011050028003","西岡二条三丁目","43.019527","141.384403","0","3"
"01","北海道","01105","札幌市豊平区","011050028004","西岡二条四丁目","43.017569","141.384055","0","3"
"01","北海道","01105","札幌市豊平区","011050028005","西岡二条五丁目","43.015592","141.383632","0","3"
"01","北海道","01105","札幌市豊平区","011050028006","西岡二条六丁目","43.013453","141.383063","0","3"
"01","北海道","01105","札幌市豊平区","011050028007","西岡二条七丁目","43.011409","141.381818","0","3"
"01","北海道","01105","札幌市豊平区","011050028008","西岡二条八丁目","43.008485","141.381054","0","3"
"01","北海道","01105","札幌市豊平区","011050028009","西岡二条九丁目","43.005823","141.381524","0","3"
"01","北海道","01105","札幌市豊平区","011050029010","西岡三条十丁目","43.002333","141.381959","0","3"
"01","北海道","01105","札幌市豊平区","011050029011","西岡三条十一丁目","42.999459","141.380188","0","3"
"01","北海道","01105","札幌市豊平区","011050029012","西岡三条十二丁目","42.997362","141.378047","0","3"
"01","北海道","01105","札幌市豊平区","011050029013","西岡三条十三丁目","42.995464","141.375979","0","3"
"01","北海道","01105","札幌市豊平区","011050029001","西岡三条一丁目","43.022249","141.389615","0","3"
"01","北海道","01105","札幌市豊平区","011050029002","西岡三条二丁目","43.020456","141.388150","0","3"
"01","北海道","01105","札幌市豊平区","011050029003","西岡三条三丁目","43.018551","141.387554","0","3"
"01","北海道","01105","札幌市豊平区","011050029004","西岡三条四丁目","43.017306","141.386919","0","3"
"01","北海道","01105","札幌市豊平区","011050029005","西岡三条五丁目","43.015110","141.386625","0","3"
"01","北海道","01105","札幌市豊平区","011050029006","西岡三条六丁目","43.013326","141.386405","0","3"
"01","北海道","01105","札幌市豊平区","011050029007","西岡三条七丁目","43.010894","141.385092","0","3"
"01","北海道","01105","札幌市豊平区","011050029008","西岡三条八丁目","43.007701","141.384498","0","3"
"01","北海道","01105","札幌市豊平区","011050029009","西岡三条九丁目","43.004515","141.383548","0","3"
"01","北海道","01105","札幌市豊平区","011050030010","西岡四条十丁目","43.000493","141.384798","0","3"
"01","北海道","01105","札幌市豊平区","011050030011","西岡四条十一丁目","42.998663","141.382243","0","3"
"01","北海道","01105","札幌市豊平区","011050030012","西岡四条十二丁目","42.996381","141.380032","0","3"
"01","北海道","01105","札幌市豊平区","011050030013","西岡四条十三丁目","42.993899","141.378156","0","3"
"01","北海道","01105","札幌市豊平区","011050030014","西岡四条十四丁目","42.991508","141.375500","0","3"
"01","北海道","01105","札幌市豊平区","011050030001","西岡四条一丁目","43.022571","141.393397","0","3"
"01","北海道","01105","札幌市豊平区","011050030002","西岡四条二丁目","43.019945","141.391851","0","3"
"01","北海道","01105","札幌市豊平区","011050030003","西岡四条三丁目","43.018313","141.389735","0","3"
"01","北海道","01105","札幌市豊平区","011050030004","西岡四条四丁目","43.015593","141.390574","0","3"
"01","北海道","01105","札幌市豊平区","011050030005","西岡四条五丁目","43.014074","141.390272","0","3"
"01","北海道","01105","札幌市豊平区","011050030006","西岡四条六丁目","43.012405","141.389789","0","3"
"01","北海道","01105","札幌市豊平区","011050030007","西岡四条七丁目","43.010654","141.388810","0","3"
"01","北海道","01105","札幌市豊平区","011050030008","西岡四条八丁目","43.007505","141.387610","0","3"
"01","北海道","01105","札幌市豊平区","011050030009","西岡四条九丁目","43.003481","141.386274","0","3"
"01","北海道","01105","札幌市豊平区","011050031011","西岡五条十一丁目","42.997339","141.385051","0","3"
"01","北海道","01105","札幌市豊平区","011050031012","西岡五条十二丁目","42.995058","141.382974","0","3"
"01","北海道","01105","札幌市豊平区","011050031013","西岡五条十三丁目","42.992687","141.381626","0","3"
"01","北海道","01105","札幌市豊平区","011050031014","西岡五条十四丁目","42.989580","141.377894","0","3"
"01","北海道","01105","札幌市豊平区","011050031015","西岡五条十五丁目","42.987328","141.375586","0","3"
"01","北海道","01105","札幌市豊平区","011050031001","西岡五条一丁目","43.021640","141.396425","0","3"
"01","北海道","01105","札幌市豊平区","011050031002","西岡五条二丁目","43.020501","141.394244","0","3"
"01","北海道","01105","札幌市豊平区","011050031003","西岡五条三丁目","43.017265","141.393028","0","3"
"01","北海道","01105","札幌市豊平区","011050032000","羊ケ丘","42.993264","141.400331","0","1"
"01","北海道","01105","札幌市豊平区","011050033010","平岸一条十丁目","43.031251","141.364024","0","3"
"01","北海道","01105","札幌市豊平区","011050033011","平岸一条十一丁目","43.029452","141.364080","0","3"
"01","北海道","01105","札幌市豊平区","011050033012","平岸一条十二丁目","43.028043","141.363645","0","3"
"01","北海道","01105","札幌市豊平区","011050033013","平岸一条十三丁目","43.026597","141.362884","0","3"
"01","北海道","01105","札幌市豊平区","011050033014","平岸一条十四丁目","43.025770","141.362601","0","3"
"01","北海道","01105","札幌市豊平区","011050033015","平岸一条十五丁目","43.024841","141.362534","0","3"
"01","北海道","01105","札幌市豊平区","011050033016","平岸一条十六丁目","43.023390","141.362035","0","3"
"01","北海道","01105","札幌市豊平区","011050033017","平岸一条十七丁目","43.021989","141.360970","0","3"
"01","北海道","01105","札幌市豊平区","011050033018","平岸一条十八丁目","43.021242","141.363269","0","3"
"01","北海道","01105","札幌市豊平区","011050033019","平岸一条十九丁目","43.020334","141.361838","0","3"
"01","北海道","01105","札幌市豊平区","011050033001","平岸一条一丁目","43.042028","141.363488","0","3"
"01","北海道","01105","札幌市豊平区","011050033020","平岸一条二十丁目","43.019665","141.359040","0","3"
"01","北海道","01105","札幌市豊平区","011050033021","平岸一条二十一丁目","43.017290","141.357533","0","3"
"01","北海道","01105","札幌市豊平区","011050033022","平岸一条二十二丁目","43.015145","141.357311","0","3"
"01","北海道","01105","札幌市豊平区","011050033023","平岸一条二十三丁目","43.013430","141.354898","0","3"
"01","北海道","01105","札幌市豊平区","011050033002","平岸一条二丁目","43.040858","141.364079","0","3"
"01","北海道","01105","札幌市豊平区","011050033003","平岸一条三丁目","43.039992","141.362201","0","3"
"01","北海道","01105","札幌市豊平区","011050033004","平岸一条四丁目","43.039615","141.365493","0","3"
"01","北海道","01105","札幌市豊平区","011050033005","平岸一条五丁目","43.038449","141.365229","0","3"
"01","北海道","01105","札幌市豊平区","011050033006","平岸一条六丁目","43.036560","141.366064","0","3"
"01","北海道","01105","札幌市豊平区","011050033007","平岸一条七丁目","43.035322","141.364584","0","3"
"01","北海道","01105","札幌市豊平区","011050033008","平岸一条八丁目","43.033730","141.364376","0","3"
"01","北海道","01105","札幌市豊平区","011050033009","平岸一条九丁目","43.031987","141.364093","0","3"
"01","北海道","01105","札幌市豊平区","011050034010","平岸二条十丁目","43.030419","141.367076","0","3"
"01","北海道","01105","札幌市豊平区","011050034011","平岸二条十一丁目","43.029325","141.366847","0","3"
"01","北海道","01105","札幌市豊平区","011050034012","平岸二条十二丁目","43.028278","141.367005","0","3"
"01","北海道","01105","札幌市豊平区","011050034013","平岸二条十三丁目","43.027389","141.366571","0","3"
"01","北海道","01105","札幌市豊平区","011050034014","平岸二条十四丁目","43.025913","141.366345","0","3"
"01","北海道","01105","札幌市豊平区","011050034015","平岸二条十五丁目","43.024239","141.365632","0","3"
"01","北海道","01105","札幌市豊平区","011050034016","平岸二条十六丁目","43.023481","141.366363","0","3"
"01","北海道","01105","札幌市豊平区","011050034017","平岸二条十七丁目","43.021483","141.365832","0","3"
"01","北海道","01105","札幌市豊平区","011050034018","平岸二条十八丁目","43.020074","141.365621","0","3"
"01","北海道","01105","札幌市豊平区","011050034001","平岸二条一丁目","43.042245","141.368230","0","3"
"01","北海道","01105","札幌市豊平区","011050034002","平岸二条二丁目","43.041308","141.368266","0","3"
"01","北海道","01105","札幌市豊平区","011050034003","平岸二条三丁目","43.039858","141.368388","0","3"
"01","北海道","01105","札幌市豊平区","011050034004","平岸二条四丁目","43.038175","141.368293","0","3"
"01","北海道","01105","札幌市豊平区","011050034005","平岸二条五丁目","43.037439","141.368726","0","3"
"01","北海道","01105","札幌市豊平区","011050034006","平岸二条六丁目","43.036376","141.368733","0","3"
"01","北海道","01105","札幌市豊平区","011050034007","平岸二条七丁目","43.035175","141.367795","0","3"
"01","北海道","01105","札幌市豊平区","011050034008","平岸二条八丁目","43.033920","141.367504","0","3"
"01","北海道","01105","札幌市豊平区","011050034009","平岸二条九丁目","43.032040","141.367234","0","3"
"01","北海道","01105","札幌市豊平区","011050035010","平岸三条十丁目","43.030424","141.370374","0","3"
"01","北海道","01105","札幌市豊平区","011050035011","平岸三条十一丁目","43.029428","141.370182","0","3"
"01","北海道","01105","札幌市豊平区","011050035012","平岸三条十二丁目","43.028453","141.369998","0","3"
"01","北海道","01105","札幌市豊平区","011050035013","平岸三条十三丁目","43.027194","141.369719","0","3"
"01","北海道","01105","札幌市豊平区","011050035014","平岸三条十四丁目","43.025989","141.369512","0","3"
"01","北海道","01105","札幌市豊平区","011050035015","平岸三条十五丁目","43.024910","141.369151","0","3"
"01","北海道","01105","札幌市豊平区","011050035016","平岸三条十六丁目","43.023660","141.368403","0","3"
"01","北海道","01105","札幌市豊平区","011050035017","平岸三条十七丁目","43.021979","141.368715","0","3"
"01","北海道","01105","札幌市豊平区","011050035018","平岸三条十八丁目","43.020152","141.368830","0","3"
"01","北海道","01105","札幌市豊平区","011050035001","平岸三条一丁目","43.041969","141.371189","0","3"
"01","北海道","01105","札幌市豊平区","011050035002","平岸三条二丁目","43.041015","141.371309","0","3"
"01","北海道","01105","札幌市豊平区","011050035003","平岸三条三丁目","43.039640","141.371465","0","3"
"01","北海道","01105","札幌市豊平区","011050035004","平岸三条四丁目","43.038513","141.371590","0","3"
"01","北海道","01105","札幌市豊平区","011050035005","平岸三条五丁目","43.037397","141.371583","0","3"
"01","北海道","01105","札幌市豊平区","011050035006","平岸三条六丁目","43.036364","141.371472","0","3"
"01","北海道","01105","札幌市豊平区","011050035007","平岸三条七丁目","43.035189","141.371271","0","3"
"01","北海道","01105","札幌市豊平区","011050035008","平岸三条八丁目","43.033602","141.371338","0","3"
"01","北海道","01105","札幌市豊平区","011050035009","平岸三条九丁目","43.031941","141.370677","0","3"
"01","北海道","01105","札幌市豊平区","011050036010","平岸四条十丁目","43.030513","141.374359","0","3"
"01","北海道","01105","札幌市豊平区","011050036011","平岸四条十一丁目","43.029223","141.374093","0","3"
"01","北海道","01105","札幌市豊平区","011050036012","平岸四条十二丁目","43.028012","141.373916","0","3"
"01","北海道","01105","札幌市豊平区","011050036013","平岸四条十三丁目","43.026684","141.373778","0","3"
"01","北海道","01105","札幌市豊平区","011050036014","平岸四条十四丁目","43.025383","141.373632","0","3"
"01","北海道","01105","札幌市豊平区","011050036015","平岸四条十五丁目","43.024556","141.371703","0","3"
"01","北海道","01105","札幌市豊平区","011050036016","平岸四条十六丁目","43.023625","141.370999","0","3"
"01","北海道","01105","札幌市豊平区","011050036017","平岸四条十七丁目","43.022125","141.371234","0","3"
"01","北海道","01105","札幌市豊平区","011050036018","平岸四条十八丁目","43.019544","141.371362","0","3"
"01","北海道","01105","札幌市豊平区","011050036001","平岸四条一丁目","43.042083","141.373671","0","3"
"01","北海道","01105","札幌市豊平区","011050036002","平岸四条二丁目","43.040831","141.374006","0","3"
"01","北海道","01105","札幌市豊平区","011050036003","平岸四条三丁目","43.039749","141.374293","0","3"
"01","北海道","01105","札幌市豊平区","011050036004","平岸四条四丁目","43.038635","141.374608","0","3"
"01","北海道","01105","札幌市豊平区","011050036005","平岸四条五丁目","43.037467","141.374798","0","3"
"01","北海道","01105","札幌市豊平区","011050036006","平岸四条六丁目","43.036668","141.374751","0","3"
"01","北海道","01105","札幌市豊平区","011050036007","平岸四条七丁目","43.035197","141.374871","0","3"
"01","北海道","01105","札幌市豊平区","011050036008","平岸四条八丁目","43.033582","141.374840","0","3"
"01","北海道","01105","札幌市豊平区","011050036009","平岸四条九丁目","43.031976","141.374669","0","3"
"01","北海道","01105","札幌市豊平区","011050037010","平岸五条十丁目","43.030623","141.378087","0","3"
"01","北海道","01105","札幌市豊平区","011050037011","平岸五条十一丁目","43.029115","141.377248","0","3"
"01","北海道","01105","札幌市豊平区","011050037012","平岸五条十二丁目","43.027688","141.377208","0","3"
"01","北海道","01105","札幌市豊平区","011050037013","平岸五条十三丁目","43.026024","141.377481","0","3"
"01","北海道","01105","札幌市豊平区","011050037014","平岸五条十四丁目","43.024608","141.377386","0","3"
"01","北海道","01105","札幌市豊平区","011050037015","平岸五条十五丁目","43.021298","141.374956","0","3"
"01","北海道","01105","札幌市豊平区","011050037018","平岸五条十八丁目","43.017229","141.374768","0","3"
"01","北海道","01105","札幌市豊平区","011050037019","平岸五条十九丁目","43.015758","141.374348","0","3"
"01","北海道","01105","札幌市豊平区","011050037006","平岸五条六丁目","43.036796","141.377660","0","3"
"01","北海道","01105","札幌市豊平区","011050037007","平岸五条七丁目","43.035257","141.377993","0","3"
"01","北海道","01105","札幌市豊平区","011050037008","平岸五条八丁目","43.033567","141.377956","0","3"
"01","北海道","01105","札幌市豊平区","011050037009","平岸五条九丁目","43.032194","141.377975","0","3"
"01","北海道","01105","札幌市豊平区","011050038010","平岸六条十丁目","43.030965","141.380460","0","3"
"01","北海道","01105","札幌市豊平区","011050038011","平岸六条十一丁目","43.029459","141.379662","0","3"
"01","北海道","01105","札幌市豊平区","011050038012","平岸六条十二丁目","43.027995","141.379871","0","3"
"01","北海道","01105","札幌市豊平区","011050038013","平岸六条十三丁目","43.025728","141.379926","0","3"
"01","北海道","01105","札幌市豊平区","011050038014","平岸六条十四丁目","43.024021","141.379441","0","3"
"01","北海道","01105","札幌市豊平区","011050038015","平岸六条十五丁目","43.023162","141.378637","0","3"
"01","北海道","01105","札幌市豊平区","011050038016","平岸六条十六丁目","43.021950","141.378857","0","3"
"01","北海道","01105","札幌市豊平区","011050038017","平岸六条十七丁目","43.019329","141.378095","0","3"
"01","北海道","01105","札幌市豊平区","011050038009","平岸六条九丁目","43.032464","141.379895","0","3"
"01","北海道","01105","札幌市豊平区","011050039012","平岸七条十二丁目","43.027595","141.382057","0","3"
"01","北海道","01105","札幌市豊平区","011050039013","平岸七条十三丁目","43.026164","141.381788","0","3"
"01","北海道","01105","札幌市豊平区","011050039014","平岸七条十四丁目","43.023481","141.383106","0","3"
"01","北海道","01105","札幌市豊平区","011050039015","平岸七条十五丁目","43.023020","141.380945","0","3"
"01","北海道","01105","札幌市豊平区","011050039016","平岸七条十六丁目","43.020662","141.380291","0","3"
"01","北海道","01105","札幌市豊平区","011050039017","平岸七条十七丁目","43.018691","141.379195","0","3"
"01","北海道","01105","札幌市豊平区","011050039018","平岸七条十八丁目","43.017133","141.378366","0","3"
"01","北海道","01105","札幌市豊平区","011050039019","平岸七条十九丁目","43.015395","141.377343","0","3"
"01","北海道","01105","札幌市豊平区","011050040012","平岸八条十二丁目","43.027449","141.384314","0","3"
"01","北海道","01105","札幌市豊平区","011050040013","平岸八条十三丁目","43.025009","141.384179","0","3"
"01","北海道","01105","札幌市豊平区","011050041001","福住一条一丁目","43.021452","141.401407","0","3"
"01","北海道","01105","札幌市豊平区","011050041002","福住一条二丁目","43.019503","141.399915","0","3"
"01","北海道","01105","札幌市豊平区","011050041003","福住一条三丁目","43.018110","141.397527","0","3"
"01","北海道","01105","札幌市豊平区","011050041004","福住一条四丁目","43.016576","141.395862","0","3"
"01","北海道","01105","札幌市豊平区","011050041005","福住一条五丁目","43.014735","141.394175","0","3"
"01","北海道","01105","札幌市豊平区","011050041006","福住一条六丁目","43.012667","141.393802","0","3"
"01","北海道","01105","札幌市豊平区","011050041007","福住一条七丁目","43.010097","141.391602","0","3"
"01","北海道","01105","札幌市豊平区","011050041008","福住一条八丁目","43.008168","141.390467","0","3"
"01","北海道","01105","札幌市豊平区","011050041009","福住一条九丁目","43.006028","141.388978","0","3"
"01","北海道","01105","札幌市豊平区","011050042010","福住二条十丁目","43.003286","141.389379","0","3"
"01","北海道","01105","札幌市豊平区","011050042011","福住二条十一丁目","43.001495","141.388241","0","3"
"01","北海道","01105","札幌市豊平区","011050042001","福住二条一丁目","43.019842","141.403744","0","3"
"01","北海道","01105","札幌市豊平区","011050042002","福住二条二丁目","43.017765","141.402631","0","3"
"01","北海道","01105","札幌市豊平区","011050042003","福住二条三丁目","43.016508","141.402179","0","3"
"01","北海道","01105","札幌市豊平区","011050042004","福住二条四丁目","43.015556","141.399716","0","3"
"01","北海道","01105","札幌市豊平区","011050042005","福住二条五丁目","43.013563","141.398220","0","3"
"01","北海道","01105","札幌市豊平区","011050042006","福住二条六丁目","43.012187","141.396781","0","3"
"01","北海道","01105","札幌市豊平区","011050042007","福住二条七丁目","43.009894","141.395062","0","3"
"01","北海道","01105","札幌市豊平区","011050042008","福住二条八丁目","43.007430","141.392939","0","3"
"01","北海道","01105","札幌市豊平区","011050042009","福住二条九丁目","43.005196","141.391025","0","3"
"01","北海道","01105","札幌市豊平区","011050043010","福住三条十丁目","43.001886","141.391219","0","3"
"01","北海道","01105","札幌市豊平区","011050043011","福住三条十一丁目","43.000265","141.389478","0","3"
"01","北海道","01105","札幌市豊平区","011050043012","福住三条十二丁目","42.999242","141.388055","0","3"
"01","北海道","01105","札幌市豊平区","011050043001","福住三条一丁目","43.017860","141.406494","0","3"
"01","北海道","01105","札幌市豊平区","011050043002","福住三条二丁目","43.016269","141.405719","0","3"
"01","北海道","01105","札幌市豊平区","011050043003","福住三条三丁目","43.014946","141.404017","0","3"
"01","北海道","01105","札幌市豊平区","011050043004","福住三条四丁目","43.014074","141.402899","0","3"
"01","北海道","01105","札幌市豊平区","011050043005","福住三条五丁目","43.012999","141.401845","0","3"
"01","北海道","01105","札幌市豊平区","011050043006","福住三条六丁目","43.011635","141.400437","0","3"
"01","北海道","01105","札幌市豊平区","011050043007","福住三条七丁目","43.009657","141.398555","0","3"
"01","北海道","01105","札幌市豊平区","011050043008","福住三条八丁目","43.006600","141.395563","0","3"
"01","北海道","01105","札幌市豊平区","011050043009","福住三条九丁目","43.003934","141.393093","0","3"
"01","北海道","01105","札幌市豊平区","011050044004","美園十条四丁目","43.036732","141.380034","0","3"
"01","北海道","01105","札幌市豊平区","011050044005","美園十条五丁目","43.035809","141.381768","0","3"
"01","北海道","01105","札幌市豊平区","011050044006","美園十条六丁目","43.034945","141.383116","0","3"
"01","北海道","01105","札幌市豊平区","011050044007","美園十条七丁目","43.033782","141.383967","0","3"
"01","北海道","01105","札幌市豊平区","011050044008","美園十条八丁目","43.032787","141.386208","0","3"
"01","北海道","01105","札幌市豊平区","011050045004","美園十一条四丁目","43.035577","141.379819","0","3"
"01","北海道","01105","札幌市豊平区","011050045005","美園十一条五丁目","43.035063","141.381019","0","3"
"01","北海道","01105","札幌市豊平区","011050045006","美園十一条六丁目","43.034201","141.381926","0","3"
"01","北海道","01105","札幌市豊平区","011050045007","美園十一条七丁目","43.033064","141.383025","0","3"
"01","北海道","01105","札幌市豊平区","011050045008","美園十一条八丁目","43.031828","141.385408","0","3"
"01","北海道","01105","札幌市豊平区","011050046006","美園十二条六丁目","43.033203","141.380648","0","3"
"01","北海道","01105","札幌市豊平区","011050046007","美園十二条七丁目","43.031076","141.382333","0","3"
"01","北海道","01105","札幌市豊平区","011050046008","美園十二条八丁目","43.029695","141.384001","0","3"
"01","北海道","01105","札幌市豊平区","011050047001","美園一条一丁目","43.046295","141.385090","0","3"
"01","北海道","01105","札幌市豊平区","011050047002","美園一条二丁目","43.045591","141.386310","0","3"
"01","北海道","01105","札幌市豊平区","011050047003","美園一条三丁目","43.044704","141.387334","0","3"
"01","北海道","01105","札幌市豊平区","011050047004","美園一条四丁目","43.044135","141.388805","0","3"
"01","北海道","01105","札幌市豊平区","011050047005","美園一条五丁目","43.043324","141.389952","0","3"
"01","北海道","01105","札幌市豊平区","011050047006","美園一条六丁目","43.042755","141.391564","0","3"
"01","北海道","01105","札幌市豊平区","011050047007","美園一条七丁目","43.041988","141.392895","0","3"
"01","北海道","01105","札幌市豊平区","011050047008","美園一条八丁目","43.041294","141.393880","0","3"
"01","北海道","01105","札幌市豊平区","011050048001","美園二条一丁目","43.045299","141.383664","0","3"
"01","北海道","01105","札幌市豊平区","011050048002","美園二条二丁目","43.044400","141.385147","0","3"
"01","北海道","01105","札幌市豊平区","011050048003","美園二条三丁目","43.043728","141.386324","0","3"
"01","北海道","01105","札幌市豊平区","011050048004","美園二条四丁目","43.042948","141.387539","0","3"
"01","北海道","01105","札幌市豊平区","011050048005","美園二条五丁目","43.042398","141.388722","0","3"
"01","北海道","01105","札幌市豊平区","011050048006","美園二条六丁目","43.041740","141.390407","0","3"
"01","北海道","01105","札幌市豊平区","011050048007","美園二条七丁目","43.041075","141.391854","0","3"
"01","北海道","01105","札幌市豊平区","011050048008","美園二条八丁目","43.040429","141.392930","0","3"
"01","北海道","01105","札幌市豊平区","011050049001","美園三条一丁目","43.044411","141.382593","0","3"
"01","北海道","01105","札幌市豊平区","011050049002","美園三条二丁目","43.043583","141.384014","0","3"
"01","北海道","01105","札幌市豊平区","011050049003","美園三条三丁目","43.042769","141.385222","0","3"
"01","北海道","01105","札幌市豊平区","011050049004","美園三条四丁目","43.042081","141.386614","0","3"
"01","北海道","01105","札幌市豊平区","011050049005","美園三条五丁目","43.041323","141.387663","0","3"
"01","北海道","01105","札幌市豊平区","011050049006","美園三条六丁目","43.040476","141.389010","0","3"
"01","北海道","01105","札幌市豊平区","011050049007","美園三条七丁目","43.040097","141.390748","0","3"
"01","北海道","01105","札幌市豊平区","011050049008","美園三条八丁目","43.039189","141.391560","0","3"
"01","北海道","01105","札幌市豊平区","011050050001","美園四条一丁目","43.043519","141.381564","0","3"
"01","北海道","01105","札幌市豊平区","011050050002","美園四条二丁目","43.042608","141.383062","0","3"
"01","北海道","01105","札幌市豊平区","011050050003","美園四条三丁目","43.041869","141.384270","0","3"
"01","北海道","01105","札幌市豊平区","011050050004","美園四条四丁目","43.041093","141.385540","0","3"
"01","北海道","01105","札幌市豊平区","011050050005","美園四条五丁目","43.040427","141.386650","0","3"
"01","北海道","01105","札幌市豊平区","011050050006","美園四条六丁目","43.039476","141.387969","0","3"
"01","北海道","01105","札幌市豊平区","011050050007","美園四条七丁目","43.038969","141.389670","0","3"
"01","北海道","01105","札幌市豊平区","011050050008","美園四条八丁目","43.038106","141.390666","0","3"
"01","北海道","01105","札幌市豊平区","011050051001","美園五条一丁目","43.042597","141.380748","0","3"
"01","北海道","01105","札幌市豊平区","011050051002","美園五条二丁目","43.041865","141.382024","0","3"
"01","北海道","01105","札幌市豊平区","011050051003","美園五条三丁目","43.041010","141.383469","0","3"
"01","北海道","01105","札幌市豊平区","011050051004","美園五条四丁目","43.040256","141.384705","0","3"
"01","北海道","01105","札幌市豊平区","011050051005","美園五条五丁目","43.039621","141.385759","0","3"
"01","北海道","01105","札幌市豊平区","011050051006","美園五条六丁目","43.038811","141.387082","0","3"
"01","北海道","01105","札幌市豊平区","011050051007","美園五条七丁目","43.037817","141.388726","0","3"
"01","北海道","01105","札幌市豊平区","011050051008","美園五条八丁目","43.037178","141.390003","0","3"
"01","北海道","01105","札幌市豊平区","011050052001","美園六条一丁目","43.041912","141.379955","0","3"
"01","北海道","01105","札幌市豊平区","011050052002","美園六条二丁目","43.041176","141.381234","0","3"
"01","北海道","01105","札幌市豊平区","011050052003","美園六条三丁目","43.040269","141.382770","0","3"
"01","北海道","01105","札幌市豊平区","011050052004","美園六条四丁目","43.039394","141.383823","0","3"
"01","北海道","01105","札幌市豊平区","011050052005","美園六条五丁目","43.038830","141.384901","0","3"
"01","北海道","01105","札幌市豊平区","011050052006","美園六条六丁目","43.038014","141.386295","0","3"
"01","北海道","01105","札幌市豊平区","011050052007","美園六条七丁目","43.037205","141.387463","0","3"
"01","北海道","01105","札幌市豊平区","011050052008","美園六条八丁目","43.036158","141.389902","0","3"
"01","北海道","01105","札幌市豊平区","011050053001","美園七条一丁目","43.041234","141.379158","0","3"
"01","北海道","01105","札幌市豊平区","011050053002","美園七条二丁目","43.040416","141.380119","0","3"
"01","北海道","01105","札幌市豊平区","011050053003","美園七条三丁目","43.039335","141.382215","0","3"
"01","北海道","01105","札幌市豊平区","011050053004","美園七条四丁目","43.038494","141.383157","0","3"
"01","北海道","01105","札幌市豊平区","011050053005","美園七条五丁目","43.037972","141.384041","0","3"
"01","北海道","01105","札幌市豊平区","011050053006","美園七条六丁目","43.037178","141.385381","0","3"
"01","北海道","01105","札幌市豊平区","011050053007","美園七条七丁目","43.036343","141.386985","0","3"
"01","北海道","01105","札幌市豊平区","011050053008","美園七条八丁目","43.035442","141.388843","0","3"
"01","北海道","01105","札幌市豊平区","011050054001","美園八条一丁目","43.040280","141.377667","0","3"
"01","北海道","01105","札幌市豊平区","011050054002","美園八条二丁目","43.039560","141.378951","0","3"
"01","北海道","01105","札幌市豊平区","011050054003","美園八条三丁目","43.038533","141.381245","0","3"
"01","北海道","01105","札幌市豊平区","011050054004","美園八条四丁目","43.037674","141.382465","0","3"
"01","北海道","01105","札幌市豊平区","011050054005","美園八条五丁目","43.037179","141.383216","0","3"
"01","北海道","01105","札幌市豊平区","011050054006","美園八条六丁目","43.036395","141.384538","0","3"
"01","北海道","01105","札幌市豊平区","011050054007","美園八条七丁目","43.035218","141.386434","0","3"
"01","北海道","01105","札幌市豊平区","011050054008","美園八条八丁目","43.034530","141.388127","0","3"
"01","北海道","01105","札幌市豊平区","011050055001","美園九条一丁目","43.039112","141.376679","0","3"
"01","北海道","01105","札幌市豊平区","011050055002","美園九条二丁目","43.037900","141.377488","0","3"
"01","北海道","01105","札幌市豊平区","011050055003","美園九条三丁目","43.038013","141.379982","0","3"
"01","北海道","01105","札幌市豊平区","011050055004","美園九条四丁目","43.037156","141.381253","0","3"
"01","北海道","01105","札幌市豊平区","011050055005","美園九条五丁目","43.036579","141.382278","0","3"
"01","北海道","01105","札幌市豊平区","011050055006","美園九条六丁目","43.035701","141.383782","0","3"
"01","北海道","01105","札幌市豊平区","011050055007","美園九条七丁目","43.034571","141.385126","0","3"
"01","北海道","01105","札幌市豊平区","011050055008","美園九条八丁目","43.033646","141.387149","0","3"
