"PrefCode","PrefName","MuniCode","MuniName","DistCode","DistName","lat","lon","SrcCode","CatCode"
"01","北海道","01205","室蘭市","012050001000","石川町","42.385500","140.936264","0","1"
"01","北海道","01205","室蘭市","012050002000","入江町","42.322255","140.976707","0","1"
"01","北海道","01205","室蘭市","012050003001","絵鞆町一丁目","42.337040","140.939144","0","3"
"01","北海道","01205","室蘭市","012050003002","絵鞆町二丁目","42.335037","140.935337","0","3"
"01","北海道","01205","室蘭市","012050003003","絵鞆町三丁目","42.331601","140.940570","0","3"
"01","北海道","01205","室蘭市","012050003004","絵鞆町四丁目","42.339439","140.938017","0","3"
"01","北海道","01205","室蘭市","012050004001","大沢町一丁目","42.331778","140.999386","0","3"
"01","北海道","01205","室蘭市","012050004002","大沢町二丁目","42.329721","141.005950","0","3"
"01","北海道","01205","室蘭市","012050004003","大沢町三丁目","42.323405","141.010198","0","3"
"01","北海道","01205","室蘭市","012050005001","小橋内町一丁目","42.331984","140.960669","0","3"
"01","北海道","01205","室蘭市","012050005002","小橋内町二丁目","42.327297","140.958114","0","3"
"01","北海道","01205","室蘭市","012050006001","海岸町一丁目","42.324044","140.970720","0","3"
"01","北海道","01205","室蘭市","012050006002","海岸町二丁目","42.321107","140.969189","0","3"
"01","北海道","01205","室蘭市","012050006003","海岸町三丁目","42.324613","140.967775","0","3"
"01","北海道","01205","室蘭市","012050007000","香川町","42.410390","140.992821","0","1"
"01","北海道","01205","室蘭市","012050008000","柏木町","42.373872","140.994811","0","1"
"01","北海道","01205","室蘭市","012050009000","神代町","42.396034","141.000800","0","1"
"01","北海道","01205","室蘭市","012050010001","港南町一丁目","42.334920","140.955415","0","3"
"01","北海道","01205","室蘭市","012050010002","港南町二丁目","42.332206","140.952902","0","3"
"01","北海道","01205","室蘭市","012050011001","港北町一丁目","42.358865","140.984795","0","3"
"01","北海道","01205","室蘭市","012050011002","港北町二丁目","42.364846","140.989737","0","3"
"01","北海道","01205","室蘭市","012050011003","港北町三丁目","42.359695","140.992142","0","3"
"01","北海道","01205","室蘭市","012050011004","港北町四丁目","42.365398","140.997335","0","3"
"01","北海道","01205","室蘭市","012050011005","港北町五丁目","42.373355","141.002098","0","3"
"01","北海道","01205","室蘭市","012050012001","御前水町一丁目","42.323317","141.001052","0","3"
"01","北海道","01205","室蘭市","012050012002","御前水町二丁目","42.318421","141.004236","0","3"
"01","北海道","01205","室蘭市","012050012003","御前水町三丁目","42.317096","140.998186","0","3"
"01","北海道","01205","室蘭市","012050013001","寿町一丁目","42.349031","141.030387","0","3"
"01","北海道","01205","室蘭市","012050013002","寿町二丁目","42.350912","141.033699","0","3"
"01","北海道","01205","室蘭市","012050013003","寿町三丁目","42.345996","141.035095","0","3"
"01","北海道","01205","室蘭市","012050014000","幸町","42.315243","140.969140","0","1"
"01","北海道","01205","室蘭市","012050015001","栄町一丁目","42.312032","140.969847","0","3"
"01","北海道","01205","室蘭市","012050015002","栄町二丁目","42.312298","140.973107","0","3"
"01","北海道","01205","室蘭市","012050016000","崎守町","42.377357","140.922831","0","1"
"01","北海道","01205","室蘭市","012050017000","沢町","42.321992","140.964039","0","1"
"01","北海道","01205","室蘭市","012050018001","清水町一丁目","42.321438","140.955573","0","3"
"01","北海道","01205","室蘭市","012050018002","清水町二丁目","42.316618","140.962368","0","3"
"01","北海道","01205","室蘭市","012050019001","祝津町一丁目","42.341748","140.952431","0","3"
"01","北海道","01205","室蘭市","012050019002","祝津町二丁目","42.337205","140.950429","0","3"
"01","北海道","01205","室蘭市","012050019003","祝津町三丁目","42.335413","140.944616","0","3"
"01","北海道","01205","室蘭市","012050019004","祝津町四丁目","42.343210","140.946032","0","3"
"01","北海道","01205","室蘭市","012050020001","新富町一丁目","42.313095","140.984627","0","3"
"01","北海道","01205","室蘭市","012050020002","新富町二丁目","42.307530","140.984304","0","3"
"01","北海道","01205","室蘭市","012050021001","陣屋町一丁目","42.365485","140.944850","0","3"
"01","北海道","01205","室蘭市","012050021002","陣屋町二丁目","42.372174","140.949759","0","3"
"01","北海道","01205","室蘭市","012050021003","陣屋町三丁目","42.366290","140.954225","0","3"
"01","北海道","01205","室蘭市","012050021004","陣屋町四丁目","42.374142","140.963650","0","3"
"01","北海道","01205","室蘭市","012050021005","陣屋町五丁目","42.376633","140.956762","0","3"
"01","北海道","01205","室蘭市","012050022001","高砂町一丁目","42.359628","141.037873","0","3"
"01","北海道","01205","室蘭市","012050022002","高砂町二丁目","42.362140","141.034748","0","3"
"01","北海道","01205","室蘭市","012050022003","高砂町三丁目","42.365217","141.033585","0","3"
"01","北海道","01205","室蘭市","012050022004","高砂町四丁目","42.370137","141.033938","0","3"
"01","北海道","01205","室蘭市","012050022005","高砂町五丁目","42.373955","141.035656","0","3"
"01","北海道","01205","室蘭市","012050023000","高平町","42.356186","140.996858","0","1"
"01","北海道","01205","室蘭市","012050024000","茶津町","42.323039","140.987681","0","1"
"01","北海道","01205","室蘭市","012050025001","中央町一丁目","42.318882","140.971056","0","3"
"01","北海道","01205","室蘭市","012050025002","中央町二丁目","42.317240","140.971883","0","3"
"01","北海道","01205","室蘭市","012050025003","中央町三丁目","42.316090","140.974169","0","3"
"01","北海道","01205","室蘭市","012050025004","中央町四丁目","42.317581","140.976496","0","3"
"01","北海道","01205","室蘭市","012050026001","知利別町一丁目","42.357901","141.019512","0","3"
"01","北海道","01205","室蘭市","012050026002","知利別町二丁目","42.360477","141.023545","0","3"
"01","北海道","01205","室蘭市","012050026003","知利別町三丁目","42.363319","141.023723","0","3"
"01","北海道","01205","室蘭市","012050026004","知利別町四丁目","42.365454","141.026240","0","3"
"01","北海道","01205","室蘭市","012050027000","築地町","42.333856","140.964441","0","1"
"01","北海道","01205","室蘭市","012050028000","天神町","42.372738","141.025048","0","1"
"01","北海道","01205","室蘭市","012050029000","常盤町","42.316789","140.967321","0","1"
"01","北海道","01205","室蘭市","012050030001","中島町一丁目","42.352446","141.015098","0","3"
"01","北海道","01205","室蘭市","012050030002","中島町二丁目","42.351774","141.018264","0","3"
"01","北海道","01205","室蘭市","012050030003","中島町三丁目","42.350213","141.023655","0","3"
"01","北海道","01205","室蘭市","012050030004","中島町四丁目","42.347603","141.017888","0","3"
"01","北海道","01205","室蘭市","012050031001","中島本町一丁目","42.354804","141.008344","0","3"
"01","北海道","01205","室蘭市","012050031002","中島本町二丁目","42.357261","141.011601","0","3"
"01","北海道","01205","室蘭市","012050031003","中島本町三丁目","42.362927","141.015271","0","3"
"01","北海道","01205","室蘭市","012050032000","仲町","42.340933","141.000724","3","1"
"01","北海道","01205","室蘭市","012050033000","西小路町","42.324830","140.964578","0","1"
"01","北海道","01205","室蘭市","012050034001","白鳥台一丁目","42.372737","140.935524","0","3"
"01","北海道","01205","室蘭市","012050034002","白鳥台二丁目","42.376807","140.935743","0","3"
"01","北海道","01205","室蘭市","012050034003","白鳥台三丁目","42.382086","140.936578","0","3"
"01","北海道","01205","室蘭市","012050034004","白鳥台四丁目","42.381019","140.946356","0","3"
"01","北海道","01205","室蘭市","012050034005","白鳥台五丁目","42.377920","140.942644","0","3"
"01","北海道","01205","室蘭市","012050035001","八丁平一丁目","42.362198","141.002354","0","3"
"01","北海道","01205","室蘭市","012050035002","八丁平二丁目","42.369501","141.008206","0","3"
"01","北海道","01205","室蘭市","012050035003","八丁平三丁目","42.376055","141.013394","0","3"
"01","北海道","01205","室蘭市","012050035004","八丁平四丁目","42.367855","141.011857","0","3"
"01","北海道","01205","室蘭市","012050035005","八丁平五丁目","42.361649","141.007592","0","3"
"01","北海道","01205","室蘭市","012050036001","東町一丁目","42.343852","141.022481","0","3"
"01","北海道","01205","室蘭市","012050036002","東町二丁目","42.346479","141.026604","0","3"
"01","北海道","01205","室蘭市","012050036003","東町三丁目","42.339022","141.029533","0","3"
"01","北海道","01205","室蘭市","012050036004","東町四丁目","42.340272","141.025860","0","3"
"01","北海道","01205","室蘭市","012050036005","東町五丁目","42.338388","141.020665","0","3"
"01","北海道","01205","室蘭市","012050037001","日の出町一丁目","42.352747","141.037052","0","3"
"01","北海道","01205","室蘭市","012050037002","日の出町二丁目","42.355504","141.041252","0","3"
"01","北海道","01205","室蘭市","012050037003","日の出町三丁目","42.350836","141.046025","0","3"
"01","北海道","01205","室蘭市","012050038001","舟見町一丁目","42.309241","140.969550","0","3"
"01","北海道","01205","室蘭市","012050038002","舟見町二丁目","42.308925","140.976623","0","3"
"01","北海道","01205","室蘭市","012050039001","母恋北町一丁目","42.315617","140.992925","0","3"
"01","北海道","01205","室蘭市","012050039002","母恋北町二丁目","42.314428","140.989353","0","3"
"01","北海道","01205","室蘭市","012050039003","母恋北町三丁目","42.309992","140.987705","0","3"
"01","北海道","01205","室蘭市","012050040001","母恋南町一丁目","42.307642","140.990680","0","3"
"01","北海道","01205","室蘭市","012050040002","母恋南町二丁目","42.313062","140.997326","0","3"
"01","北海道","01205","室蘭市","012050040003","母恋南町三丁目","42.312085","141.003995","0","3"
"01","北海道","01205","室蘭市","012050040004","母恋南町四丁目","42.305680","141.003457","0","3"
"01","北海道","01205","室蘭市","012050040005","母恋南町五丁目","42.306209","140.995983","0","3"
"01","北海道","01205","室蘭市","012050041000","幌萌町","42.373899","140.975369","0","1"
"01","北海道","01205","室蘭市","012050042001","本町一丁目","42.313783","140.969698","0","3"
"01","北海道","01205","室蘭市","012050042002","本町二丁目","42.313976","140.973151","0","3"
"01","北海道","01205","室蘭市","012050043000","幕西町","42.319689","140.965529","0","1"
"01","北海道","01205","室蘭市","012050044001","増市町一丁目","42.325798","140.951143","0","3"
"01","北海道","01205","室蘭市","012050044002","増市町二丁目","42.322987","140.945540","0","3"
"01","北海道","01205","室蘭市","012050045001","御崎町一丁目","42.330936","140.989120","0","3"
"01","北海道","01205","室蘭市","012050045002","御崎町二丁目","42.330260","140.995304","0","3"
"01","北海道","01205","室蘭市","012050046000","水元町","42.388353","141.022202","0","1"
"01","北海道","01205","室蘭市","012050047000","緑町","42.327088","140.964056","0","1"
"01","北海道","01205","室蘭市","012050048001","宮の森町一丁目","42.355479","141.023239","0","3"
"01","北海道","01205","室蘭市","012050048002","宮の森町二丁目","42.359501","141.029854","0","3"
"01","北海道","01205","室蘭市","012050048003","宮の森町三丁目","42.355498","141.031111","0","3"
"01","北海道","01205","室蘭市","012050048004","宮の森町四丁目","42.353077","141.026792","0","3"
"01","北海道","01205","室蘭市","012050049001","みゆき町一丁目","42.330692","141.011416","0","3"
"01","北海道","01205","室蘭市","012050049002","みゆき町二丁目","42.332518","141.014749","0","3"
"01","北海道","01205","室蘭市","012050049003","みゆき町三丁目","42.329489","141.017212","0","3"
"01","北海道","01205","室蘭市","012050050001","本輪西町一丁目","42.359348","140.979803","0","3"
"01","北海道","01205","室蘭市","012050050002","本輪西町二丁目","42.363027","140.976179","0","3"
"01","北海道","01205","室蘭市","012050050003","本輪西町三丁目","42.366315","140.981560","0","3"
"01","北海道","01205","室蘭市","012050050004","本輪西町四丁目","42.370503","140.983709","0","3"
"01","北海道","01205","室蘭市","012050050005","本輪西町五丁目","42.378871","140.988208","0","3"
"01","北海道","01205","室蘭市","012050051001","山手町一丁目","42.315289","140.980442","0","3"
"01","北海道","01205","室蘭市","012050051002","山手町二丁目","42.312407","140.978138","0","3"
"01","北海道","01205","室蘭市","012050051003","山手町三丁目","42.314452","140.976233","0","3"
"01","北海道","01205","室蘭市","012050052001","輪西町一丁目","42.333402","141.007703","0","3"
"01","北海道","01205","室蘭市","012050052002","輪西町二丁目","42.335910","141.013625","0","3"
"01","北海道","01205","室蘭市","012050052003","輪西町三丁目","42.338259","141.016591","0","3"
