"PrefCode","PrefName","MuniCode","MuniName","DistCode","DistName","lat","lon","SrcCode","CatCode"
"01","北海道","01207","帯広市","012070001000","愛国町","42.871710","143.217217","0","1"
"01","北海道","01207","帯広市","012070002000","愛国町基線","42.852631","143.202901","0","1"
"01","北海道","01207","帯広市","012070003000","愛国町零号","42.873022","143.215889","0","1"
"01","北海道","01207","帯広市","012070004000","愛国町西一線","42.853408","143.199397","0","1"
"01","北海道","01207","帯広市","012070005000","愛国町東一線","42.851696","143.209667","0","1"
"01","北海道","01207","帯広市","012070006000","愛国町東二線","42.850922","143.214963","0","1"
"01","北海道","01207","帯広市","012070007000","愛国町東三線","42.836259","143.211676","0","1"
"01","北海道","01207","帯広市","012070008000","愛国町南十線","42.882754","143.218393","0","1"
"01","北海道","01207","帯広市","012070009000","愛国町南十一線","42.877623","143.218104","0","1"
"01","北海道","01207","帯広市","012070010000","愛国町南十二線","42.874222","143.221907","0","1"
"01","北海道","01207","帯広市","012070011000","愛国町南八線","42.892500","143.216500","0","1"
"01","北海道","01207","帯広市","012070012000","愛国町南九線","42.887725","143.219483","0","1"
"01","北海道","01207","帯広市","012070013000","泉町西十線","42.727902","143.205666","0","1"
"01","北海道","01207","帯広市","012070014000","泉町西十一線","42.735905","143.202471","0","1"
"01","北海道","01207","帯広市","012070015000","泉町西四線","42.716791","143.241856","0","1"
"01","北海道","01207","帯広市","012070016000","泉町西五線","42.717994","143.235373","0","1"
"01","北海道","01207","帯広市","012070017000","泉町西六線","42.719234","143.228892","0","1"
"01","北海道","01207","帯広市","012070018000","泉町西七線","42.720461","143.222381","0","1"
"01","北海道","01207","帯広市","012070019000","泉町西八線","42.721725","143.215787","0","1"
"01","北海道","01207","帯広市","012070020000","泉町西九線","42.722910","143.209186","0","1"
"01","北海道","01207","帯広市","012070021000","泉町東十二線","42.705171","143.191025","0","1"
"01","北海道","01207","帯広市","012070022000","泉町東十三線","42.712698","143.197542","0","1"
"01","北海道","01207","帯広市","012070023000","泉町東十四線","42.720332","143.200621","0","1"
"01","北海道","01207","帯広市","012070024000","以平町","42.742802","143.209913","0","1"
"01","北海道","01207","帯広市","012070025000","以平町西","42.754669","143.210235","0","1"
"01","北海道","01207","帯広市","012070026000","以平町西十線","42.760178","143.218775","0","1"
"01","北海道","01207","帯広市","012070027000","以平町西十一線","42.764780","143.213440","0","1"
"01","北海道","01207","帯広市","012070028000","以平町西十二線","42.768070","143.207482","0","1"
"01","北海道","01207","帯広市","012070029000","以平町西十三線","42.773926","143.203422","0","1"
"01","北海道","01207","帯広市","012070030000","以平町西三線","42.748920","143.261776","0","1"
"01","北海道","01207","帯広市","012070031000","以平町西四線","42.747730","143.256415","0","1"
"01","北海道","01207","帯広市","012070032000","以平町西五線","42.748652","143.249735","0","1"
"01","北海道","01207","帯広市","012070033000","以平町西六線","42.749931","143.242824","0","1"
"01","北海道","01207","帯広市","012070034000","以平町西七線","42.751235","143.236139","0","1"
"01","北海道","01207","帯広市","012070035000","以平町西八線","42.752408","143.229844","0","1"
"01","北海道","01207","帯広市","012070036000","以平町西九線","42.753577","143.223478","0","1"
"01","北海道","01207","帯広市","012070037000","稲田町基線","42.878959","143.190096","0","1"
"01","北海道","01207","帯広市","012070038000","稲田町西一線","42.872825","143.184676","0","1"
"01","北海道","01207","帯広市","012070039000","稲田町西二線","42.872356","143.177973","0","1"
"01","北海道","01207","帯広市","012070040000","稲田町西三線","42.871060","143.172995","0","1"
"01","北海道","01207","帯広市","012070041000","稲田町東一線","42.874007","143.199597","0","1"
"01","北海道","01207","帯広市","012070042000","稲田町東二線","42.879556","143.206178","0","1"
"01","北海道","01207","帯広市","012070043000","稲田町南八線","42.893192","143.211940","0","1"
"01","北海道","01207","帯広市","012070044000","稲田町南九線","42.887326","143.193115","0","1"
"01","北海道","01207","帯広市","012070045000","岩内町","42.717229","142.865927","0","1"
"01","北海道","01207","帯広市","012070046000","岩内町一線","42.651079","143.011021","0","1"
"01","北海道","01207","帯広市","012070047000","岩内町二線","42.649346","143.004955","0","1"
"01","北海道","01207","帯広市","012070048000","岩内町三線","42.648057","142.998666","0","1"
"01","北海道","01207","帯広市","012070049000","岩内町四線","42.645145","142.993481","0","1"
"01","北海道","01207","帯広市","012070050000","岩内町五線","42.642596","142.987340","0","1"
"01","北海道","01207","帯広市","012070051000","岩内町第一基線","42.671230","143.040886","0","1"
"01","北海道","01207","帯広市","012070052000","岩内町西","42.681515","143.012645","0","1"
"01","北海道","01207","帯広市","012070053000","岩内町西一線","42.674372","143.035570","0","1"
"01","北海道","01207","帯広市","012070054000","岩内町西二線","42.676693","143.029767","0","1"
"01","北海道","01207","帯広市","012070055000","岩内町西三線","42.679910","143.024595","0","1"
"01","北海道","01207","帯広市","012070056000","岩内町西四線","42.700735","143.035056","0","1"
"01","北海道","01207","帯広市","012070057000","岩内町東","42.651465","143.037365","0","1"
"01","北海道","01207","帯広市","012070058000","岩内町東一線","42.683015","143.058168","0","1"
"01","北海道","01207","帯広市","012070059000","岩内町東二線","42.680952","143.064266","0","1"
"01","北海道","01207","帯広市","012070060000","岩内町東三線","42.679020","143.068609","0","1"
"01","北海道","01207","帯広市","012070061000","大川町","42.933385","143.207360","0","1"
"01","北海道","01207","帯広市","012070062010","大空町十丁目","42.881700","143.149587","0","3"
"01","北海道","01207","帯広市","012070062011","大空町十一丁目","42.879584","143.148541","0","3"
"01","北海道","01207","帯広市","012070062012","大空町十二丁目","42.876681","143.149431","0","3"
"01","北海道","01207","帯広市","012070062001","大空町一丁目","42.879281","143.152315","0","3"
"01","北海道","01207","帯広市","012070062002","大空町二丁目","42.878838","143.154966","0","3"
"01","北海道","01207","帯広市","012070062003","大空町三丁目","42.876118","143.154391","0","3"
"01","北海道","01207","帯広市","012070062004","大空町四丁目","42.873542","143.152790","0","3"
"01","北海道","01207","帯広市","012070062005","大空町五丁目","42.873214","143.149805","0","3"
"01","北海道","01207","帯広市","012070062006","大空町六丁目","42.873084","143.146604","0","3"
"01","北海道","01207","帯広市","012070062007","大空町七丁目","42.876442","143.146204","0","3"
"01","北海道","01207","帯広市","012070062008","大空町八丁目","42.879110","143.145734","0","3"
"01","北海道","01207","帯広市","012070062009","大空町九丁目","42.881490","143.145440","0","3"
"01","北海道","01207","帯広市","012070063001","大通北一丁目","42.932526","143.203918","0","3"
"01","北海道","01207","帯広市","012070063002","大通北二丁目","42.934260","143.203672","0","3"
"01","北海道","01207","帯広市","012070064010","大通南十丁目","42.921029","143.205473","0","3"
"01","北海道","01207","帯広市","012070064011","大通南十一丁目","42.919863","143.205629","0","3"
"01","北海道","01207","帯広市","012070064012","大通南十二丁目","42.918705","143.205785","0","3"
"01","北海道","01207","帯広市","012070064013","大通南十三丁目","42.917536","143.205938","0","3"
"01","北海道","01207","帯広市","012070064014","大通南十四丁目","42.916494","143.206072","0","3"
"01","北海道","01207","帯広市","012070064015","大通南十五丁目","42.915224","143.206228","0","3"
"01","北海道","01207","帯広市","012070064016","大通南十六丁目","42.914066","143.206369","0","3"
"01","北海道","01207","帯広市","012070064017","大通南十七丁目","42.912911","143.206522","0","3"
"01","北海道","01207","帯広市","012070064018","大通南十八丁目","42.911759","143.206674","0","3"
"01","北海道","01207","帯広市","012070064019","大通南十九丁目","42.910558","143.206832","0","3"
"01","北海道","01207","帯広市","012070064001","大通南一丁目","42.931527","143.204062","0","3"
"01","北海道","01207","帯広市","012070064020","大通南二十丁目","42.909327","143.207001","0","3"
"01","北海道","01207","帯広市","012070064021","大通南二十一丁目","42.908132","143.207170","0","3"
"01","北海道","01207","帯広市","012070064022","大通南二十二丁目","42.906967","143.207330","0","3"
"01","北海道","01207","帯広市","012070064023","大通南二十三丁目","42.905811","143.207484","0","3"
"01","北海道","01207","帯広市","012070064024","大通南二十四丁目","42.904664","143.207639","0","3"
"01","北海道","01207","帯広市","012070064025","大通南二十五丁目","42.903512","143.207801","0","3"
"01","北海道","01207","帯広市","012070064026","大通南二十六丁目","42.902352","143.207963","0","3"
"01","北海道","01207","帯広市","012070064027","大通南二十七丁目","42.901199","143.208118","0","3"
"01","北海道","01207","帯広市","012070064028","大通南二十八丁目","42.900035","143.208273","0","3"
"01","北海道","01207","帯広市","012070064029","大通南二十九丁目","42.898862","143.208444","0","3"
"01","北海道","01207","帯広市","012070064002","大通南二丁目","42.930283","143.204233","0","3"
"01","北海道","01207","帯広市","012070064030","大通南三十丁目","42.897686","143.208503","0","3"
"01","北海道","01207","帯広市","012070064031","大通南三十一丁目","42.896579","143.208423","0","3"
"01","北海道","01207","帯広市","012070064032","大通南三十二丁目","42.895165","143.208013","0","3"
"01","北海道","01207","帯広市","012070064033","大通南三十三丁目","42.893942","143.208035","0","3"
"01","北海道","01207","帯広市","012070064034","大通南三十四丁目","42.892676","143.207560","0","3"
"01","北海道","01207","帯広市","012070064003","大通南三丁目","42.929128","143.204391","0","3"
"01","北海道","01207","帯広市","012070064004","大通南四丁目","42.927974","143.204541","0","3"
"01","北海道","01207","帯広市","012070064005","大通南五丁目","42.926813","143.204699","0","3"
"01","北海道","01207","帯広市","012070064006","大通南六丁目","42.925664","143.204854","0","3"
"01","北海道","01207","帯広市","012070064007","大通南七丁目","42.924511","143.205009","0","3"
"01","北海道","01207","帯広市","012070064008","大通南八丁目","42.923347","143.205162","0","3"
"01","北海道","01207","帯広市","012070064009","大通南九丁目","42.922188","143.205316","0","3"
"01","北海道","01207","帯広市","012070065000","上帯広町","42.806197","143.078663","0","1"
"01","北海道","01207","帯広市","012070066000","上帯広町基線","42.787082","143.061740","0","1"
"01","北海道","01207","帯広市","012070067000","上帯広町西一線","42.790268","143.056430","0","1"
"01","北海道","01207","帯広市","012070068000","上帯広町西二線","42.791213","143.048596","0","1"
"01","北海道","01207","帯広市","012070069000","上帯広町西三線","42.787934","143.038003","0","1"
"01","北海道","01207","帯広市","012070070000","上帯広町西四線","42.784576","143.025800","0","1"
"01","北海道","01207","帯広市","012070071000","上帯広町東","42.794505","143.076164","0","1"
"01","北海道","01207","帯広市","012070072000","上帯広町東一線","42.775273","143.055464","0","1"
"01","北海道","01207","帯広市","012070073000","上清川町","42.710577","143.046883","0","1"
"01","北海道","01207","帯広市","012070074000","上清川町基線","42.714338","143.075566","0","1"
"01","北海道","01207","帯広市","012070075000","上清川町西一線","42.716875","143.069685","0","1"
"01","北海道","01207","帯広市","012070076000","上清川町西二線","42.718737","143.063454","0","1"
"01","北海道","01207","帯広市","012070077000","上清川町西三線","42.730143","143.064684","0","1"
"01","北海道","01207","帯広市","012070078000","上清川町西四線","42.730006","143.058336","0","1"
"01","北海道","01207","帯広市","012070079000","上清川町東一線","42.722243","143.089745","0","1"
"01","北海道","01207","帯広市","012070080000","上清川町東二線","42.721087","143.094907","0","1"
"01","北海道","01207","帯広市","012070081000","川西町基線","42.849958","143.184300","0","1"
"01","北海道","01207","帯広市","012070082000","川西町西","42.861722","143.158846","0","1"
"01","北海道","01207","帯広市","012070083000","川西町西一線","42.851167","143.177378","0","1"
"01","北海道","01207","帯広市","012070084000","川西町西二線","42.849686","143.168210","0","1"
"01","北海道","01207","帯広市","012070085000","川西町西三線","42.857531","143.166574","0","1"
"01","北海道","01207","帯広市","012070086000","川西町西四線","42.857584","143.159788","0","1"
"01","北海道","01207","帯広市","012070087000","川西町西五線","42.848428","143.148123","0","1"
"01","北海道","01207","帯広市","012070088000","川西町東一線","42.849703","143.190215","0","1"
"01","北海道","01207","帯広市","012070089000","川西町東二線","42.853102","143.196788","0","1"
"01","北海道","01207","帯広市","012070090000","清川町","42.740715","143.078686","0","1"
"01","北海道","01207","帯広市","012070091000","清川町基線","42.752928","143.106222","0","1"
"01","北海道","01207","帯広市","012070092000","清川町仲通","42.746147","143.084611","0","1"
"01","北海道","01207","帯広市","012070093000","清川町西一線","42.755429","143.100246","0","1"
"01","北海道","01207","帯広市","012070094000","清川町西二線","42.762609","143.098290","0","1"
"01","北海道","01207","帯広市","012070095000","清川町西三線","42.764165","143.093635","0","1"
"01","北海道","01207","帯広市","012070096000","清川町西通","42.747218","143.082307","0","1"
"01","北海道","01207","帯広市","012070097000","清川町東一線","42.750222","143.112014","0","1"
"01","北海道","01207","帯広市","012070098000","清川町東二線","42.748189","143.117140","0","1"
"01","北海道","01207","帯広市","012070099000","清川町本通","42.745378","143.083286","0","1"
"01","北海道","01207","帯広市","012070100000","清川町南二条通","42.744811","143.082030","0","1"
"01","北海道","01207","帯広市","012070101000","空港南町","42.873488","143.157938","0","1"
"01","北海道","01207","帯広市","012070102000","空港南町南十線","42.880223","143.162372","0","1"
"01","北海道","01207","帯広市","012070103000","空港南町南十線西","42.877518","143.166479","0","1"
"01","北海道","01207","帯広市","012070104000","空港南町南十一線","42.878927","143.159275","0","1"
"01","北海道","01207","帯広市","012070105000","空港南町南十一線西","42.873840","143.163009","0","1"
"01","北海道","01207","帯広市","012070106000","空港南町南十二線","42.879509","143.141815","0","1"
"01","北海道","01207","帯広市","012070107000","空港南町南十二線西","42.869906","143.161732","0","1"
"01","北海道","01207","帯広市","012070108000","空港南町南十三線","42.876642","143.141644","0","1"
"01","北海道","01207","帯広市","012070109000","空港南町南十三線西","42.867208","143.157247","0","1"
"01","北海道","01207","帯広市","012070110001","公園東町一丁目","42.911033","143.195923","0","3"
"01","北海道","01207","帯広市","012070110002","公園東町二丁目","42.907700","143.195973","0","3"
"01","北海道","01207","帯広市","012070110003","公園東町三丁目","42.908357","143.193363","0","3"
"01","北海道","01207","帯広市","012070110004","公園東町四丁目","42.905606","143.194030","0","3"
"01","北海道","01207","帯広市","012070110005","公園東町五丁目","42.905992","143.190597","0","3"
"01","北海道","01207","帯広市","012070111000","幸福町","42.746948","143.150332","0","1"
"01","北海道","01207","帯広市","012070112000","幸福町基線","42.747083","143.154190","0","1"
"01","北海道","01207","帯広市","012070113000","幸福町東一線","42.745947","143.161152","0","1"
"01","北海道","01207","帯広市","012070114000","幸福町東二線","42.744499","143.168512","0","1"
"01","北海道","01207","帯広市","012070115000","幸福町東三線","42.742693","143.175958","0","1"
"01","北海道","01207","帯広市","012070116000","幸福町東四線","42.741239","143.183254","0","1"
"01","北海道","01207","帯広市","012070117000","幸福町東五線","42.739937","143.190418","0","1"
"01","北海道","01207","帯広市","012070118000","幸福町東六線","42.741421","143.196901","0","1"
"01","北海道","01207","帯広市","012070119000","幸福町東七線","42.747223","143.201469","0","1"
"01","北海道","01207","帯広市","012070120000","桜木町","42.803392","143.203148","0","1"
"01","北海道","01207","帯広市","012070121000","桜木町基線","42.813001","143.207866","0","1"
"01","北海道","01207","帯広市","012070122000","桜木町東","42.776858","143.231799","0","1"
"01","北海道","01207","帯広市","012070123000","桜木町東一線","42.800770","143.207184","0","1"
"01","北海道","01207","帯広市","012070124000","桜木町東二線","42.794911","143.211247","0","1"
"01","北海道","01207","帯広市","012070125000","桜木町東三線","42.793292","143.217700","0","1"
"01","北海道","01207","帯広市","012070126000","桜木町東四線","42.785555","143.220435","0","1"
"01","北海道","01207","帯広市","012070127000","桜木町東五線","42.784184","143.226872","0","1"
"01","北海道","01207","帯広市","012070128000","桜木町東六線","42.788334","143.236593","0","1"
"01","北海道","01207","帯広市","012070129000","桜木町東七線","42.786824","143.241296","0","1"
"01","北海道","01207","帯広市","012070130001","自由が丘一丁目","42.903178","143.165164","0","3"
"01","北海道","01207","帯広市","012070130002","自由が丘二丁目","42.902949","143.161786","0","3"
"01","北海道","01207","帯広市","012070130003","自由が丘三丁目","42.902516","143.158429","0","3"
"01","北海道","01207","帯広市","012070130004","自由が丘四丁目","42.902225","143.155155","0","3"
"01","北海道","01207","帯広市","012070130005","自由が丘五丁目","42.899764","143.155545","0","3"
"01","北海道","01207","帯広市","012070130006","自由が丘六丁目","42.899215","143.152567","0","3"
"01","北海道","01207","帯広市","012070130007","自由が丘七丁目","42.899369","143.150339","0","3"
"01","北海道","01207","帯広市","012070131000","昭和町","42.788977","143.160789","0","1"
"01","北海道","01207","帯広市","012070132000","昭和町基線","42.773927","143.154401","0","1"
"01","北海道","01207","帯広市","012070133000","昭和町西","42.780742","143.137305","0","1"
"01","北海道","01207","帯広市","012070134000","昭和町西一線","42.778384","143.148647","0","1"
"01","北海道","01207","帯広市","012070135000","昭和町西二線","42.781281","143.143146","0","1"
"01","北海道","01207","帯広市","012070136000","昭和町東","42.784797","143.171103","0","1"
"01","北海道","01207","帯広市","012070137000","昭和町東一線","42.770353","143.159336","0","1"
"01","北海道","01207","帯広市","012070138000","昭和町東二線","42.771299","143.167550","0","1"
"01","北海道","01207","帯広市","012070139000","昭和町東三線","42.770004","143.174097","0","1"
"01","北海道","01207","帯広市","012070140000","昭和町東四線","42.768710","143.180575","0","1"
"01","北海道","01207","帯広市","012070141000","昭和町東五線","42.768871","143.187598","0","1"
"01","北海道","01207","帯広市","012070142000","昭和町東六線","42.765539","143.193616","0","1"
"01","北海道","01207","帯広市","012070143000","昭和町東七線","42.764525","143.199820","0","1"
"01","北海道","01207","帯広市","012070144000","昭和町東八線","42.758471","143.202766","0","1"
"01","北海道","01207","帯広市","012070145010","白樺十六条西十丁目","42.916719","143.174547","0","3"
"01","北海道","01207","帯広市","012070145011","白樺十六条西十一丁目","42.916173","143.174622","0","3"
"01","北海道","01207","帯広市","012070145012","白樺十六条西十二丁目","42.916635","143.173259","0","3"
"01","北海道","01207","帯広市","012070145013","白樺十六条西十三丁目","42.916087","143.173327","0","3"
"01","北海道","01207","帯広市","012070145014","白樺十六条西十四丁目","42.916265","143.172324","0","3"
"01","北海道","01207","帯広市","012070145015","白樺十六条西十五丁目","42.915253","143.172515","0","3"
"01","北海道","01207","帯広市","012070145016","白樺十六条西十六丁目","42.915578","143.173394","0","3"
"01","北海道","01207","帯広市","012070145017","白樺十六条西十七丁目","42.915049","143.173459","0","3"
"01","北海道","01207","帯広市","012070145018","白樺十六条西十八丁目","42.915667","143.174689","0","3"
"01","北海道","01207","帯広市","012070145019","白樺十六条西十九丁目","42.915121","143.174755","0","3"
"01","北海道","01207","帯広市","012070145001","白樺十六条西一丁目","42.919321","143.175201","0","3"
"01","北海道","01207","帯広市","012070145020","白樺十六条西二十丁目","42.915438","143.175632","0","3"
"01","北海道","01207","帯広市","012070145002","白樺十六条西二丁目","42.918866","143.173303","0","3"
"01","北海道","01207","帯広市","012070145003","白樺十六条西三丁目","42.918050","143.175362","0","3"
"01","北海道","01207","帯広市","012070145004","白樺十六条西四丁目","42.917689","143.174270","0","3"
"01","北海道","01207","帯広市","012070145005","白樺十六条西五丁目","42.917572","143.172657","0","3"
"01","北海道","01207","帯広市","012070145006","白樺十六条西六丁目","42.917044","143.172560","0","3"
"01","北海道","01207","帯広市","012070145007","白樺十六条西七丁目","42.917136","143.173856","0","3"
"01","北海道","01207","帯広市","012070145008","白樺十六条西八丁目","42.917225","143.175144","0","3"
"01","北海道","01207","帯広市","012070145009","白樺十六条西九丁目","42.916480","143.175499","0","3"
"01","北海道","01207","帯広市","012070146010","白樺十六条東十丁目","42.917746","143.176155","0","3"
"01","北海道","01207","帯広市","012070146011","白樺十六条東十一丁目","42.917322","143.176551","0","3"
"01","北海道","01207","帯広市","012070146012","白樺十六条東十二丁目","42.917424","143.178005","0","3"
"01","北海道","01207","帯広市","012070146013","白樺十六条東十三丁目","42.916689","143.178458","0","3"
"01","北海道","01207","帯広市","012070146014","白樺十六条東十四丁目","42.916857","143.177315","0","3"
"01","北海道","01207","帯広市","012070146015","白樺十六条東十五丁目","42.916362","143.177377","0","3"
"01","北海道","01207","帯広市","012070146016","白樺十六条東十六丁目","42.916534","143.176302","0","3"
"01","北海道","01207","帯広市","012070146017","白樺十六条東十七丁目","42.915491","143.176430","0","3"
"01","北海道","01207","帯広市","012070146018","白樺十六条東十八丁目","42.915873","143.177437","0","3"
"01","北海道","01207","帯広市","012070146019","白樺十六条東十九丁目","42.915298","143.177509","0","3"
"01","北海道","01207","帯広市","012070146001","白樺十六条東一丁目","42.919835","143.177718","0","3"
"01","北海道","01207","帯広市","012070146020","白樺十六条東二十丁目","42.915606","143.178593","0","3"
"01","北海道","01207","帯広市","012070146002","白樺十六条東二丁目","42.919727","143.176250","0","3"
"01","北海道","01207","帯広市","012070146003","白樺十六条東三丁目","42.919174","143.176324","0","3"
"01","北海道","01207","帯広市","012070146004","白樺十六条東四丁目","42.919023","143.177450","0","3"
"01","北海道","01207","帯広市","012070146005","白樺十六条東五丁目","42.919072","143.178148","0","3"
"01","北海道","01207","帯広市","012070146006","白樺十六条東六丁目","42.918173","143.178331","0","3"
"01","北海道","01207","帯広市","012070146007","白樺十六条東七丁目","42.918102","143.177561","0","3"
"01","北海道","01207","帯広市","012070146008","白樺十六条東八丁目","42.918285","143.176856","0","3"
"01","北海道","01207","帯広市","012070146009","白樺十六条東九丁目","42.918471","143.175979","0","3"
"01","北海道","01207","帯広市","012070147001","新町西一丁目","42.924583","143.187437","0","3"
"01","北海道","01207","帯広市","012070147002","新町西二丁目","42.925372","143.185943","0","3"
"01","北海道","01207","帯広市","012070147003","新町西三丁目","42.925961","143.184554","0","3"
"01","北海道","01207","帯広市","012070147004","新町西四丁目","42.923214","143.187090","0","3"
"01","北海道","01207","帯広市","012070147005","新町西五丁目","42.924421","143.186309","0","3"
"01","北海道","01207","帯広市","012070147006","新町西六丁目","42.925516","143.183972","0","3"
"01","北海道","01207","帯広市","012070147007","新町西七丁目","42.924538","143.183568","0","3"
"01","北海道","01207","帯広市","012070147008","新町西八丁目","42.925253","143.183009","0","3"
"01","北海道","01207","帯広市","012070147009","新町西九丁目","42.925004","143.182312","0","3"
"01","北海道","01207","帯広市","012070148010","新町東十丁目","42.921370","143.186627","0","3"
"01","北海道","01207","帯広市","012070148011","新町東十一丁目","42.921342","143.187338","0","3"
"01","北海道","01207","帯広市","012070148012","新町東十二丁目","42.921389","143.188455","0","3"
"01","北海道","01207","帯広市","012070148001","新町東一丁目","42.924137","143.188603","0","3"
"01","北海道","01207","帯広市","012070148002","新町東二丁目","42.923330","143.190101","0","3"
"01","北海道","01207","帯広市","012070148003","新町東三丁目","42.923653","143.188107","0","3"
"01","北海道","01207","帯広市","012070148004","新町東四丁目","42.922748","143.187427","0","3"
"01","北海道","01207","帯広市","012070148005","新町東五丁目","42.922961","143.188235","0","3"
"01","北海道","01207","帯広市","012070148006","新町東六丁目","42.923057","143.189223","0","3"
"01","北海道","01207","帯広市","012070148007","新町東七丁目","42.922486","143.188614","0","3"
"01","北海道","01207","帯広市","012070148008","新町東八丁目","42.922462","143.189490","0","3"
"01","北海道","01207","帯広市","012070148009","新町東九丁目","42.921936","143.187241","0","3"
"01","北海道","01207","帯広市","012070149001","清流西一丁目","42.879806","143.195962","0","3"
"01","北海道","01207","帯広市","012070149002","清流西二丁目","42.874731","143.192348","0","3"
"01","北海道","01207","帯広市","012070149003","清流西三丁目","42.868232","143.189610","0","3"
"01","北海道","01207","帯広市","012070149004","清流西四丁目","42.863855","143.186908","0","3"
"01","北海道","01207","帯広市","012070150001","清流東一丁目","42.879986","143.198676","0","3"
"01","北海道","01207","帯広市","012070150002","清流東二丁目","42.874740","143.196096","0","3"
"01","北海道","01207","帯広市","012070150003","清流東三丁目","42.868195","143.192981","0","3"
"01","北海道","01207","帯広市","012070150004","清流東四丁目","42.863953","143.190402","0","3"
"01","北海道","01207","帯広市","012070151000","大正町基線","42.815314","143.177706","0","1"
"01","北海道","01207","帯広市","012070152000","大正町西","42.811190","143.162173","0","1"
"01","北海道","01207","帯広市","012070153000","大正町西一線","42.816823","143.171263","0","1"
"01","北海道","01207","帯広市","012070154000","大正町東","42.813832","143.203859","0","1"
"01","北海道","01207","帯広市","012070155000","大正町東一線","42.815332","143.185150","0","1"
"01","北海道","01207","帯広市","012070156000","大正町東二線","42.813166","143.190793","0","1"
"01","北海道","01207","帯広市","012070157000","大正町東三線","42.806649","143.193589","0","1"
"01","北海道","01207","帯広市","012070158000","大正町東四線","42.795212","143.193854","0","1"
"01","北海道","01207","帯広市","012070159000","大正町東五線","42.789225","143.196756","0","1"
"01","北海道","01207","帯広市","012070160000","大正町東六線","42.781687","143.198892","0","1"
"01","北海道","01207","帯広市","012070161000","大正町","42.794872","143.154726","0","1"
"01","北海道","01207","帯広市","012070162001","大正本町西一条一丁目","42.795299","143.162884","0","3"
"01","北海道","01207","帯広市","012070162002","大正本町西一条二丁目","42.793832","143.163054","0","3"
"01","北海道","01207","帯広市","012070162003","大正本町西一条三丁目","42.792733","143.162351","0","3"
"01","北海道","01207","帯広市","012070162004","大正本町西一条四丁目","42.791517","143.161633","0","3"
"01","北海道","01207","帯広市","012070163001","大正本町東一条一丁目","42.793537","143.167380","0","3"
"01","北海道","01207","帯広市","012070163002","大正本町東一条二丁目","42.792203","143.167205","0","3"
"01","北海道","01207","帯広市","012070163003","大正本町東一条三丁目","42.791347","143.165676","0","3"
"01","北海道","01207","帯広市","012070163004","大正本町東一条四丁目","42.790086","143.165301","0","3"
"01","北海道","01207","帯広市","012070164001","大正本町本通一丁目","42.794279","143.164995","0","3"
"01","北海道","01207","帯広市","012070164002","大正本町本通二丁目","42.793265","143.164307","0","3"
"01","北海道","01207","帯広市","012070164003","大正本町本通三丁目","42.792274","143.163635","0","3"
"01","北海道","01207","帯広市","012070164004","大正本町本通四丁目","42.791316","143.162980","0","3"
"01","北海道","01207","帯広市","012070164005","大正本町本通五丁目","42.790570","143.162461","0","3"
"01","北海道","01207","帯広市","012070165000","太平町","42.716279","143.015936","0","1"
"01","北海道","01207","帯広市","012070166000","太平町西四線","42.724716","143.050129","0","1"
"01","北海道","01207","帯広市","012070167000","太平町西五線","42.726641","143.046006","0","1"
"01","北海道","01207","帯広市","012070168000","太平町西六線","42.727658","143.038304","0","1"
"01","北海道","01207","帯広市","012070169000","太平町西七線","42.735978","143.037869","0","1"
"01","北海道","01207","帯広市","012070170000","太平町西八線","42.738495","143.032054","0","1"
"01","北海道","01207","帯広市","012070171000","太平町西九線","42.740255","143.026170","0","1"
"01","北海道","01207","帯広市","012070172000","拓成町","42.706357","142.935097","0","1"
"01","北海道","01207","帯広市","012070173000","拓成町第二基線","42.710095","142.936881","0","1"
"01","北海道","01207","帯広市","012070174000","拓成町西","42.705480","143.005589","0","1"
"01","北海道","01207","帯広市","012070175000","拓成町西四線","42.702315","143.029920","0","1"
"01","北海道","01207","帯広市","012070176000","拓成町西五線","42.702932","143.023334","0","1"
"01","北海道","01207","帯広市","012070177000","拓成町西六線","42.704510","143.015886","0","1"
"01","北海道","01207","帯広市","012070178000","拓成町南","42.696814","142.955050","0","1"
"01","北海道","01207","帯広市","012070179000","拓成町南一線","42.700780","142.968606","0","1"
"01","北海道","01207","帯広市","012070180000","拓成町南二線","42.697292","142.969836","0","1"
"01","北海道","01207","帯広市","012070181000","豊西町","42.815617","143.162958","0","1"
"01","北海道","01207","帯広市","012070182000","豊西町基線","42.817475","143.158502","0","1"
"01","北海道","01207","帯広市","012070183000","豊西町西","42.838167","143.137634","0","1"
"01","北海道","01207","帯広市","012070184000","豊西町西一線","42.817256","143.150794","0","1"
"01","北海道","01207","帯広市","012070185000","豊西町西二線","42.822840","143.146889","0","1"
"01","北海道","01207","帯広市","012070186000","豊西町西三線","42.825160","143.140756","0","1"
"01","北海道","01207","帯広市","012070187000","豊西町西四線","42.827207","143.134718","0","1"
"01","北海道","01207","帯広市","012070188000","豊西町西五線","42.826308","143.125248","0","1"
"01","北海道","01207","帯広市","012070189000","豊西町西六線","42.829762","143.122174","0","1"
"01","北海道","01207","帯広市","012070190000","中島町","42.768497","143.135784","0","1"
"01","北海道","01207","帯広市","012070191000","中島町東","42.728884","143.146938","0","1"
"01","北海道","01207","帯広市","012070192000","中島町東三線","42.747587","143.124796","0","1"
"01","北海道","01207","帯広市","012070193000","中島町東四線","42.745441","143.132098","0","1"
"01","北海道","01207","帯広市","012070194000","中島町東五線","42.741151","143.136511","0","1"
"01","北海道","01207","帯広市","012070195000","中島町東六線","42.736365","143.140577","0","1"
"01","北海道","01207","帯広市","012070196000","中島町東七線","42.732982","143.145317","0","1"
"01","北海道","01207","帯広市","012070197010","西十条北十丁目","42.946942","143.186207","0","3"
"01","北海道","01207","帯広市","012070197001","西十条北一丁目","42.931562","143.188160","0","3"
"01","北海道","01207","帯広市","012070197002","西十条北二丁目","42.932940","143.188092","0","3"
"01","北海道","01207","帯広市","012070197003","西十条北三丁目","42.933969","143.188001","0","3"
"01","北海道","01207","帯広市","012070197004","西十条北四丁目","42.935212","143.187821","0","3"
"01","北海道","01207","帯広市","012070197005","西十条北五丁目","42.936534","143.187620","0","3"
"01","北海道","01207","帯広市","012070197006","西十条北六丁目","42.937782","143.187432","0","3"
"01","北海道","01207","帯広市","012070197007","西十条北七丁目","42.939623","143.186998","0","3"
"01","北海道","01207","帯広市","012070197008","西十条北八丁目","42.942170","143.186878","0","3"
"01","北海道","01207","帯広市","012070197009","西十条北九丁目","42.944464","143.186557","0","3"
"01","北海道","01207","帯広市","012070198010","西十条南十丁目","42.919844","143.189445","0","3"
"01","北海道","01207","帯広市","012070198011","西十条南十一丁目","42.918867","143.189617","0","3"
"01","北海道","01207","帯広市","012070198012","西十条南十二丁目","42.917551","143.189835","0","3"
"01","北海道","01207","帯広市","012070198013","西十条南十三丁目","42.916391","143.189994","0","3"
"01","北海道","01207","帯広市","012070198014","西十条南十四丁目","42.915233","143.190154","0","3"
"01","北海道","01207","帯広市","012070198015","西十条南十五丁目","42.914082","143.190312","0","3"
"01","北海道","01207","帯広市","012070198016","西十条南十六丁目","42.912931","143.190469","0","3"
"01","北海道","01207","帯広市","012070198017","西十条南十七丁目","42.911776","143.190625","0","3"
"01","北海道","01207","帯広市","012070198018","西十条南十八丁目","42.910615","143.190782","0","3"
"01","北海道","01207","帯広市","012070198019","西十条南十九丁目","42.909447","143.190939","0","3"
"01","北海道","01207","帯広市","012070198001","西十条南一丁目","42.930325","143.188306","0","3"
"01","北海道","01207","帯広市","012070198020","西十条南二十丁目","42.908587","143.191443","0","3"
"01","北海道","01207","帯広市","012070198024","西十条南二十四丁目","42.903015","143.191329","0","3"
"01","北海道","01207","帯広市","012070198025","西十条南二十五丁目","42.902343","143.191933","0","3"
"01","北海道","01207","帯広市","012070198026","西十条南二十六丁目","42.901201","143.192250","0","3"
"01","北海道","01207","帯広市","012070198027","西十条南二十七丁目","42.900078","143.192273","0","3"
"01","北海道","01207","帯広市","012070198028","西十条南二十八丁目","42.898949","143.192410","0","3"
"01","北海道","01207","帯広市","012070198029","西十条南二十九丁目","42.897784","143.192554","0","3"
"01","北海道","01207","帯広市","012070198002","西十条南二丁目","42.929157","143.188464","0","3"
"01","北海道","01207","帯広市","012070198030","西十条南三十丁目","42.896670","143.192719","0","3"
"01","北海道","01207","帯広市","012070198031","西十条南三十一丁目","42.895502","143.192897","0","3"
"01","北海道","01207","帯広市","012070198032","西十条南三十二丁目","42.894252","143.193044","0","3"
"01","北海道","01207","帯広市","012070198033","西十条南三十三丁目","42.893140","143.193275","0","3"
"01","北海道","01207","帯広市","012070198034","西十条南三十四丁目","42.891884","143.193402","0","3"
"01","北海道","01207","帯広市","012070198039","西十条南三十九丁目","42.885171","143.194096","0","3"
"01","北海道","01207","帯広市","012070198003","西十条南三丁目","42.927957","143.188678","0","3"
"01","北海道","01207","帯広市","012070198040","西十条南四十丁目","42.883506","143.194428","0","3"
"01","北海道","01207","帯広市","012070198041","西十条南四十一丁目","42.881962","143.194586","0","3"
"01","北海道","01207","帯広市","012070198004","西十条南四丁目","42.926803","143.188832","0","3"
"01","北海道","01207","帯広市","012070198005","西十条南五丁目","42.925650","143.188902","0","3"
"01","北海道","01207","帯広市","012070198006","西十条南六丁目","42.924516","143.189227","0","3"
"01","北海道","01207","帯広市","012070198008","西十条南八丁目","42.922208","143.189907","0","3"
"01","北海道","01207","帯広市","012070198009","西十条南九丁目","42.921096","143.189427","0","3"
"01","北海道","01207","帯広市","012070199010","西十一条北十丁目","42.947073","143.184557","0","3"
"01","北海道","01207","帯広市","012070199001","西十一条北一丁目","42.931462","143.186606","0","3"
"01","北海道","01207","帯広市","012070199002","西十一条北二丁目","42.932644","143.186467","0","3"
"01","北海道","01207","帯広市","012070199003","西十一条北三丁目","42.933843","143.186317","0","3"
"01","北海道","01207","帯広市","012070199004","西十一条北四丁目","42.935097","143.186151","0","3"
"01","北海道","01207","帯広市","012070199005","西十一条北五丁目","42.936421","143.185962","0","3"
"01","北海道","01207","帯広市","012070199006","西十一条北六丁目","42.937669","143.185774","0","3"
"01","北海道","01207","帯広市","012070199007","西十一条北七丁目","42.939508","143.185522","0","3"
"01","北海道","01207","帯広市","012070199008","西十一条北八丁目","42.942050","143.185204","0","3"
"01","北海道","01207","帯広市","012070199009","西十一条北九丁目","42.944354","143.184911","0","3"
"01","北海道","01207","帯広市","012070200010","西十一条南十丁目","42.919745","143.187952","0","3"
"01","北海道","01207","帯広市","012070200011","西十一条南十一丁目","42.918593","143.188082","0","3"
"01","北海道","01207","帯広市","012070200012","西十一条南十二丁目","42.917440","143.188241","0","3"
"01","北海道","01207","帯広市","012070200013","西十一条南十三丁目","42.916280","143.188401","0","3"
"01","北海道","01207","帯広市","012070200014","西十一条南十四丁目","42.915118","143.188562","0","3"
"01","北海道","01207","帯広市","012070200015","西十一条南十五丁目","42.913966","143.188722","0","3"
"01","北海道","01207","帯広市","012070200016","西十一条南十六丁目","42.912816","143.188879","0","3"
"01","北海道","01207","帯広市","012070200017","西十一条南十七丁目","42.911658","143.189036","0","3"
"01","北海道","01207","帯広市","012070200018","西十一条南十八丁目","42.910419","143.189083","0","3"
"01","北海道","01207","帯広市","012070200019","西十一条南十九丁目","42.909602","143.189689","0","3"
"01","北海道","01207","帯広市","012070200001","西十一条南一丁目","42.930214","143.186727","0","3"
"01","北海道","01207","帯広市","012070200024","西十一条南二十四丁目","42.903324","143.190141","0","3"
"01","北海道","01207","帯広市","012070200025","西十一条南二十五丁目","42.902294","143.190371","0","3"
"01","北海道","01207","帯広市","012070200026","西十一条南二十六丁目","42.901089","143.190376","0","3"
"01","北海道","01207","帯広市","012070200027","西十一条南二十七丁目","42.899936","143.190483","0","3"
"01","北海道","01207","帯広市","012070200028","西十一条南二十八丁目","42.898823","143.190617","0","3"
"01","北海道","01207","帯広市","012070200029","西十一条南二十九丁目","42.897660","143.190816","0","3"
"01","北海道","01207","帯広市","012070200002","西十一条南二丁目","42.929043","143.186860","0","3"
"01","北海道","01207","帯広市","012070200030","西十一条南三十丁目","42.896546","143.191003","0","3"
"01","北海道","01207","帯広市","012070200031","西十一条南三十一丁目","42.895384","143.191167","0","3"
"01","北海道","01207","帯広市","012070200032","西十一条南三十二丁目","42.894156","143.191332","0","3"
"01","北海道","01207","帯広市","012070200033","西十一条南三十三丁目","42.893040","143.191555","0","3"
"01","北海道","01207","帯広市","012070200034","西十一条南三十四丁目","42.891740","143.191679","0","3"
"01","北海道","01207","帯広市","012070200039","西十一条南三十九丁目","42.884532","143.192390","0","3"
"01","北海道","01207","帯広市","012070200003","西十一条南三丁目","42.927849","143.187069","0","3"
"01","北海道","01207","帯広市","012070200040","西十一条南四十丁目","42.883371","143.192317","0","3"
"01","北海道","01207","帯広市","012070200041","西十一条南四十一丁目","42.881815","143.192483","0","3"
"01","北海道","01207","帯広市","012070200004","西十一条南四丁目","42.926659","143.187242","0","3"
"01","北海道","01207","帯広市","012070200005","西十一条南五丁目","42.925576","143.187338","0","3"
"01","北海道","01207","帯広市","012070200006","西十一条南六丁目","42.924813","143.188247","0","3"
"01","北海道","01207","帯広市","012070200009","西十一条南九丁目","42.920573","143.188251","0","3"
"01","北海道","01207","帯広市","012070201010","西十二条北十丁目","42.947891","143.182362","0","3"
"01","北海道","01207","帯広市","012070201001","西十二条北一丁目","42.931259","143.184737","0","3"
"01","北海道","01207","帯広市","012070201002","西十二条北二丁目","42.932391","143.184377","0","3"
"01","北海道","01207","帯広市","012070201003","西十二条北三丁目","42.933714","143.184439","0","3"
"01","北海道","01207","帯広市","012070201004","西十二条北四丁目","42.934963","143.184285","0","3"
"01","北海道","01207","帯広市","012070201005","西十二条北五丁目","42.936288","143.184115","0","3"
"01","北海道","01207","帯広市","012070201006","西十二条北六丁目","42.937543","143.183944","0","3"
"01","北海道","01207","帯広市","012070201007","西十二条北七丁目","42.939383","143.183700","0","3"
"01","北海道","01207","帯広市","012070201008","西十二条北八丁目","42.941924","143.183370","0","3"
"01","北海道","01207","帯広市","012070201009","西十二条北九丁目","42.944228","143.183081","0","3"
"01","北海道","01207","帯広市","012070202010","西十二条南十丁目","42.919461","143.186359","0","3"
"01","北海道","01207","帯広市","012070202011","西十二条南十一丁目","42.918475","143.186477","0","3"
"01","北海道","01207","帯広市","012070202012","西十二条南十二丁目","42.917324","143.186625","0","3"
"01","北海道","01207","帯広市","012070202013","西十二条南十三丁目","42.916166","143.186777","0","3"
"01","北海道","01207","帯広市","012070202014","西十二条南十四丁目","42.915001","143.186929","0","3"
"01","北海道","01207","帯広市","012070202015","西十二条南十五丁目","42.913851","143.187100","0","3"
"01","北海道","01207","帯広市","012070202016","西十二条南十六丁目","42.912688","143.187228","0","3"
"01","北海道","01207","帯広市","012070202017","西十二条南十七丁目","42.911533","143.187336","0","3"
"01","北海道","01207","帯広市","012070202018","西十二条南十八丁目","42.910537","143.187951","0","3"
"01","北海道","01207","帯広市","012070202001","西十二条南一丁目","42.930090","143.184854","0","3"
"01","北海道","01207","帯広市","012070202024","西十二条南二十四丁目","42.902919","143.189281","0","3"
"01","北海道","01207","帯広市","012070202025","西十二条南二十五丁目","42.902167","143.189115","0","3"
"01","北海道","01207","帯広市","012070202026","西十二条南二十六丁目","42.900988","143.188553","0","3"
"01","北海道","01207","帯広市","012070202027","西十二条南二十七丁目","42.899809","143.188650","0","3"
"01","北海道","01207","帯広市","012070202028","西十二条南二十八丁目","42.898692","143.188790","0","3"
"01","北海道","01207","帯広市","012070202029","西十二条南二十九丁目","42.897529","143.188992","0","3"
"01","北海道","01207","帯広市","012070202002","西十二条南二丁目","42.928923","143.184990","0","3"
"01","北海道","01207","帯広市","012070202030","西十二条南三十丁目","42.896413","143.189176","0","3"
"01","北海道","01207","帯広市","012070202031","西十二条南三十一丁目","42.895244","143.189327","0","3"
"01","北海道","01207","帯広市","012070202032","西十二条南三十二丁目","42.894014","143.189497","0","3"
"01","北海道","01207","帯広市","012070202033","西十二条南三十三丁目","42.892876","143.189630","0","3"
"01","北海道","01207","帯広市","012070202034","西十二条南三十四丁目","42.891653","143.189749","0","3"
"01","北海道","01207","帯広市","012070202039","西十二条南三十九丁目","42.885493","143.189838","0","3"
"01","北海道","01207","帯広市","012070202003","西十二条南三丁目","42.927674","143.185176","0","3"
"01","北海道","01207","帯広市","012070202040","西十二条南四十丁目","42.883336","143.190617","0","3"
"01","北海道","01207","帯広市","012070202041","西十二条南四十一丁目","42.881699","143.190817","0","3"
"01","北海道","01207","帯広市","012070202004","西十二条南四丁目","42.926481","143.185333","0","3"
"01","北海道","01207","帯広市","012070202005","西十二条南五丁目","42.925721","143.186180","0","3"
"01","北海道","01207","帯広市","012070202006","西十二条南六丁目","42.924123","143.185647","0","3"
"01","北海道","01207","帯広市","012070202007","西十二条南七丁目","42.922969","143.185843","0","3"
"01","北海道","01207","帯広市","012070202008","西十二条南八丁目","42.921864","143.186196","0","3"
"01","北海道","01207","帯広市","012070202009","西十二条南九丁目","42.920712","143.186615","0","3"
"01","北海道","01207","帯広市","012070203010","西十三条北十丁目","42.946952","143.180414","0","3"
"01","北海道","01207","帯広市","012070203001","西十三条北一丁目","42.931358","143.182446","0","3"
"01","北海道","01207","帯広市","012070203002","西十三条北二丁目","42.932450","143.182299","0","3"
"01","北海道","01207","帯広市","012070203003","西十三条北三丁目","42.933571","143.182147","0","3"
"01","北海道","01207","帯広市","012070203004","西十三条北四丁目","42.934801","143.181979","0","3"
"01","北海道","01207","帯広市","012070203005","西十三条北五丁目","42.936126","143.181799","0","3"
"01","北海道","01207","帯広市","012070203006","西十三条北六丁目","42.937381","143.181628","0","3"
"01","北海道","01207","帯広市","012070203007","西十三条北七丁目","42.939217","143.181384","0","3"
"01","北海道","01207","帯広市","012070203008","西十三条北八丁目","42.941716","143.180828","0","3"
"01","北海道","01207","帯広市","012070203009","西十三条北九丁目","42.944067","143.180780","0","3"
"01","北海道","01207","帯広市","012070204010","西十三条南十丁目","42.919388","143.184258","0","3"
"01","北海道","01207","帯広市","012070204011","西十三条南十一丁目","42.918277","143.184338","0","3"
"01","北海道","01207","帯広市","012070204012","西十三条南十二丁目","42.917134","143.184440","0","3"
"01","北海道","01207","帯広市","012070204013","西十三条南十三丁目","42.916008","143.184583","0","3"
"01","北海道","01207","帯広市","012070204014","西十三条南十四丁目","42.914840","143.184730","0","3"
"01","北海道","01207","帯広市","012070204015","西十三条南十五丁目","42.913697","143.185007","0","3"
"01","北海道","01207","帯広市","012070204016","西十三条南十六丁目","42.912545","143.185083","0","3"
"01","北海道","01207","帯広市","012070204017","西十三条南十七丁目","42.911381","143.185243","0","3"
"01","北海道","01207","帯広市","012070204001","西十三条南一丁目","42.929941","143.182633","0","3"
"01","北海道","01207","帯広市","012070204027","西十三条南二十七丁目","42.899855","143.186346","0","3"
"01","北海道","01207","帯広市","012070204028","西十三条南二十八丁目","42.898668","143.186865","0","3"
"01","北海道","01207","帯広市","012070204029","西十三条南二十九丁目","42.897347","143.186993","0","3"
"01","北海道","01207","帯広市","012070204002","西十三条南二丁目","42.928711","143.182794","0","3"
"01","北海道","01207","帯広市","012070204030","西十三条南三十丁目","42.896187","143.187054","0","3"
"01","北海道","01207","帯広市","012070204031","西十三条南三十一丁目","42.895043","143.187256","0","3"
"01","北海道","01207","帯広市","012070204032","西十三条南三十二丁目","42.893824","143.187418","0","3"
"01","北海道","01207","帯広市","012070204033","西十三条南三十三丁目","42.892619","143.187579","0","3"
"01","北海道","01207","帯広市","012070204034","西十三条南三十四丁目","42.891415","143.187782","0","3"
"01","北海道","01207","帯広市","012070204035","西十三条南三十五丁目","42.890049","143.187023","0","3"
"01","北海道","01207","帯広市","012070204036","西十三条南三十六丁目","42.888887","143.187279","0","3"
"01","北海道","01207","帯広市","012070204039","西十三条南三十九丁目","42.884888","143.188666","0","3"
"01","北海道","01207","帯広市","012070204003","西十三条南三丁目","42.927523","143.182952","0","3"
"01","北海道","01207","帯広市","012070204040","西十三条南四十丁目","42.883256","143.189089","0","3"
"01","北海道","01207","帯広市","012070204041","西十三条南四十一丁目","42.881622","143.189600","0","3"
"01","北海道","01207","帯広市","012070204004","西十三条南四丁目","42.926231","143.182681","0","3"
"01","北海道","01207","帯広市","012070204006","西十三条南六丁目","42.923951","143.183419","0","3"
"01","北海道","01207","帯広市","012070204007","西十三条南七丁目","42.922800","143.183703","0","3"
"01","北海道","01207","帯広市","012070204008","西十三条南八丁目","42.921705","143.183856","0","3"
"01","北海道","01207","帯広市","012070204009","西十三条南九丁目","42.920607","143.184005","0","3"
"01","北海道","01207","帯広市","012070205010","西十四条北十丁目","42.946184","143.178642","0","3"
"01","北海道","01207","帯広市","012070205001","西十四条北一丁目","42.930959","143.180227","0","3"
"01","北海道","01207","帯広市","012070205002","西十四条北二丁目","42.932228","143.180039","0","3"
"01","北海道","01207","帯広市","012070205003","西十四条北三丁目","42.933415","143.179895","0","3"
"01","北海道","01207","帯広市","012070205004","西十四条北四丁目","42.934647","143.179748","0","3"
"01","北海道","01207","帯広市","012070205005","西十四条北五丁目","42.935973","143.179578","0","3"
"01","北海道","01207","帯広市","012070205006","西十四条北六丁目","42.937223","143.179402","0","3"
"01","北海道","01207","帯広市","012070205007","西十四条北七丁目","42.939053","143.179139","0","3"
"01","北海道","01207","帯広市","012070205008","西十四条北八丁目","42.941592","143.178796","0","3"
"01","北海道","01207","帯広市","012070205009","西十四条北九丁目","42.943913","143.178502","0","3"
"01","北海道","01207","帯広市","012070206010","西十四条南十丁目","42.919216","143.181917","0","3"
"01","北海道","01207","帯広市","012070206011","西十四条南十一丁目","42.918042","143.181991","0","3"
"01","北海道","01207","帯広市","012070206012","西十四条南十二丁目","42.916955","143.182005","0","3"
"01","北海道","01207","帯広市","012070206013","西十四条南十三丁目","42.915807","143.182148","0","3"
"01","北海道","01207","帯広市","012070206014","西十四条南十四丁目","42.914601","143.182524","0","3"
"01","北海道","01207","帯広市","012070206015","西十四条南十五丁目","42.913511","143.182580","0","3"
"01","北海道","01207","帯広市","012070206016","西十四条南十六丁目","42.912377","143.182702","0","3"
"01","北海道","01207","帯広市","012070206017","西十四条南十七丁目","42.911208","143.182838","0","3"
"01","北海道","01207","帯広市","012070206001","西十四条南一丁目","42.929787","143.180387","0","3"
"01","北海道","01207","帯広市","012070206028","西十四条南二十八丁目","42.898113","143.184290","0","3"
"01","北海道","01207","帯広市","012070206029","西十四条南二十九丁目","42.897370","143.184276","0","3"
"01","北海道","01207","帯広市","012070206002","西十四条南二丁目","42.928517","143.180542","0","3"
"01","北海道","01207","帯広市","012070206030","西十四条南三十丁目","42.896024","143.184445","0","3"
"01","北海道","01207","帯広市","012070206031","西十四条南三十一丁目","42.894745","143.184688","0","3"
"01","北海道","01207","帯広市","012070206032","西十四条南三十二丁目","42.893586","143.184809","0","3"
"01","北海道","01207","帯広市","012070206033","西十四条南三十三丁目","42.892515","143.184930","0","3"
"01","北海道","01207","帯広市","012070206034","西十四条南三十四丁目","42.891252","143.185092","0","3"
"01","北海道","01207","帯広市","012070206035","西十四条南三十五丁目","42.889967","143.185724","0","3"
"01","北海道","01207","帯広市","012070206036","西十四条南三十六丁目","42.888696","143.185884","0","3"
"01","北海道","01207","帯広市","012070206037","西十四条南三十七丁目","42.887535","143.185457","0","3"
"01","北海道","01207","帯広市","012070206039","西十四条南三十九丁目","42.884780","143.187035","0","3"
"01","北海道","01207","帯広市","012070206003","西十四条南三丁目","42.927273","143.180699","0","3"
"01","北海道","01207","帯広市","012070206040","西十四条南四十丁目","42.883013","143.187082","0","3"
"01","北海道","01207","帯広市","012070206041","西十四条南四十一丁目","42.881719","143.187303","0","3"
"01","北海道","01207","帯広市","012070206004","西十四条南四丁目","42.926417","143.180990","0","3"
"01","北海道","01207","帯広市","012070206005","西十四条南五丁目","42.925141","143.180901","0","3"
"01","北海道","01207","帯広市","012070206006","西十四条南六丁目","42.924125","143.181559","0","3"
"01","北海道","01207","帯広市","012070206007","西十四条南七丁目","42.922634","143.181508","0","3"
"01","北海道","01207","帯広市","012070206008","西十四条南八丁目","42.921560","143.181652","0","3"
"01","北海道","01207","帯広市","012070206009","西十四条南九丁目","42.920474","143.181801","0","3"
"01","北海道","01207","帯広市","012070207001","西十五条北一丁目","42.930804","143.178005","0","3"
"01","北海道","01207","帯広市","012070207002","西十五条北二丁目","42.932178","143.177599","0","3"
"01","北海道","01207","帯広市","012070207003","西十五条北三丁目","42.933247","143.177672","0","3"
"01","北海道","01207","帯広市","012070207004","西十五条北四丁目","42.934488","143.177529","0","3"
"01","北海道","01207","帯広市","012070207005","西十五条北五丁目","42.935815","143.177364","0","3"
"01","北海道","01207","帯広市","012070207006","西十五条北六丁目","42.937068","143.177190","0","3"
"01","北海道","01207","帯広市","012070207007","西十五条北七丁目","42.938903","143.176920","0","3"
"01","北海道","01207","帯広市","012070207008","西十五条北八丁目","42.941028","143.176624","0","3"
"01","北海道","01207","帯広市","012070207009","西十五条北九丁目","42.943599","143.176248","0","3"
"01","北海道","01207","帯広市","012070208010","西十五条南十丁目","42.919030","143.179697","0","3"
"01","北海道","01207","帯広市","012070208011","西十五条南十一丁目","42.917848","143.179841","0","3"
"01","北海道","01207","帯広市","012070208012","西十五条南十二丁目","42.916737","143.179883","0","3"
"01","北海道","01207","帯広市","012070208013","西十五条南十三丁目","42.915706","143.180013","0","3"
"01","北海道","01207","帯広市","012070208014","西十五条南十四丁目","42.914468","143.180203","0","3"
"01","北海道","01207","帯広市","012070208015","西十五条南十五丁目","42.913384","143.180335","0","3"
"01","北海道","01207","帯広市","012070208016","西十五条南十六丁目","42.912192","143.180473","0","3"
"01","北海道","01207","帯広市","012070208017","西十五条南十七丁目","42.911072","143.180623","0","3"
"01","北海道","01207","帯広市","012070208001","西十五条南一丁目","42.929505","143.178173","0","3"
"01","北海道","01207","帯広市","012070208028","西十五条南二十八丁目","42.897950","143.181990","0","3"
"01","北海道","01207","帯広市","012070208002","西十五条南二丁目","42.928235","143.178329","0","3"
"01","北海道","01207","帯広市","012070208030","西十五条南三十丁目","42.895915","143.182240","0","3"
"01","北海道","01207","帯広市","012070208031","西十五条南三十一丁目","42.894696","143.182469","0","3"
"01","北海道","01207","帯広市","012070208032","西十五条南三十二丁目","42.893507","143.182631","0","3"
"01","北海道","01207","帯広市","012070208035","西十五条南三十五丁目","42.889909","143.183468","0","3"
"01","北海道","01207","帯広市","012070208036","西十五条南三十六丁目","42.888749","143.183634","0","3"
"01","北海道","01207","帯広市","012070208037","西十五条南三十七丁目","42.886798","143.183722","0","3"
"01","北海道","01207","帯広市","012070208038","西十五条南三十八丁目","42.885842","143.183930","0","3"
"01","北海道","01207","帯広市","012070208039","西十五条南三十九丁目","42.884654","143.184662","0","3"
"01","北海道","01207","帯広市","012070208003","西十五条南三丁目","42.927137","143.178480","0","3"
"01","北海道","01207","帯広市","012070208040","西十五条南四十丁目","42.883019","143.184534","0","3"
"01","北海道","01207","帯広市","012070208041","西十五条南四十一丁目","42.881318","143.185171","0","3"
"01","北海道","01207","帯広市","012070208004","西十五条南四丁目","42.926178","143.178619","0","3"
"01","北海道","01207","帯広市","012070208005","西十五条南五丁目","42.924993","143.178598","0","3"
"01","北海道","01207","帯広市","012070208006","西十五条南六丁目","42.923637","143.179060","0","3"
"01","北海道","01207","帯広市","012070208007","西十五条南七丁目","42.922456","143.179218","0","3"
"01","北海道","01207","帯広市","012070208008","西十五条南八丁目","42.921401","143.179365","0","3"
"01","北海道","01207","帯広市","012070208009","西十五条南九丁目","42.920304","143.179544","0","3"
"01","北海道","01207","帯広市","012070209001","西十六条北一丁目","42.932338","143.173255","0","3"
"01","北海道","01207","帯広市","012070209002","西十六条北二丁目","42.937213","143.173727","0","3"
"01","北海道","01207","帯広市","012070209003","西十六条北三丁目","42.942398","143.171887","0","3"
"01","北海道","01207","帯広市","012070210001","西十六条南一丁目","42.927510","143.173899","0","3"
"01","北海道","01207","帯広市","012070210002","西十六条南二丁目","42.922600","143.175124","0","3"
"01","北海道","01207","帯広市","012070210035","西十六条南三十五丁目","42.889151","143.181138","0","3"
"01","北海道","01207","帯広市","012070210036","西十六条南三十六丁目","42.888479","143.181790","0","3"
"01","北海道","01207","帯広市","012070210037","西十六条南三十七丁目","42.886924","143.181517","0","3"
"01","北海道","01207","帯広市","012070210038","西十六条南三十八丁目","42.885687","143.181652","0","3"
"01","北海道","01207","帯広市","012070210039","西十六条南三十九丁目","42.884034","143.181260","0","3"
"01","北海道","01207","帯広市","012070210040","西十六条南四十丁目","42.882932","143.182090","0","3"
"01","北海道","01207","帯広市","012070210041","西十六条南四十一丁目","42.881231","143.182329","0","3"
"01","北海道","01207","帯広市","012070210004","西十六条南四丁目","42.912390","143.175930","0","3"
"01","北海道","01207","帯広市","012070210005","西十六条南五丁目","42.907597","143.176563","0","3"
"01","北海道","01207","帯広市","012070211001","西十七条北一丁目","42.931858","143.167152","0","3"
"01","北海道","01207","帯広市","012070211002","西十七条北二丁目","42.936825","143.165791","0","3"
"01","北海道","01207","帯広市","012070211003","西十七条北三丁目","42.940242","143.165352","0","3"
"01","北海道","01207","帯広市","012070211004","西十七条北四丁目","42.945176","143.163517","0","3"
"01","北海道","01207","帯広市","012070212001","西十七条南一丁目","42.927559","143.167040","0","3"
"01","北海道","01207","帯広市","012070212035","西十七条南三十五丁目","42.889426","143.178634","0","3"
"01","北海道","01207","帯広市","012070212036","西十七条南三十六丁目","42.887616","143.178658","0","3"
"01","北海道","01207","帯広市","012070212037","西十七条南三十七丁目","42.886945","143.179505","0","3"
"01","北海道","01207","帯広市","012070212038","西十七条南三十八丁目","42.885602","143.179748","0","3"
"01","北海道","01207","帯広市","012070212039","西十七条南三十九丁目","42.884329","143.179209","0","3"
"01","北海道","01207","帯広市","012070212003","西十七条南三丁目","42.916960","143.168458","0","3"
"01","北海道","01207","帯広市","012070212040","西十七条南四十丁目","42.882732","143.180094","0","3"
"01","北海道","01207","帯広市","012070212041","西十七条南四十一丁目","42.881035","143.179739","0","3"
"01","北海道","01207","帯広市","012070212004","西十七条南四丁目","42.911970","143.169146","0","3"
"01","北海道","01207","帯広市","012070212005","西十七条南五丁目","42.907494","143.169408","0","3"
"01","北海道","01207","帯広市","012070212006","西十七条南六丁目","42.902093","143.169756","0","3"
"01","北海道","01207","帯広市","012070213001","西十八条北一丁目","42.931354","143.159611","0","3"
"01","北海道","01207","帯広市","012070213002","西十八条北二丁目","42.936332","143.158935","0","3"
"01","北海道","01207","帯広市","012070213003","西十八条北三丁目","42.939715","143.158489","0","3"
"01","北海道","01207","帯広市","012070213004","西十八条北四丁目","42.945134","143.158290","0","3"
"01","北海道","01207","帯広市","012070214001","西十八条南一丁目","42.926345","143.160355","0","3"
"01","北海道","01207","帯広市","012070214002","西十八条南二丁目","42.921434","143.160995","0","3"
"01","北海道","01207","帯広市","012070214035","西十八条南三十五丁目","42.889599","143.176309","0","3"
"01","北海道","01207","帯広市","012070214036","西十八条南三十六丁目","42.887959","143.176629","0","3"
"01","北海道","01207","帯広市","012070214037","西十八条南三十七丁目","42.886200","143.176701","0","3"
"01","北海道","01207","帯広市","012070214038","西十八条南三十八丁目","42.885669","143.177827","0","3"
"01","北海道","01207","帯広市","012070214039","西十八条南三十九丁目","42.883296","143.177352","0","3"
"01","北海道","01207","帯広市","012070214003","西十八条南三丁目","42.916490","143.161681","0","3"
"01","北海道","01207","帯広市","012070214040","西十八条南四十丁目","42.881818","143.177637","0","3"
"01","北海道","01207","帯広市","012070214041","西十八条南四十一丁目","42.880253","143.177412","0","3"
"01","北海道","01207","帯広市","012070214004","西十八条南四丁目","42.911483","143.162381","0","3"
"01","北海道","01207","帯広市","012070214005","西十八条南五丁目","42.906025","143.163105","0","3"
"01","北海道","01207","帯広市","012070214006","西十八条南六丁目","42.900855","143.163773","0","3"
"01","北海道","01207","帯広市","012070215001","西十九条北一丁目","42.930865","143.152798","0","3"
"01","北海道","01207","帯広市","012070215002","西十九条北二丁目","42.935846","143.152134","0","3"
"01","北海道","01207","帯広市","012070215003","西十九条北三丁目","42.944398","143.151074","0","3"
"01","北海道","01207","帯広市","012070216001","西十九条南一丁目","42.925748","143.153647","0","3"
"01","北海道","01207","帯広市","012070216002","西十九条南二丁目","42.921234","143.154202","0","3"
"01","北海道","01207","帯広市","012070216035","西十九条南三十五丁目","42.889152","143.174802","0","3"
"01","北海道","01207","帯広市","012070216036","西十九条南三十六丁目","42.887909","143.174595","0","3"
"01","北海道","01207","帯広市","012070216037","西十九条南三十七丁目","42.886706","143.174751","0","3"
"01","北海道","01207","帯広市","012070216038","西十九条南三十八丁目","42.885379","143.174849","0","3"
"01","北海道","01207","帯広市","012070216003","西十九条南三丁目","42.915980","143.154938","0","3"
"01","北海道","01207","帯広市","012070216041","西十九条南四十一丁目","42.880483","143.175860","0","3"
"01","北海道","01207","帯広市","012070216042","西十九条南四十二丁目","42.878704","143.173858","0","3"
"01","北海道","01207","帯広市","012070216004","西十九条南四丁目","42.911011","143.155582","0","3"
"01","北海道","01207","帯広市","012070216005","西十九条南五丁目","42.905389","143.155785","0","3"
"01","北海道","01207","帯広市","012070216006","西十九条南六丁目","42.900230","143.158948","0","3"
"01","北海道","01207","帯広市","012070217001","西一条北一丁目","42.932530","143.202314","0","3"
"01","北海道","01207","帯広市","012070217002","西一条北二丁目","42.934411","143.202068","0","3"
"01","北海道","01207","帯広市","012070218010","西一条南十丁目","42.920914","143.203855","0","3"
"01","北海道","01207","帯広市","012070218011","西一条南十一丁目","42.919751","143.204013","0","3"
"01","北海道","01207","帯広市","012070218012","西一条南十二丁目","42.918528","143.204147","0","3"
"01","北海道","01207","帯広市","012070218013","西一条南十三丁目","42.917371","143.204309","0","3"
"01","北海道","01207","帯広市","012070218014","西一条南十四丁目","42.916259","143.204474","0","3"
"01","北海道","01207","帯広市","012070218015","西一条南十五丁目","42.915110","143.204613","0","3"
"01","北海道","01207","帯広市","012070218016","西一条南十六丁目","42.913955","143.204753","0","3"
"01","北海道","01207","帯広市","012070218017","西一条南十七丁目","42.912797","143.204902","0","3"
"01","北海道","01207","帯広市","012070218018","西一条南十八丁目","42.911638","143.205055","0","3"
"01","北海道","01207","帯広市","012070218019","西一条南十九丁目","42.910441","143.205217","0","3"
"01","北海道","01207","帯広市","012070218001","西一条南一丁目","42.931358","143.202460","0","3"
"01","北海道","01207","帯広市","012070218020","西一条南二十丁目","42.909209","143.205389","0","3"
"01","北海道","01207","帯広市","012070218021","西一条南二十一丁目","42.908012","143.205561","0","3"
"01","北海道","01207","帯広市","012070218022","西一条南二十二丁目","42.906853","143.205718","0","3"
"01","北海道","01207","帯広市","012070218023","西一条南二十三丁目","42.905697","143.205871","0","3"
"01","北海道","01207","帯広市","012070218024","西一条南二十四丁目","42.904550","143.206026","0","3"
"01","北海道","01207","帯広市","012070218025","西一条南二十五丁目","42.903398","143.206180","0","3"
"01","北海道","01207","帯広市","012070218026","西一条南二十六丁目","42.902233","143.206344","0","3"
"01","北海道","01207","帯広市","012070218027","西一条南二十七丁目","42.901028","143.206510","0","3"
"01","北海道","01207","帯広市","012070218028","西一条南二十八丁目","42.899936","143.206649","0","3"
"01","北海道","01207","帯広市","012070218029","西一条南二十九丁目","42.898766","143.206796","0","3"
"01","北海道","01207","帯広市","012070218002","西一条南二丁目","42.930169","143.202629","0","3"
"01","北海道","01207","帯広市","012070218030","西一条南三十丁目","42.897530","143.206711","0","3"
"01","北海道","01207","帯広市","012070218031","西一条南三十一丁目","42.896568","143.206408","0","3"
"01","北海道","01207","帯広市","012070218032","西一条南三十二丁目","42.895512","143.206613","0","3"
"01","北海道","01207","帯広市","012070218033","西一条南三十三丁目","42.894221","143.206870","0","3"
"01","北海道","01207","帯広市","012070218035","西一条南三十五丁目","42.891291","143.207742","0","3"
"01","北海道","01207","帯広市","012070218036","西一条南三十六丁目","42.889432","143.207649","0","3"
"01","北海道","01207","帯広市","012070218003","西一条南三丁目","42.929007","143.202783","0","3"
"01","北海道","01207","帯広市","012070218004","西一条南四丁目","42.927859","143.202927","0","3"
"01","北海道","01207","帯広市","012070218005","西一条南五丁目","42.926704","143.203082","0","3"
"01","北海道","01207","帯広市","012070218006","西一条南六丁目","42.925552","143.203236","0","3"
"01","北海道","01207","帯広市","012070218007","西一条南七丁目","42.924394","143.203393","0","3"
"01","北海道","01207","帯広市","012070218008","西一条南八丁目","42.923232","143.203543","0","3"
"01","北海道","01207","帯広市","012070218009","西一条南九丁目","42.922076","143.203694","0","3"
"01","北海道","01207","帯広市","012070219001","西二十条北一丁目","42.930397","143.146076","0","3"
"01","北海道","01207","帯広市","012070219002","西二十条北二丁目","42.936109","143.145320","0","3"
"01","北海道","01207","帯広市","012070219003","西二十条北三丁目","42.941789","143.144648","0","3"
"01","北海道","01207","帯広市","012070219004","西二十条北四丁目","42.946605","143.144031","0","3"
"01","北海道","01207","帯広市","012070219005","西二十条北五丁目","42.949620","143.143538","0","3"
"01","北海道","01207","帯広市","012070220001","西二十条南一丁目","42.925390","143.146818","0","3"
"01","北海道","01207","帯広市","012070220002","西二十条南二丁目","42.920425","143.147454","0","3"
"01","北海道","01207","帯広市","012070220003","西二十条南三丁目","42.915498","143.148173","0","3"
"01","北海道","01207","帯広市","012070220004","西二十条南四丁目","42.910546","143.148809","0","3"
"01","北海道","01207","帯広市","012070220005","西二十条南五丁目","42.905549","143.149473","0","3"
"01","北海道","01207","帯広市","012070220006","西二十条南六丁目","42.900606","143.148448","0","3"
"01","北海道","01207","帯広市","012070221001","西二十一条北一丁目","42.929907","143.139140","0","3"
"01","北海道","01207","帯広市","012070221002","西二十一条北二丁目","42.934870","143.138677","0","3"
"01","北海道","01207","帯広市","012070221003","西二十一条北三丁目","42.941096","143.137896","0","3"
"01","北海道","01207","帯広市","012070221004","西二十一条北四丁目","42.946100","143.137243","0","3"
"01","北海道","01207","帯広市","012070221005","西二十一条北五丁目","42.949482","143.136750","0","3"
"01","北海道","01207","帯広市","012070222001","西二十一条南一丁目","42.924929","143.139976","0","3"
"01","北海道","01207","帯広市","012070222002","西二十一条南二丁目","42.919927","143.140684","0","3"
"01","北海道","01207","帯広市","012070222003","西二十一条南三丁目","42.915012","143.141435","0","3"
"01","北海道","01207","帯広市","012070222004","西二十一条南四丁目","42.909383","143.142175","0","3"
"01","北海道","01207","帯広市","012070222005","西二十一条南五丁目","42.905084","143.142753","0","3"
"01","北海道","01207","帯広市","012070222006","西二十一条南六丁目","42.899566","143.144083","0","3"
"01","北海道","01207","帯広市","012070223001","西二十二条北一丁目","42.929423","143.132410","0","3"
"01","北海道","01207","帯広市","012070223002","西二十二条北二丁目","42.934065","143.132579","0","3"
"01","北海道","01207","帯広市","012070223003","西二十二条北三丁目","42.940775","143.131073","0","3"
"01","北海道","01207","帯広市","012070223004","西二十二条北四丁目","42.945600","143.130433","0","3"
"01","北海道","01207","帯広市","012070223005","西二十二条北五丁目","42.949714","143.130295","0","3"
"01","北海道","01207","帯広市","012070224001","西二十二条南一丁目","42.924464","143.133245","0","3"
"01","北海道","01207","帯広市","012070224002","西二十二条南二丁目","42.919486","143.133920","0","3"
"01","北海道","01207","帯広市","012070224003","西二十二条南三丁目","42.914499","143.134665","0","3"
"01","北海道","01207","帯広市","012070224004","西二十二条南四丁目","42.909542","143.135318","0","3"
"01","北海道","01207","帯広市","012070224005","西二十二条南五丁目","42.904507","143.135956","0","3"
"01","北海道","01207","帯広市","012070224006","西二十二条南六丁目","42.899502","143.136614","0","3"
"01","北海道","01207","帯広市","012070225001","西二十三条北一丁目","42.928947","143.125835","0","3"
"01","北海道","01207","帯広市","012070225002","西二十三条北二丁目","42.934168","143.125132","0","3"
"01","北海道","01207","帯広市","012070225003","西二十三条北三丁目","42.940316","143.124317","0","3"
"01","北海道","01207","帯広市","012070225004","西二十三条北四丁目","42.945082","143.123717","0","3"
"01","北海道","01207","帯広市","012070225005","西二十三条北五丁目","42.946878","143.125499","0","3"
"01","北海道","01207","帯広市","012070226001","西二十三条南一丁目","42.923981","143.126527","0","3"
"01","北海道","01207","帯広市","012070226002","西二十三条南二丁目","42.919002","143.127181","0","3"
"01","北海道","01207","帯広市","012070226003","西二十三条南三丁目","42.914051","143.127844","0","3"
"01","北海道","01207","帯広市","012070226004","西二十三条南四丁目","42.909039","143.128505","0","3"
"01","北海道","01207","帯広市","012070226005","西二十三条南五丁目","42.904636","143.129757","0","3"
"01","北海道","01207","帯広市","012070226006","西二十三条南六丁目","42.899004","143.129846","0","3"
"01","北海道","01207","帯広市","012070227001","西二十四条北一丁目","42.928448","143.119113","0","3"
"01","北海道","01207","帯広市","012070227002","西二十四条北二丁目","42.933441","143.118471","0","3"
"01","北海道","01207","帯広市","012070227003","西二十四条北三丁目","42.938557","143.118619","0","3"
"01","北海道","01207","帯広市","012070227004","西二十四条北四丁目","42.943221","143.117642","0","3"
"01","北海道","01207","帯広市","012070228001","西二十四条南一丁目","42.923517","143.119754","0","3"
"01","北海道","01207","帯広市","012070228002","西二十四条南二丁目","42.918517","143.120380","0","3"
"01","北海道","01207","帯広市","012070228003","西二十四条南三丁目","42.913545","143.121036","0","3"
"01","北海道","01207","帯広市","012070228004","西二十四条南四丁目","42.908595","143.121709","0","3"
"01","北海道","01207","帯広市","012070228005","西二十四条南五丁目","42.903631","143.122389","0","3"
"01","北海道","01207","帯広市","012070228006","西二十四条南六丁目","42.898557","143.123064","0","3"
"01","北海道","01207","帯広市","012070229001","西二十五条北一丁目","42.927784","143.112499","0","3"
"01","北海道","01207","帯広市","012070229002","西二十五条北二丁目","42.932496","143.113626","0","3"
"01","北海道","01207","帯広市","012070229003","西二十五条北三丁目","42.936407","143.112633","0","3"
"01","北海道","01207","帯広市","012070230001","西二十五条南一丁目","42.923032","143.113049","0","3"
"01","北海道","01207","帯広市","012070230002","西二十五条南二丁目","42.918036","143.113527","0","3"
"01","北海道","01207","帯広市","012070230003","西二十五条南三丁目","42.913045","143.114210","0","3"
"01","北海道","01207","帯広市","012070230004","西二十五条南四丁目","42.908081","143.114900","0","3"
"01","北海道","01207","帯広市","012070230005","西二十五条南五丁目","42.903153","143.115586","0","3"
"01","北海道","01207","帯広市","012070230006","西二十五条南六丁目","42.898108","143.116267","0","3"
"01","北海道","01207","帯広市","012070231001","西二条北一丁目","42.932439","143.200750","0","3"
"01","北海道","01207","帯広市","012070231002","西二条北二丁目","42.933627","143.200633","0","3"
"01","北海道","01207","帯広市","012070231003","西二条北三丁目","42.935277","143.200408","0","3"
"01","北海道","01207","帯広市","012070232010","西二条南十丁目","42.920813","143.202285","0","3"
"01","北海道","01207","帯広市","012070232011","西二条南十一丁目","42.919654","143.202442","0","3"
"01","北海道","01207","帯広市","012070232012","西二条南十二丁目","42.918559","143.202533","0","3"
"01","北海道","01207","帯広市","012070232013","西二条南十三丁目","42.917241","143.202431","0","3"
"01","北海道","01207","帯広市","012070232014","西二条南十四丁目","42.916306","143.202733","0","3"
"01","北海道","01207","帯広市","012070232015","西二条南十五丁目","42.915218","143.202816","0","3"
"01","北海道","01207","帯広市","012070232016","西二条南十六丁目","42.913841","143.203188","0","3"
"01","北海道","01207","帯広市","012070232017","西二条南十七丁目","42.912683","143.203339","0","3"
"01","北海道","01207","帯広市","012070232018","西二条南十八丁目","42.911521","143.203494","0","3"
"01","北海道","01207","帯広市","012070232019","西二条南十九丁目","42.910327","143.203657","0","3"
"01","北海道","01207","帯広市","012070232001","西二条南一丁目","42.931244","143.200899","0","3"
"01","北海道","01207","帯広市","012070232020","西二条南二十丁目","42.909098","143.203824","0","3"
"01","北海道","01207","帯広市","012070232021","西二条南二十一丁目","42.907899","143.203984","0","3"
"01","北海道","01207","帯広市","012070232022","西二条南二十二丁目","42.906741","143.204141","0","3"
"01","北海道","01207","帯広市","012070232023","西二条南二十三丁目","42.905586","143.204298","0","3"
"01","北海道","01207","帯広市","012070232024","西二条南二十四丁目","42.904440","143.204456","0","3"
"01","北海道","01207","帯広市","012070232025","西二条南二十五丁目","42.903291","143.204609","0","3"
"01","北海道","01207","帯広市","012070232026","西二条南二十六丁目","42.902129","143.204763","0","3"
"01","北海道","01207","帯広市","012070232027","西二条南二十七丁目","42.900921","143.204922","0","3"
"01","北海道","01207","帯広市","012070232028","西二条南二十八丁目","42.899774","143.205069","0","3"
"01","北海道","01207","帯広市","012070232029","西二条南二十九丁目","42.898658","143.205221","0","3"
"01","北海道","01207","帯広市","012070232002","西二条南二丁目","42.930066","143.201067","0","3"
"01","北海道","01207","帯広市","012070232030","西二条南三十丁目","42.897549","143.205366","0","3"
"01","北海道","01207","帯広市","012070232031","西二条南三十一丁目","42.896612","143.205464","0","3"
"01","北海道","01207","帯広市","012070232032","西二条南三十二丁目","42.895504","143.205433","0","3"
"01","北海道","01207","帯広市","012070232033","西二条南三十三丁目","42.894063","143.205763","0","3"
"01","北海道","01207","帯広市","012070232034","西二条南三十四丁目","42.892794","143.205741","0","3"
"01","北海道","01207","帯広市","012070232035","西二条南三十五丁目","42.891369","143.206465","0","3"
"01","北海道","01207","帯広市","012070232036","西二条南三十六丁目","42.890015","143.206200","0","3"
"01","北海道","01207","帯広市","012070232037","西二条南三十七丁目","42.888891","143.206356","0","3"
"01","北海道","01207","帯広市","012070232038","西二条南三十八丁目","42.887908","143.206648","0","3"
"01","北海道","01207","帯広市","012070232003","西二条南三丁目","42.928900","143.201210","0","3"
"01","北海道","01207","帯広市","012070232004","西二条南四丁目","42.927744","143.201353","0","3"
"01","北海道","01207","帯広市","012070232005","西二条南五丁目","42.926593","143.201508","0","3"
"01","北海道","01207","帯広市","012070232006","西二条南六丁目","42.925437","143.201663","0","3"
"01","北海道","01207","帯広市","012070232007","西二条南七丁目","42.924276","143.201820","0","3"
"01","北海道","01207","帯広市","012070232008","西二条南八丁目","42.923115","143.201976","0","3"
"01","北海道","01207","帯広市","012070232009","西二条南九丁目","42.921961","143.202131","0","3"
"01","北海道","01207","帯広市","012070233001","西三条北一丁目","42.932319","143.199122","0","3"
"01","北海道","01207","帯広市","012070233002","西三条北二丁目","42.933497","143.198991","0","3"
"01","北海道","01207","帯広市","012070233003","西三条北三丁目","42.934662","143.198837","0","3"
"01","北海道","01207","帯広市","012070233004","西三条北四丁目","42.937581","143.198166","0","3"
"01","北海道","01207","帯広市","012070234010","西三条南十丁目","42.920708","143.200671","0","3"
"01","北海道","01207","帯広市","012070234011","西三条南十一丁目","42.919433","143.200873","0","3"
"01","北海道","01207","帯広市","012070234012","西三条南十二丁目","42.918345","143.201053","0","3"
"01","北海道","01207","帯広市","012070234013","西三条南十三丁目","42.916948","143.200856","0","3"
"01","北海道","01207","帯広市","012070234014","西三条南十四丁目","42.915868","143.201374","0","3"
"01","北海道","01207","帯広市","012070234015","西三条南十五丁目","42.914797","143.201686","0","3"
"01","北海道","01207","帯広市","012070234016","西三条南十六丁目","42.913829","143.201750","0","3"
"01","北海道","01207","帯広市","012070234017","西三条南十七丁目","42.912567","143.201768","0","3"
"01","北海道","01207","帯広市","012070234018","西三条南十八丁目","42.911405","143.201923","0","3"
"01","北海道","01207","帯広市","012070234019","西三条南十九丁目","42.910214","143.202084","0","3"
"01","北海道","01207","帯広市","012070234001","西三条南一丁目","42.931122","143.199290","0","3"
"01","北海道","01207","帯広市","012070234020","西三条南二十丁目","42.908985","143.202244","0","3"
"01","北海道","01207","帯広市","012070234021","西三条南二十一丁目","42.907787","143.202402","0","3"
"01","北海道","01207","帯広市","012070234022","西三条南二十二丁目","42.906630","143.202562","0","3"
"01","北海道","01207","帯広市","012070234023","西三条南二十三丁目","42.905473","143.202717","0","3"
"01","北海道","01207","帯広市","012070234024","西三条南二十四丁目","42.904320","143.202877","0","3"
"01","北海道","01207","帯広市","012070234025","西三条南二十五丁目","42.903177","143.203033","0","3"
"01","北海道","01207","帯広市","012070234026","西三条南二十六丁目","42.902022","143.203185","0","3"
"01","北海道","01207","帯広市","012070234027","西三条南二十七丁目","42.900814","143.203324","0","3"
"01","北海道","01207","帯広市","012070234028","西三条南二十八丁目","42.899662","143.203452","0","3"
"01","北海道","01207","帯広市","012070234029","西三条南二十九丁目","42.898438","143.203509","0","3"
"01","北海道","01207","帯広市","012070234002","西三条南二丁目","42.929953","143.199463","0","3"
"01","北海道","01207","帯広市","012070234030","西三条南三十丁目","42.897439","143.203842","0","3"
"01","北海道","01207","帯広市","012070234031","西三条南三十一丁目","42.896175","143.204057","0","3"
"01","北海道","01207","帯広市","012070234032","西三条南三十二丁目","42.895204","143.204042","0","3"
"01","北海道","01207","帯広市","012070234033","西三条南三十三丁目","42.893968","143.204225","0","3"
"01","北海道","01207","帯広市","012070234034","西三条南三十四丁目","42.892693","143.204291","0","3"
"01","北海道","01207","帯広市","012070234035","西三条南三十五丁目","42.891440","143.204842","0","3"
"01","北海道","01207","帯広市","012070234036","西三条南三十六丁目","42.890016","143.204571","0","3"
"01","北海道","01207","帯広市","012070234037","西三条南三十七丁目","42.888790","143.204857","0","3"
"01","北海道","01207","帯広市","012070234038","西三条南三十八丁目","42.887610","143.204932","0","3"
"01","北海道","01207","帯広市","012070234003","西三条南三丁目","42.928789","143.199616","0","3"
"01","北海道","01207","帯広市","012070234004","西三条南四丁目","42.927626","143.199770","0","3"
"01","北海道","01207","帯広市","012070234005","西三条南五丁目","42.926476","143.199930","0","3"
"01","北海道","01207","帯広市","012070234006","西三条南六丁目","42.925307","143.200105","0","3"
"01","北海道","01207","帯広市","012070234007","西三条南七丁目","42.924149","143.200282","0","3"
"01","北海道","01207","帯広市","012070234008","西三条南八丁目","42.923001","143.200445","0","3"
"01","北海道","01207","帯広市","012070234009","西三条南九丁目","42.921844","143.200563","0","3"
"01","北海道","01207","帯広市","012070235001","西四条北一丁目","42.932204","143.197554","0","3"
"01","北海道","01207","帯広市","012070235002","西四条北二丁目","42.933382","143.197398","0","3"
"01","北海道","01207","帯広市","012070235003","西四条北三丁目","42.934547","143.197232","0","3"
"01","北海道","01207","帯広市","012070235004","西四条北四丁目","42.935848","143.197058","0","3"
"01","北海道","01207","帯広市","012070235005","西四条北五丁目","42.937192","143.196898","0","3"
"01","北海道","01207","帯広市","012070235006","西四条北六丁目","42.941910","143.196325","0","3"
"01","北海道","01207","帯広市","012070236010","西四条南十丁目","42.920593","143.199095","0","3"
"01","北海道","01207","帯広市","012070236011","西四条南十一丁目","42.919427","143.199309","0","3"
"01","北海道","01207","帯広市","012070236012","西四条南十二丁目","42.917820","143.199534","0","3"
"01","北海道","01207","帯広市","012070236013","西四条南十三丁目","42.916647","143.199980","0","3"
"01","北海道","01207","帯広市","012070236014","西四条南十四丁目","42.915961","143.199672","0","3"
"01","北海道","01207","帯広市","012070236015","西四条南十五丁目","42.915090","143.200310","0","3"
"01","北海道","01207","帯広市","012070236016","西四条南十六丁目","42.913746","143.200033","0","3"
"01","北海道","01207","帯広市","012070236017","西四条南十七丁目","42.912451","143.200187","0","3"
"01","北海道","01207","帯広市","012070236018","西四条南十八丁目","42.911287","143.200339","0","3"
"01","北海道","01207","帯広市","012070236019","西四条南十九丁目","42.910099","143.200498","0","3"
"01","北海道","01207","帯広市","012070236001","西四条南一丁目","42.931007","143.197720","0","3"
"01","北海道","01207","帯広市","012070236020","西四条南二十丁目","42.908876","143.200662","0","3"
"01","北海道","01207","帯広市","012070236021","西四条南二十一丁目","42.907679","143.200823","0","3"
"01","北海道","01207","帯広市","012070236022","西四条南二十二丁目","42.906518","143.200971","0","3"
"01","北海道","01207","帯広市","012070236023","西四条南二十三丁目","42.905359","143.201127","0","3"
"01","北海道","01207","帯広市","012070236024","西四条南二十四丁目","42.904203","143.201299","0","3"
"01","北海道","01207","帯広市","012070236025","西四条南二十五丁目","42.903063","143.201458","0","3"
"01","北海道","01207","帯広市","012070236026","西四条南二十六丁目","42.901901","143.201614","0","3"
"01","北海道","01207","帯広市","012070236027","西四条南二十七丁目","42.900716","143.201935","0","3"
"01","北海道","01207","帯広市","012070236028","西四条南二十八丁目","42.899568","143.202060","0","3"
"01","北海道","01207","帯広市","012070236029","西四条南二十九丁目","42.898441","143.202240","0","3"
"01","北海道","01207","帯広市","012070236002","西四条南二丁目","42.929842","143.197890","0","3"
"01","北海道","01207","帯広市","012070236030","西四条南三十丁目","42.897331","143.202434","0","3"
"01","北海道","01207","帯広市","012070236031","西四条南三十一丁目","42.896038","143.202591","0","3"
"01","北海道","01207","帯広市","012070236032","西四条南三十二丁目","42.894808","143.202730","0","3"
"01","北海道","01207","帯広市","012070236033","西四条南三十三丁目","42.893858","143.202853","0","3"
"01","北海道","01207","帯広市","012070236034","西四条南三十四丁目","42.892618","143.203019","0","3"
"01","北海道","01207","帯広市","012070236035","西四条南三十五丁目","42.891092","143.203274","0","3"
"01","北海道","01207","帯広市","012070236036","西四条南三十六丁目","42.889956","143.203421","0","3"
"01","北海道","01207","帯広市","012070236037","西四条南三十七丁目","42.888978","143.203716","0","3"
"01","北海道","01207","帯広市","012070236038","西四条南三十八丁目","42.887696","143.203756","0","3"
"01","北海道","01207","帯広市","012070236003","西四条南三丁目","42.928682","143.198054","0","3"
"01","北海道","01207","帯広市","012070236004","西四条南四丁目","42.927518","143.198209","0","3"
"01","北海道","01207","帯広市","012070236005","西四条南五丁目","42.926364","143.198359","0","3"
"01","北海道","01207","帯広市","012070236006","西四条南六丁目","42.925174","143.198515","0","3"
"01","北海道","01207","帯広市","012070236007","西四条南七丁目","42.924015","143.198673","0","3"
"01","北海道","01207","帯広市","012070236008","西四条南八丁目","42.922885","143.198831","0","3"
"01","北海道","01207","帯広市","012070236009","西四条南九丁目","42.921730","143.198962","0","3"
"01","北海道","01207","帯広市","012070237001","西五条北一丁目","42.932086","143.195999","0","3"
"01","北海道","01207","帯広市","012070237002","西五条北二丁目","42.933270","143.195843","0","3"
"01","北海道","01207","帯広市","012070237003","西五条北三丁目","42.934428","143.195685","0","3"
"01","北海道","01207","帯広市","012070237004","西五条北四丁目","42.935721","143.195525","0","3"
"01","北海道","01207","帯広市","012070237005","西五条北五丁目","42.937070","143.195334","0","3"
"01","北海道","01207","帯広市","012070237006","西五条北六丁目","42.938311","143.195165","0","3"
"01","北海道","01207","帯広市","012070237007","西五条北七丁目","42.940170","143.194908","0","3"
"01","北海道","01207","帯広市","012070237008","西五条北八丁目","42.942719","143.194548","0","3"
"01","北海道","01207","帯広市","012070237009","西五条北九丁目","42.945302","143.194202","0","3"
"01","北海道","01207","帯広市","012070238010","西五条南十丁目","42.920467","143.197543","0","3"
"01","北海道","01207","帯広市","012070238011","西五条南十一丁目","42.919309","143.197622","0","3"
"01","北海道","01207","帯広市","012070238012","西五条南十二丁目","42.917900","143.197924","0","3"
"01","北海道","01207","帯広市","012070238013","西五条南十三丁目","42.916972","143.198021","0","3"
"01","北海道","01207","帯広市","012070238014","西五条南十四丁目","42.915812","143.198168","0","3"
"01","北海道","01207","帯広市","012070238015","西五条南十五丁目","42.914619","143.198207","0","3"
"01","北海道","01207","帯広市","012070238016","西五条南十六丁目","42.913836","143.198613","0","3"
"01","北海道","01207","帯広市","012070238017","西五条南十七丁目","42.912339","143.198665","0","3"
"01","北海道","01207","帯広市","012070238018","西五条南十八丁目","42.911173","143.198750","0","3"
"01","北海道","01207","帯広市","012070238019","西五条南十九丁目","42.909983","143.198930","0","3"
"01","北海道","01207","帯広市","012070238001","西五条南一丁目","42.930889","143.196163","0","3"
"01","北海道","01207","帯広市","012070238020","西五条南二十丁目","42.908766","143.199095","0","3"
"01","北海道","01207","帯広市","012070238021","西五条南二十一丁目","42.907571","143.199250","0","3"
"01","北海道","01207","帯広市","012070238022","西五条南二十二丁目","42.906403","143.199400","0","3"
"01","北海道","01207","帯広市","012070238023","西五条南二十三丁目","42.905245","143.199561","0","3"
"01","北海道","01207","帯広市","012070238024","西五条南二十四丁目","42.904089","143.199729","0","3"
"01","北海道","01207","帯広市","012070238025","西五条南二十五丁目","42.902952","143.199888","0","3"
"01","北海道","01207","帯広市","012070238026","西五条南二十六丁目","42.901794","143.200043","0","3"
"01","北海道","01207","帯広市","012070238027","西五条南二十七丁目","42.900611","143.200383","0","3"
"01","北海道","01207","帯広市","012070238028","西五条南二十八丁目","42.899467","143.200533","0","3"
"01","北海道","01207","帯広市","012070238029","西五条南二十九丁目","42.898341","143.200683","0","3"
"01","北海道","01207","帯広市","012070238002","西五条南二丁目","42.929727","143.196330","0","3"
"01","北海道","01207","帯広市","012070238030","西五条南三十丁目","42.897217","143.200831","0","3"
"01","北海道","01207","帯広市","012070238031","西五条南三十一丁目","42.895817","143.201037","0","3"
"01","北海道","01207","帯広市","012070238032","西五条南三十二丁目","42.894615","143.200967","0","3"
"01","北海道","01207","帯広市","012070238033","西五条南三十三丁目","42.893730","143.201114","0","3"
"01","北海道","01207","帯広市","012070238034","西五条南三十四丁目","42.892488","143.201289","0","3"
"01","北海道","01207","帯広市","012070238035","西五条南三十五丁目","42.891101","143.201429","0","3"
"01","北海道","01207","帯広市","012070238036","西五条南三十六丁目","42.889847","143.201545","0","3"
"01","北海道","01207","帯広市","012070238037","西五条南三十七丁目","42.888492","143.201721","0","3"
"01","北海道","01207","帯広市","012070238038","西五条南三十八丁目","42.887201","143.201886","0","3"
"01","北海道","01207","帯広市","012070238039","西五条南三十九丁目","42.885877","143.202000","0","3"
"01","北海道","01207","帯広市","012070238003","西五条南三丁目","42.928571","143.196487","0","3"
"01","北海道","01207","帯広市","012070238040","西五条南四十丁目","42.884180","143.201645","0","3"
"01","北海道","01207","帯広市","012070238041","西五条南四十一丁目","42.882517","143.202427","0","3"
"01","北海道","01207","帯広市","012070238004","西五条南四丁目","42.927413","143.196636","0","3"
"01","北海道","01207","帯広市","012070238005","西五条南五丁目","42.926255","143.196780","0","3"
"01","北海道","01207","帯広市","012070238006","西五条南六丁目","42.925056","143.196926","0","3"
"01","北海道","01207","帯広市","012070238007","西五条南七丁目","42.923892","143.197064","0","3"
"01","北海道","01207","帯広市","012070238008","西五条南八丁目","42.922771","143.197218","0","3"
"01","北海道","01207","帯広市","012070238009","西五条南九丁目","42.921610","143.197372","0","3"
"01","北海道","01207","帯広市","012070239001","西六条北一丁目","42.931975","143.194433","0","3"
"01","北海道","01207","帯広市","012070239002","西六条北二丁目","42.933155","143.194269","0","3"
"01","北海道","01207","帯広市","012070239003","西六条北三丁目","42.934308","143.194121","0","3"
"01","北海道","01207","帯広市","012070239004","西六条北四丁目","42.935621","143.194110","0","3"
"01","北海道","01207","帯広市","012070239005","西六条北五丁目","42.936956","143.193768","0","3"
"01","北海道","01207","帯広市","012070239006","西六条北六丁目","42.938202","143.193607","0","3"
"01","北海道","01207","帯広市","012070239007","西六条北七丁目","42.940064","143.193343","0","3"
"01","北海道","01207","帯広市","012070239008","西六条北八丁目","42.942610","143.192976","0","3"
"01","北海道","01207","帯広市","012070239009","西六条北九丁目","42.945390","143.192598","0","3"
"01","北海道","01207","帯広市","012070240010","西六条南十丁目","42.920225","143.196019","0","3"
"01","北海道","01207","帯広市","012070240011","西六条南十一丁目","42.919150","143.196140","0","3"
"01","北海道","01207","帯広市","012070240012","西六条南十二丁目","42.918018","143.196296","0","3"
"01","北海道","01207","帯広市","012070240013","西六条南十三丁目","42.916856","143.196445","0","3"
"01","北海道","01207","帯広市","012070240014","西六条南十四丁目","42.915696","143.196594","0","3"
"01","北海道","01207","帯広市","012070240015","西六条南十五丁目","42.914536","143.196749","0","3"
"01","北海道","01207","帯広市","012070240016","西六条南十六丁目","42.913372","143.196787","0","3"
"01","北海道","01207","帯広市","012070240017","西六条南十七丁目","42.912340","143.197356","0","3"
"01","北海道","01207","帯広市","012070240018","西六条南十八丁目","42.911108","143.197760","0","3"
"01","北海道","01207","帯広市","012070240019","西六条南十九丁目","42.909901","143.197926","0","3"
"01","北海道","01207","帯広市","012070240001","西六条南一丁目","42.930778","143.194593","0","3"
"01","北海道","01207","帯広市","012070240020","西六条南二十丁目","42.908674","143.197949","0","3"
"01","北海道","01207","帯広市","012070240021","西六条南二十一丁目","42.907482","143.197973","0","3"
"01","北海道","01207","帯広市","012070240022","西六条南二十二丁目","42.906306","143.198050","0","3"
"01","北海道","01207","帯広市","012070240023","西六条南二十三丁目","42.905146","143.198010","0","3"
"01","北海道","01207","帯広市","012070240024","西六条南二十四丁目","42.903987","143.198123","0","3"
"01","北海道","01207","帯広市","012070240025","西六条南二十五丁目","42.902831","143.198241","0","3"
"01","北海道","01207","帯広市","012070240026","西六条南二十六丁目","42.901668","143.198360","0","3"
"01","北海道","01207","帯広市","012070240027","西六条南二十七丁目","42.900361","143.198296","0","3"
"01","北海道","01207","帯広市","012070240028","西六条南二十八丁目","42.899338","143.198593","0","3"
"01","北海道","01207","帯広市","012070240029","西六条南二十九丁目","42.898199","143.198564","0","3"
"01","北海道","01207","帯広市","012070240002","西六条南二丁目","42.929610","143.194749","0","3"
"01","北海道","01207","帯広市","012070240030","西六条南三十丁目","42.897073","143.198679","0","3"
"01","北海道","01207","帯広市","012070240031","西六条南三十一丁目","42.895386","143.199016","0","3"
"01","北海道","01207","帯広市","012070240032","西六条南三十二丁目","42.894438","143.198738","0","3"
"01","北海道","01207","帯広市","012070240033","西六条南三十三丁目","42.893560","143.198873","0","3"
"01","北海道","01207","帯広市","012070240034","西六条南三十四丁目","42.892320","143.199047","0","3"
"01","北海道","01207","帯広市","012070240039","西六条南三十九丁目","42.885744","143.200543","0","3"
"01","北海道","01207","帯広市","012070240003","西六条南三丁目","42.928458","143.194898","0","3"
"01","北海道","01207","帯広市","012070240040","西六条南四十丁目","42.884077","143.200595","0","3"
"01","北海道","01207","帯広市","012070240041","西六条南四十一丁目","42.882606","143.200796","0","3"
"01","北海道","01207","帯広市","012070240004","西六条南四丁目","42.927303","143.195048","0","3"
"01","北海道","01207","帯広市","012070240005","西六条南五丁目","42.926141","143.195202","0","3"
"01","北海道","01207","帯広市","012070240006","西六条南六丁目","42.924942","143.195369","0","3"
"01","北海道","01207","帯広市","012070240007","西六条南七丁目","42.923778","143.195525","0","3"
"01","北海道","01207","帯広市","012070240008","西六条南八丁目","42.922629","143.195701","0","3"
"01","北海道","01207","帯広市","012070240009","西六条南九丁目","42.921460","143.195866","0","3"
"01","北海道","01207","帯広市","012070241001","西七条北一丁目","42.931868","143.192877","0","3"
"01","北海道","01207","帯広市","012070241002","西七条北二丁目","42.933075","143.192719","0","3"
"01","北海道","01207","帯広市","012070241003","西七条北三丁目","42.934127","143.192577","0","3"
"01","北海道","01207","帯広市","012070241004","西七条北四丁目","42.935504","143.192381","0","3"
"01","北海道","01207","帯広市","012070241005","西七条北五丁目","42.936844","143.192197","0","3"
"01","北海道","01207","帯広市","012070241006","西七条北六丁目","42.938095","143.192026","0","3"
"01","北海道","01207","帯広市","012070241007","西七条北七丁目","42.939954","143.191756","0","3"
"01","北海道","01207","帯広市","012070241008","西七条北八丁目","42.942497","143.191390","0","3"
"01","北海道","01207","帯広市","012070241009","西七条北九丁目","42.945473","143.190974","0","3"
"01","北海道","01207","帯広市","012070242010","西七条南十丁目","42.920212","143.194442","0","3"
"01","北海道","01207","帯広市","012070242011","西七条南十一丁目","42.919071","143.194574","0","3"
"01","北海道","01207","帯広市","012070242012","西七条南十二丁目","42.917899","143.194726","0","3"
"01","北海道","01207","帯広市","012070242013","西七条南十三丁目","42.916740","143.194877","0","3"
"01","北海道","01207","帯広市","012070242014","西七条南十四丁目","42.915584","143.195027","0","3"
"01","北海道","01207","帯広市","012070242015","西七条南十五丁目","42.914424","143.195176","0","3"
"01","北海道","01207","帯広市","012070242016","西七条南十六丁目","42.913262","143.195323","0","3"
"01","北海道","01207","帯広市","012070242017","西七条南十七丁目","42.912227","143.195541","0","3"
"01","北海道","01207","帯広市","012070242018","西七条南十八丁目","42.910763","143.197193","0","3"
"01","北海道","01207","帯広市","012070242019","西七条南十九丁目","42.909674","143.196833","0","3"
"01","北海道","01207","帯広市","012070242001","西七条南一丁目","42.930674","143.193047","0","3"
"01","北海道","01207","帯広市","012070242020","西七条南二十丁目","42.908640","143.197026","0","3"
"01","北海道","01207","帯広市","012070242021","西七条南二十一丁目","42.907394","143.197149","0","3"
"01","北海道","01207","帯広市","012070242022","西七条南二十二丁目","42.906257","143.197021","0","3"
"01","北海道","01207","帯広市","012070242023","西七条南二十三丁目","42.905264","143.196861","0","3"
"01","北海道","01207","帯広市","012070242024","西七条南二十四丁目","42.904366","143.196581","0","3"
"01","北海道","01207","帯広市","012070242025","西七条南二十五丁目","42.902719","143.196631","0","3"
"01","北海道","01207","帯広市","012070242026","西七条南二十六丁目","42.901546","143.196750","0","3"
"01","北海道","01207","帯広市","012070242027","西七条南二十七丁目","42.900406","143.196753","0","3"
"01","北海道","01207","帯広市","012070242028","西七条南二十八丁目","42.899253","143.196857","0","3"
"01","北海道","01207","帯広市","012070242029","西七条南二十九丁目","42.898080","143.196821","0","3"
"01","北海道","01207","帯広市","012070242002","西七条南二丁目","42.929501","143.193212","0","3"
"01","北海道","01207","帯広市","012070242030","西七条南三十丁目","42.896958","143.196941","0","3"
"01","北海道","01207","帯広市","012070242031","西七条南三十一丁目","42.895547","143.196994","0","3"
"01","北海道","01207","帯広市","012070242032","西七条南三十二丁目","42.894438","143.197220","0","3"
"01","北海道","01207","帯広市","012070242033","西七条南三十三丁目","42.893362","143.197347","0","3"
"01","北海道","01207","帯広市","012070242034","西七条南三十四丁目","42.892331","143.197538","0","3"
"01","北海道","01207","帯広市","012070242039","西七条南三十九丁目","42.885645","143.199217","0","3"
"01","北海道","01207","帯広市","012070242003","西七条南三丁目","42.928340","143.193343","0","3"
"01","北海道","01207","帯広市","012070242040","西七条南四十丁目","42.883993","143.199414","0","3"
"01","北海道","01207","帯広市","012070242041","西七条南四十一丁目","42.882343","143.199521","0","3"
"01","北海道","01207","帯広市","012070242004","西七条南四丁目","42.927305","143.193449","0","3"
"01","北海道","01207","帯広市","012070242005","西七条南五丁目","42.926027","143.193617","0","3"
"01","北海道","01207","帯広市","012070242006","西七条南六丁目","42.924831","143.193807","0","3"
"01","北海道","01207","帯広市","012070242007","西七条南七丁目","42.923669","143.194003","0","3"
"01","北海道","01207","帯広市","012070242008","西七条南八丁目","42.922486","143.194098","0","3"
"01","北海道","01207","帯広市","012070242009","西七条南九丁目","42.921565","143.193954","0","3"
"01","北海道","01207","帯広市","012070243001","西八条北一丁目","42.931762","143.191238","0","3"
"01","北海道","01207","帯広市","012070243002","西八条北二丁目","42.933015","143.191076","0","3"
"01","北海道","01207","帯広市","012070243003","西八条北三丁目","42.934187","143.190916","0","3"
"01","北海道","01207","帯広市","012070243004","西八条北四丁目","42.935403","143.190738","0","3"
"01","北海道","01207","帯広市","012070243005","西八条北五丁目","42.936728","143.190556","0","3"
"01","北海道","01207","帯広市","012070243006","西八条北六丁目","42.937984","143.190383","0","3"
"01","北海道","01207","帯広市","012070243007","西八条北七丁目","42.939842","143.190140","0","3"
"01","北海道","01207","帯広市","012070243008","西八条北八丁目","42.942383","143.189788","0","3"
"01","北海道","01207","帯広市","012070243009","西八条北九丁目","42.945582","143.189322","0","3"
"01","北海道","01207","帯広市","012070244010","西八条南十丁目","42.920077","143.192728","0","3"
"01","北海道","01207","帯広市","012070244011","西八条南十一丁目","42.918936","143.192901","0","3"
"01","北海道","01207","帯広市","012070244012","西八条南十二丁目","42.917777","143.193050","0","3"
"01","北海道","01207","帯広市","012070244013","西八条南十三丁目","42.916618","143.193202","0","3"
"01","北海道","01207","帯広市","012070244014","西八条南十四丁目","42.915464","143.193351","0","3"
"01","北海道","01207","帯広市","012070244015","西八条南十五丁目","42.914304","143.193500","0","3"
"01","北海道","01207","帯広市","012070244016","西八条南十六丁目","42.913146","143.193642","0","3"
"01","北海道","01207","帯広市","012070244017","西八条南十七丁目","42.911992","143.193787","0","3"
"01","北海道","01207","帯広市","012070244018","西八条南十八丁目","42.910835","143.193817","0","3"
"01","北海道","01207","帯広市","012070244019","西八条南十九丁目","42.910079","143.193518","0","3"
"01","北海道","01207","帯広市","012070244001","西八条南一丁目","42.930560","143.191412","0","3"
"01","北海道","01207","帯広市","012070244024","西八条南二十四丁目","42.903946","143.195133","0","3"
"01","北海道","01207","帯広市","012070244025","西八条南二十五丁目","42.902603","143.195092","0","3"
"01","北海道","01207","帯広市","012070244026","西八条南二十六丁目","42.901333","143.195409","0","3"
"01","北海道","01207","帯広市","012070244027","西八条南二十七丁目","42.900301","143.195287","0","3"
"01","北海道","01207","帯広市","012070244028","西八条南二十八丁目","42.899165","143.195424","0","3"
"01","北海道","01207","帯広市","012070244029","西八条南二十九丁目","42.897998","143.195573","0","3"
"01","北海道","01207","帯広市","012070244002","西八条南二丁目","42.929386","143.191580","0","3"
"01","北海道","01207","帯広市","012070244030","西八条南三十丁目","42.896873","143.195725","0","3"
"01","北海道","01207","帯広市","012070244031","西八条南三十一丁目","42.895666","143.195876","0","3"
"01","北海道","01207","帯広市","012070244032","西八条南三十二丁目","42.894421","143.196080","0","3"
"01","北海道","01207","帯広市","012070244033","西八条南三十三丁目","42.893278","143.196212","0","3"
"01","北海道","01207","帯広市","012070244034","西八条南三十四丁目","42.892043","143.196398","0","3"
"01","北海道","01207","帯広市","012070244039","西八条南三十九丁目","42.885375","143.197659","0","3"
"01","北海道","01207","帯広市","012070244003","西八条南三丁目","42.928197","143.191716","0","3"
"01","北海道","01207","帯広市","012070244040","西八条南四十丁目","42.884046","143.197718","0","3"
"01","北海道","01207","帯広市","012070244041","西八条南四十一丁目","42.882232","143.197873","0","3"
"01","北海道","01207","帯広市","012070244004","西八条南四丁目","42.927040","143.191844","0","3"
"01","北海道","01207","帯広市","012070244005","西八条南五丁目","42.925888","143.192002","0","3"
"01","北海道","01207","帯広市","012070244006","西八条南六丁目","42.924691","143.192211","0","3"
"01","北海道","01207","帯広市","012070244007","西八条南七丁目","42.923575","143.192430","0","3"
"01","北海道","01207","帯広市","012070244008","西八条南八丁目","42.922712","143.192435","0","3"
"01","北海道","01207","帯広市","012070244009","西八条南九丁目","42.921493","143.191992","0","3"
"01","北海道","01207","帯広市","012070245010","西九条北十丁目","42.946844","143.187802","0","3"
"01","北海道","01207","帯広市","012070245001","西九条北一丁目","42.931651","143.189827","0","3"
"01","北海道","01207","帯広市","012070245002","西九条北二丁目","42.932916","143.189657","0","3"
"01","北海道","01207","帯広市","012070245003","西九条北三丁目","42.934077","143.189506","0","3"
"01","北海道","01207","帯広市","012070245004","西九条北四丁目","42.935312","143.189343","0","3"
"01","北海道","01207","帯広市","012070245005","西九条北五丁目","42.936636","143.189159","0","3"
"01","北海道","01207","帯広市","012070245006","西九条北六丁目","42.937888","143.188990","0","3"
"01","北海道","01207","帯広市","012070245007","西九条北七丁目","42.939749","143.188769","0","3"
"01","北海道","01207","帯広市","012070245008","西九条北八丁目","42.942287","143.188433","0","3"
"01","北海道","01207","帯広市","012070245009","西九条北九丁目","42.944569","143.188098","0","3"
"01","北海道","01207","帯広市","012070246010","西九条南十丁目","42.919949","143.190993","0","3"
"01","北海道","01207","帯広市","012070246011","西九条南十一丁目","42.918819","143.191221","0","3"
"01","北海道","01207","帯広市","012070246012","西九条南十二丁目","42.917659","143.191392","0","3"
"01","北海道","01207","帯広市","012070246013","西九条南十三丁目","42.916501","143.191541","0","3"
"01","北海道","01207","帯広市","012070246014","西九条南十四丁目","42.915345","143.191690","0","3"
"01","北海道","01207","帯広市","012070246015","西九条南十五丁目","42.914190","143.191838","0","3"
"01","北海道","01207","帯広市","012070246016","西九条南十六丁目","42.913036","143.191985","0","3"
"01","北海道","01207","帯広市","012070246017","西九条南十七丁目","42.911880","143.192134","0","3"
"01","北海道","01207","帯広市","012070246018","西九条南十八丁目","42.910713","143.192282","0","3"
"01","北海道","01207","帯広市","012070246019","西九条南十九丁目","42.909607","143.192486","0","3"
"01","北海道","01207","帯広市","012070246001","西九条南一丁目","42.930440","143.189817","0","3"
"01","北海道","01207","帯広市","012070246024","西九条南二十四丁目","42.903162","143.194053","0","3"
"01","北海道","01207","帯広市","012070246025","西九条南二十五丁目","42.902472","143.193714","0","3"
"01","北海道","01207","帯広市","012070246026","西九条南二十六丁目","42.901337","143.193828","0","3"
"01","北海道","01207","帯広市","012070246027","西九条南二十七丁目","42.900202","143.193828","0","3"
"01","北海道","01207","帯広市","012070246028","西九条南二十八丁目","42.899064","143.193970","0","3"
"01","北海道","01207","帯広市","012070246029","西九条南二十九丁目","42.897899","143.194115","0","3"
"01","北海道","01207","帯広市","012070246002","西九条南二丁目","42.929268","143.189983","0","3"
"01","北海道","01207","帯広市","012070246030","西九条南三十丁目","42.896776","143.194279","0","3"
"01","北海道","01207","帯広市","012070246031","西九条南三十一丁目","42.895587","143.194436","0","3"
"01","北海道","01207","帯広市","012070246032","西九条南三十二丁目","42.894345","143.194848","0","3"
"01","北海道","01207","帯広市","012070246033","西九条南三十三丁目","42.893218","143.194886","0","3"
"01","北海道","01207","帯広市","012070246034","西九条南三十四丁目","42.891943","143.194868","0","3"
"01","北海道","01207","帯広市","012070246039","西九条南三十九丁目","42.885289","143.195932","0","3"
"01","北海道","01207","帯広市","012070246003","西九条南三丁目","42.928059","143.190169","0","3"
"01","北海道","01207","帯広市","012070246040","西九条南四十丁目","42.883608","143.196184","0","3"
"01","北海道","01207","帯広市","012070246041","西九条南四十一丁目","42.882154","143.196331","0","3"
"01","北海道","01207","帯広市","012070246004","西九条南四丁目","42.926907","143.190310","0","3"
"01","北海道","01207","帯広市","012070246005","西九条南五丁目","42.925753","143.190430","0","3"
"01","北海道","01207","帯広市","012070246006","西九条南六丁目","42.924567","143.190615","0","3"
"01","北海道","01207","帯広市","012070246007","西九条南七丁目","42.923392","143.191225","0","3"
"01","北海道","01207","帯広市","012070246008","西九条南八丁目","42.922427","143.190990","0","3"
"01","北海道","01207","帯広市","012070246009","西九条南九丁目","42.921148","143.190810","0","3"
"01","北海道","01207","帯広市","012070247001","柏林台北町一丁目","42.926025","143.164372","0","3"
"01","北海道","01207","帯広市","012070247002","柏林台北町二丁目","42.925907","143.165871","0","3"
"01","北海道","01207","帯広市","012070247003","柏林台北町三丁目","42.925625","143.167607","0","3"
"01","北海道","01207","帯広市","012070247004","柏林台北町四丁目","42.925343","143.169642","0","3"
"01","北海道","01207","帯広市","012070247005","柏林台北町五丁目","42.925016","143.171769","0","3"
"01","北海道","01207","帯広市","012070248001","柏林台中町一丁目","42.924329","143.167217","0","3"
"01","北海道","01207","帯広市","012070248002","柏林台中町二丁目","42.924040","143.169789","0","3"
"01","北海道","01207","帯広市","012070248003","柏林台中町三丁目","42.923438","143.168683","0","3"
"01","北海道","01207","帯広市","012070248004","柏林台中町四丁目","42.922279","143.169694","0","3"
"01","北海道","01207","帯広市","012070248005","柏林台中町五丁目","42.922416","143.167718","0","3"
"01","北海道","01207","帯広市","012070249001","柏林台西町一丁目","42.922136","143.165550","0","3"
"01","北海道","01207","帯広市","012070249002","柏林台西町二丁目","42.923110","143.164817","0","3"
"01","北海道","01207","帯広市","012070249003","柏林台西町三丁目","42.924861","143.164483","0","3"
"01","北海道","01207","帯広市","012070249004","柏林台西町四丁目","42.924907","143.165500","0","3"
"01","北海道","01207","帯広市","012070249005","柏林台西町五丁目","42.923404","143.165782","0","3"
"01","北海道","01207","帯広市","012070250001","柏林台東町一丁目","42.924274","143.172557","0","3"
"01","北海道","01207","帯広市","012070250002","柏林台東町二丁目","42.923895","143.171532","0","3"
"01","北海道","01207","帯広市","012070250003","柏林台東町三丁目","42.922339","143.171773","0","3"
"01","北海道","01207","帯広市","012070250004","柏林台東町四丁目","42.921130","143.171840","0","3"
"01","北海道","01207","帯広市","012070250005","柏林台東町五丁目","42.920276","143.172180","0","3"
"01","北海道","01207","帯広市","012070251001","柏林台南町一丁目","42.920166","143.170350","0","3"
"01","北海道","01207","帯広市","012070251002","柏林台南町二丁目","42.920009","143.168058","0","3"
"01","北海道","01207","帯広市","012070251003","柏林台南町三丁目","42.919852","143.165757","0","3"
"01","北海道","01207","帯広市","012070251004","柏林台南町四丁目","42.920950","143.165612","0","3"
"01","北海道","01207","帯広市","012070251005","柏林台南町五丁目","42.921058","143.167888","0","3"
"01","北海道","01207","帯広市","012070251006","柏林台南町六丁目","42.921153","143.169634","0","3"
"01","北海道","01207","帯広市","012070251007","柏林台南町七丁目","42.921200","143.170830","0","3"
"01","北海道","01207","帯広市","012070252000","美栄町","42.783932","143.094593","0","1"
"01","北海道","01207","帯広市","012070253000","美栄町西","42.780924","143.062667","0","1"
"01","北海道","01207","帯広市","012070254000","美栄町西三線","42.756807","143.083863","0","1"
"01","北海道","01207","帯広市","012070255000","美栄町西四線","42.758675","143.079584","0","1"
"01","北海道","01207","帯広市","012070256000","美栄町西五線","42.761193","143.073603","0","1"
"01","北海道","01207","帯広市","012070257000","美栄町西六線","42.766804","143.070249","0","1"
"01","北海道","01207","帯広市","012070258000","美栄町西七線","42.768267","143.063828","0","1"
"01","北海道","01207","帯広市","012070259000","美栄町西八線","42.770653","143.058353","0","1"
"01","北海道","01207","帯広市","012070260001","東十条北一丁目","42.933956","143.220795","0","3"
"01","北海道","01207","帯広市","012070260002","東十条北二丁目","42.935355","143.220159","0","3"
"01","北海道","01207","帯広市","012070261010","東十条南十丁目","42.922236","143.222329","0","3"
"01","北海道","01207","帯広市","012070261011","東十条南十一丁目","42.921074","143.222489","0","3"
"01","北海道","01207","帯広市","012070261012","東十条南十二丁目","42.919916","143.222647","0","3"
"01","北海道","01207","帯広市","012070261013","東十条南十三丁目","42.918844","143.222794","0","3"
"01","北海道","01207","帯広市","012070261014","東十条南十四丁目","42.917660","143.222902","0","3"
"01","北海道","01207","帯広市","012070261015","東十条南十五丁目","42.916398","143.223094","0","3"
"01","北海道","01207","帯広市","012070261016","東十条南十六丁目","42.915254","143.223255","0","3"
"01","北海道","01207","帯広市","012070261017","東十条南十七丁目","42.914055","143.223424","0","3"
"01","北海道","01207","帯広市","012070261018","東十条南十八丁目","42.912963","143.223599","0","3"
"01","北海道","01207","帯広市","012070261019","東十条南十九丁目","42.911641","143.223534","0","3"
"01","北海道","01207","帯広市","012070261001","東十条南一丁目","42.932716","143.220964","0","3"
"01","北海道","01207","帯広市","012070261020","東十条南二十丁目","42.908338","143.224260","0","3"
"01","北海道","01207","帯広市","012070261002","東十条南二丁目","42.931382","143.221117","0","3"
"01","北海道","01207","帯広市","012070261003","東十条南三丁目","42.930188","143.221313","0","3"
"01","北海道","01207","帯広市","012070261004","東十条南四丁目","42.928944","143.221379","0","3"
"01","北海道","01207","帯広市","012070261005","東十条南五丁目","42.927591","143.221611","0","3"
"01","北海道","01207","帯広市","012070261006","東十条南六丁目","42.926480","143.221781","0","3"
"01","北海道","01207","帯広市","012070261007","東十条南七丁目","42.925449","143.221900","0","3"
"01","北海道","01207","帯広市","012070261008","東十条南八丁目","42.924545","143.222016","0","3"
"01","北海道","01207","帯広市","012070261009","東十条南九丁目","42.923395","143.222169","0","3"
"01","北海道","01207","帯広市","012070262001","東十一条北一丁目","42.934126","143.223065","0","3"
"01","北海道","01207","帯広市","012070262002","東十一条北二丁目","42.935564","143.222492","0","3"
"01","北海道","01207","帯広市","012070263010","東十一条南十丁目","42.922390","143.224566","0","3"
"01","北海道","01207","帯広市","012070263011","東十一条南十一丁目","42.921242","143.224725","0","3"
"01","北海道","01207","帯広市","012070263012","東十一条南十二丁目","42.920117","143.224892","0","3"
"01","北海道","01207","帯広市","012070263013","東十一条南十三丁目","42.919069","143.225039","0","3"
"01","北海道","01207","帯広市","012070263014","東十一条南十四丁目","42.917803","143.225210","0","3"
"01","北海道","01207","帯広市","012070263015","東十一条南十五丁目","42.916535","143.225409","0","3"
"01","北海道","01207","帯広市","012070263016","東十一条南十六丁目","42.911864","143.226064","0","3"
"01","北海道","01207","帯広市","012070263017","東十一条南十七丁目","42.914140","143.224967","0","3"
"01","北海道","01207","帯広市","012070263018","東十一条南十八丁目","42.912995","143.224779","0","3"
"01","北海道","01207","帯広市","012070263001","東十一条南一丁目","42.932861","143.223243","0","3"
"01","北海道","01207","帯広市","012070263002","東十一条南二丁目","42.931542","143.223407","0","3"
"01","北海道","01207","帯広市","012070263003","東十一条南三丁目","42.930379","143.223565","0","3"
"01","北海道","01207","帯広市","012070263004","東十一条南四丁目","42.929125","143.223743","0","3"
"01","北海道","01207","帯広市","012070263005","東十一条南五丁目","42.927678","143.223823","0","3"
"01","北海道","01207","帯広市","012070263006","東十一条南六丁目","42.926424","143.224022","0","3"
"01","北海道","01207","帯広市","012070263007","東十一条南七丁目","42.925602","143.224132","0","3"
"01","北海道","01207","帯広市","012070263008","東十一条南八丁目","42.924698","143.224248","0","3"
"01","北海道","01207","帯広市","012070263009","東十一条南九丁目","42.923546","143.224407","0","3"
"01","北海道","01207","帯広市","012070264001","東十二条北一丁目","42.934292","143.225355","0","3"
"01","北海道","01207","帯広市","012070264002","東十二条北二丁目","42.935577","143.225021","0","3"
"01","北海道","01207","帯広市","012070265010","東十二条南十丁目","42.922430","143.226030","0","3"
"01","北海道","01207","帯広市","012070265011","東十二条南十一丁目","42.921511","143.227424","0","3"
"01","北海道","01207","帯広市","012070265012","東十二条南十二丁目","42.920329","143.227514","0","3"
"01","北海道","01207","帯広市","012070265013","東十二条南十三丁目","42.919133","143.227800","0","3"
"01","北海道","01207","帯広市","012070265014","東十二条南十四丁目","42.917992","143.227824","0","3"
"01","北海道","01207","帯広市","012070265015","東十二条南十五丁目","42.916679","143.228002","0","3"
"01","北海道","01207","帯広市","012070265016","東十二条南十六丁目","42.913418","143.228357","0","3"
"01","北海道","01207","帯広市","012070265001","東十二条南一丁目","42.933026","143.225536","0","3"
"01","北海道","01207","帯広市","012070265002","東十二条南二丁目","42.931697","143.225719","0","3"
"01","北海道","01207","帯広市","012070265003","東十二条南三丁目","42.930534","143.225856","0","3"
"01","北海道","01207","帯広市","012070265004","東十二条南四丁目","42.929294","143.226004","0","3"
"01","北海道","01207","帯広市","012070265005","東十二条南五丁目","42.927660","143.226287","0","3"
"01","北海道","01207","帯広市","012070265006","東十二条南六丁目","42.926691","143.226345","0","3"
"01","北海道","01207","帯広市","012070265007","東十二条南七丁目","42.925767","143.226471","0","3"
"01","北海道","01207","帯広市","012070265008","東十二条南八丁目","42.924853","143.226586","0","3"
"01","北海道","01207","帯広市","012070265009","東十二条南九丁目","42.923985","143.226122","0","3"
"01","北海道","01207","帯広市","012070266002","東十三条南二丁目","42.932552","143.227564","0","3"
"01","北海道","01207","帯広市","012070266003","東十三条南三丁目","42.930694","143.228114","0","3"
"01","北海道","01207","帯広市","012070266004","東十三条南四丁目","42.929460","143.228281","0","3"
"01","北海道","01207","帯広市","012070266005","東十三条南五丁目","42.928121","143.228446","0","3"
"01","北海道","01207","帯広市","012070266006","東十三条南六丁目","42.927092","143.228539","0","3"
"01","北海道","01207","帯広市","012070266007","東十三条南七丁目","42.925927","143.228684","0","3"
"01","北海道","01207","帯広市","012070266008","東十三条南八丁目","42.925455","143.228106","0","3"
"01","北海道","01207","帯広市","012070267002","東十四条南二丁目","42.932435","143.229819","0","3"
"01","北海道","01207","帯広市","012070267003","東十四条南三丁目","42.930855","143.230328","0","3"
"01","北海道","01207","帯広市","012070267004","東十四条南四丁目","42.929621","143.230502","0","3"
"01","北海道","01207","帯広市","012070267005","東十四条南五丁目","42.928707","143.230510","0","3"
"01","北海道","01207","帯広市","012070267006","東十四条南六丁目","42.927937","143.230301","0","3"
"01","北海道","01207","帯広市","012070268003","東十五条南三丁目","42.931092","143.232622","0","3"
"01","北海道","01207","帯広市","012070268004","東十五条南四丁目","42.929893","143.232648","0","3"
"01","北海道","01207","帯広市","012070268005","東十五条南五丁目","42.928805","143.232479","0","3"
