"PrefCode","PrefName","MuniCode","MuniName","DistCode","DistName","lat","lon","SrcCode","CatCode"
"01","北海道","01210","岩見沢市","012100001018","十条西十八丁目","43.188931","141.755694","0","3"
"01","北海道","01210","岩見沢市","012100001019","十条西十九丁目","43.188323","141.754857","0","3"
"01","北海道","01210","岩見沢市","012100001001","十条西一丁目","43.197341","141.772115","0","3"
"01","北海道","01210","岩見沢市","012100001020","十条西二十丁目","43.188273","141.753778","0","3"
"01","北海道","01210","岩見沢市","012100001021","十条西二十一丁目","43.187694","141.753057","0","3"
"01","北海道","01210","岩見沢市","012100001022","十条西二十二丁目","43.187522","141.751914","0","3"
"01","北海道","01210","岩見沢市","012100001023","十条西二十三丁目","43.186334","141.749971","0","3"
"01","北海道","01210","岩見沢市","012100001002","十条西二丁目","43.196894","141.771126","0","3"
"01","北海道","01210","岩見沢市","012100001003","十条西三丁目","43.196335","141.770123","0","3"
"01","北海道","01210","岩見沢市","012100001004","十条西四丁目","43.195859","141.769175","0","3"
"01","北海道","01210","岩見沢市","012100001005","十条西五丁目","43.195361","141.768175","0","3"
"01","北海道","01210","岩見沢市","012100002001","十条東一丁目","43.197871","141.772934","0","3"
"01","北海道","01210","岩見沢市","012100002002","十条東二丁目","43.197932","141.774231","0","3"
"01","北海道","01210","岩見沢市","012100002003","十条東三丁目","43.198374","141.775065","0","3"
"01","北海道","01210","岩見沢市","012100002004","十条東四丁目","43.199103","141.775566","0","3"
"01","北海道","01210","岩見沢市","012100002005","十条東五丁目","43.199833","141.776477","0","3"
"01","北海道","01210","岩見沢市","012100002006","十条東六丁目","43.200367","141.777462","0","3"
"01","北海道","01210","岩見沢市","012100002007","十条東七丁目","43.200903","141.778272","0","3"
"01","北海道","01210","岩見沢市","012100003001","十一条西一丁目","43.196656","141.772660","0","3"
"01","北海道","01210","岩見沢市","012100003002","十一条西二丁目","43.196071","141.771742","0","3"
"01","北海道","01210","岩見沢市","012100003003","十一条西三丁目","43.195607","141.770805","0","3"
"01","北海道","01210","岩見沢市","012100003004","十一条西四丁目","43.195130","141.769861","0","3"
"01","北海道","01210","岩見沢市","012100003005","十一条西五丁目","43.194626","141.768854","0","3"
"01","北海道","01210","岩見沢市","012100004001","十一条東一丁目","43.197056","141.773698","0","3"
"01","北海道","01210","岩見沢市","012100005001","十二条西一丁目","43.195790","141.773540","0","3"
"01","北海道","01210","岩見沢市","012100005002","十二条西二丁目","43.195119","141.772720","0","3"
"01","北海道","01210","岩見沢市","012100005003","十二条西三丁目","43.194844","141.771383","0","3"
"01","北海道","01210","岩見沢市","012100005004","十二条西四丁目","43.194543","141.770412","0","3"
"01","北海道","01210","岩見沢市","012100005005","十二条西五丁目","43.194012","141.769595","0","3"
"01","北海道","01210","岩見沢市","012100006001","十二条東一丁目","43.196322","141.774207","0","3"
"01","北海道","01210","岩見沢市","012100007001","十三条西一丁目","43.195139","141.774054","0","3"
"01","北海道","01210","岩見沢市","012100007003","十三条西三丁目","43.194237","141.772078","0","3"
"01","北海道","01210","岩見沢市","012100007004","十三条西四丁目","43.193962","141.770961","0","3"
"01","北海道","01210","岩見沢市","012100007005","十三条西五丁目","43.193321","141.770123","0","3"
"01","北海道","01210","岩見沢市","012100008010","一条西十丁目","43.201160","141.755958","0","3"
"01","北海道","01210","岩見沢市","012100008011","一条西十一丁目","43.200869","141.754589","0","3"
"01","北海道","01210","岩見沢市","012100008012","一条西十二丁目","43.200427","141.753657","0","3"
"01","北海道","01210","岩見沢市","012100008013","一条西十三丁目","43.200102","141.752691","0","3"
"01","北海道","01210","岩見沢市","012100008014","一条西十四丁目","43.199498","141.751783","0","3"
"01","北海道","01210","岩見沢市","012100008001","一条西一丁目","43.205339","141.764365","0","3"
"01","北海道","01210","岩見沢市","012100008002","一条西二丁目","43.204868","141.763302","0","3"
"01","北海道","01210","岩見沢市","012100008003","一条西三丁目","43.204382","141.762359","0","3"
"01","北海道","01210","岩見沢市","012100008004","一条西四丁目","43.203917","141.761441","0","3"
"01","北海道","01210","岩見沢市","012100008005","一条西五丁目","43.203451","141.760508","0","3"
"01","北海道","01210","岩見沢市","012100008006","一条西六丁目","43.202992","141.759588","0","3"
"01","北海道","01210","岩見沢市","012100008007","一条西七丁目","43.202569","141.758818","0","3"
"01","北海道","01210","岩見沢市","012100008008","一条西八丁目","43.202052","141.757812","0","3"
"01","北海道","01210","岩見沢市","012100008009","一条西九丁目","43.201563","141.756822","0","3"
"01","北海道","01210","岩見沢市","012100009010","一条東十丁目","43.210660","141.773203","0","3"
"01","北海道","01210","岩見沢市","012100009011","一条東十一丁目","43.211346","141.774708","0","3"
"01","北海道","01210","岩見沢市","012100009012","一条東十二丁目","43.212429","141.777111","0","3"
"01","北海道","01210","岩見沢市","012100009013","一条東十三丁目","43.213316","141.778422","0","3"
"01","北海道","01210","岩見沢市","012100009014","一条東十四丁目","43.214371","141.780151","0","3"
"01","北海道","01210","岩見沢市","012100009015","一条東十五丁目","43.215811","141.781807","0","3"
"01","北海道","01210","岩見沢市","012100009016","一条東十六丁目","43.217104","141.783336","0","3"
"01","北海道","01210","岩見沢市","012100009017","一条東十七丁目","43.218375","141.784513","0","3"
"01","北海道","01210","岩見沢市","012100009001","一条東一丁目","43.206219","141.764852","0","3"
"01","北海道","01210","岩見沢市","012100009002","一条東二丁目","43.206650","141.766050","0","3"
"01","北海道","01210","岩見沢市","012100009003","一条東三丁目","43.207101","141.766949","0","3"
"01","北海道","01210","岩見沢市","012100009004","一条東四丁目","43.207548","141.767829","0","3"
"01","北海道","01210","岩見沢市","012100009005","一条東五丁目","43.208073","141.768536","0","3"
"01","北海道","01210","岩見沢市","012100009006","一条東六丁目","43.208509","141.769663","0","3"
"01","北海道","01210","岩見沢市","012100009007","一条東七丁目","43.209194","141.770325","0","3"
"01","北海道","01210","岩見沢市","012100009008","一条東八丁目","43.209603","141.771386","0","3"
"01","北海道","01210","岩見沢市","012100009009","一条東九丁目","43.210071","141.772381","0","3"
"01","北海道","01210","岩見沢市","012100010010","二条西十丁目","43.200511","141.756530","0","3"
"01","北海道","01210","岩見沢市","012100010011","二条西十一丁目","43.199994","141.755515","0","3"
"01","北海道","01210","岩見沢市","012100010012","二条西十二丁目","43.199499","141.754556","0","3"
"01","北海道","01210","岩見沢市","012100010013","二条西十三丁目","43.199380","141.753287","0","3"
"01","北海道","01210","岩見沢市","012100010014","二条西十四丁目","43.198887","141.752402","0","3"
"01","北海道","01210","岩見沢市","012100010015","二条西十五丁目","43.198736","141.751177","0","3"
"01","北海道","01210","岩見沢市","012100010016","二条西十六丁目","43.198137","141.750370","0","3"
"01","北海道","01210","岩見沢市","012100010001","二条西一丁目","43.204641","141.765014","0","3"
"01","北海道","01210","岩見沢市","012100010002","二条西二丁目","43.204269","141.763885","0","3"
"01","北海道","01210","岩見沢市","012100010003","二条西三丁目","43.203792","141.762936","0","3"
"01","北海道","01210","岩見沢市","012100010004","二条西四丁目","43.203292","141.762050","0","3"
"01","北海道","01210","岩見沢市","012100010005","二条西五丁目","43.202857","141.761081","0","3"
"01","北海道","01210","岩見沢市","012100010006","二条西六丁目","43.202430","141.760167","0","3"
"01","北海道","01210","岩見沢市","012100010007","二条西七丁目","43.201972","141.759283","0","3"
"01","北海道","01210","岩見沢市","012100010008","二条西八丁目","43.201453","141.758418","0","3"
"01","北海道","01210","岩見沢市","012100010009","二条西九丁目","43.200994","141.757503","0","3"
"01","北海道","01210","岩見沢市","012100011010","二条東十丁目","43.209905","141.774042","0","3"
"01","北海道","01210","岩見沢市","012100011011","二条東十一丁目","43.210618","141.775893","0","3"
"01","北海道","01210","岩見沢市","012100011012","二条東十二丁目","43.211592","141.777170","0","3"
"01","北海道","01210","岩見沢市","012100011013","二条東十三丁目","43.212471","141.779084","0","3"
"01","北海道","01210","岩見沢市","012100011014","二条東十四丁目","43.213344","141.780777","0","3"
"01","北海道","01210","岩見沢市","012100011015","二条東十五丁目","43.214861","141.783517","0","3"
"01","北海道","01210","岩見沢市","012100011016","二条東十六丁目","43.216381","141.784721","0","3"
"01","北海道","01210","岩見沢市","012100011017","二条東十七丁目","43.217702","141.785709","0","3"
"01","北海道","01210","岩見沢市","012100011018","二条東十八丁目","43.219096","141.786622","0","3"
"01","北海道","01210","岩見沢市","012100011001","二条東一丁目","43.205212","141.765829","0","3"
"01","北海道","01210","岩見沢市","012100011002","二条東二丁目","43.205753","141.767025","0","3"
"01","北海道","01210","岩見沢市","012100011003","二条東三丁目","43.206166","141.767839","0","3"
"01","北海道","01210","岩見沢市","012100011004","二条東四丁目","43.206604","141.768773","0","3"
"01","北海道","01210","岩見沢市","012100011005","二条東五丁目","43.206901","141.769883","0","3"
"01","北海道","01210","岩見沢市","012100011006","二条東六丁目","43.207479","141.770886","0","3"
"01","北海道","01210","岩見沢市","012100011007","二条東七丁目","43.208302","141.771236","0","3"
"01","北海道","01210","岩見沢市","012100011008","二条東八丁目","43.208694","141.772205","0","3"
"01","北海道","01210","岩見沢市","012100011009","二条東九丁目","43.209405","141.773086","0","3"
"01","北海道","01210","岩見沢市","012100012010","三条西十丁目","43.199850","141.757169","0","3"
"01","北海道","01210","岩見沢市","012100012011","三条西十一丁目","43.199348","141.756133","0","3"
"01","北海道","01210","岩見沢市","012100012012","三条西十二丁目","43.198866","141.755156","0","3"
"01","北海道","01210","岩見沢市","012100012013","三条西十三丁目","43.198780","141.754018","0","3"
"01","北海道","01210","岩見沢市","012100012014","三条西十四丁目","43.198268","141.753015","0","3"
"01","北海道","01210","岩見沢市","012100012015","三条西十五丁目","43.197780","141.752086","0","3"
"01","北海道","01210","岩見沢市","012100012016","三条西十六丁目","43.197323","141.751143","0","3"
"01","北海道","01210","岩見沢市","012100012017","三条西十七丁目","43.197235","141.750020","0","3"
"01","北海道","01210","岩見沢市","012100012018","三条西十八丁目","43.196393","141.749360","0","3"
"01","北海道","01210","岩見沢市","012100012001","三条西一丁目","43.204006","141.765771","0","3"
"01","北海道","01210","岩見沢市","012100012002","三条西二丁目","43.203539","141.764604","0","3"
"01","北海道","01210","岩見沢市","012100012003","三条西三丁目","43.203145","141.763741","0","3"
"01","北海道","01210","岩見沢市","012100012004","三条西四丁目","43.202688","141.762658","0","3"
"01","北海道","01210","岩見沢市","012100012005","三条西五丁目","43.202180","141.761771","0","3"
"01","北海道","01210","岩見沢市","012100012006","三条西六丁目","43.201742","141.760860","0","3"
"01","北海道","01210","岩見沢市","012100012007","三条西七丁目","43.201338","141.759891","0","3"
"01","北海道","01210","岩見沢市","012100012008","三条西八丁目","43.200845","141.759138","0","3"
"01","北海道","01210","岩見沢市","012100012009","三条西九丁目","43.200326","141.758151","0","3"
"01","北海道","01210","岩見沢市","012100013010","三条東十丁目","43.209203","141.774641","0","3"
"01","北海道","01210","岩見沢市","012100013011","三条東十一丁目","43.209784","141.776353","0","3"
"01","北海道","01210","岩見沢市","012100013012","三条東十二丁目","43.210620","141.777768","0","3"
"01","北海道","01210","岩見沢市","012100013013","三条東十三丁目","43.211628","141.779587","0","3"
"01","北海道","01210","岩見沢市","012100013014","三条東十四丁目","43.212581","141.781453","0","3"
"01","北海道","01210","岩見沢市","012100013016","三条東十六丁目","43.217171","141.786804","0","3"
"01","北海道","01210","岩見沢市","012100013017","三条東十七丁目","43.218102","141.788897","0","3"
"01","北海道","01210","岩見沢市","012100013018","三条東十八丁目","43.219272","141.790842","0","3"
"01","北海道","01210","岩見沢市","012100013001","三条東一丁目","43.204554","141.766592","0","3"
"01","北海道","01210","岩見沢市","012100013002","三条東二丁目","43.205049","141.767543","0","3"
"01","北海道","01210","岩見沢市","012100013003","三条東三丁目","43.205443","141.768380","0","3"
"01","北海道","01210","岩見沢市","012100013004","三条東四丁目","43.205989","141.769526","0","3"
"01","北海道","01210","岩見沢市","012100013007","三条東七丁目","43.207716","141.771964","0","3"
"01","北海道","01210","岩見沢市","012100013008","三条東八丁目","43.208165","141.772330","0","3"
"01","北海道","01210","岩見沢市","012100013009","三条東九丁目","43.208267","141.773557","0","3"
"01","北海道","01210","岩見沢市","012100014010","四条西十丁目","43.199103","141.757886","0","3"
"01","北海道","01210","岩見沢市","012100014011","四条西十一丁目","43.198597","141.756839","0","3"
"01","北海道","01210","岩見沢市","012100014012","四条西十二丁目","43.198066","141.755768","0","3"
"01","北海道","01210","岩見沢市","012100014013","四条西十三丁目","43.198031","141.754582","0","3"
"01","北海道","01210","岩見沢市","012100014014","四条西十四丁目","43.197551","141.753682","0","3"
"01","北海道","01210","岩見沢市","012100014015","四条西十五丁目","43.197124","141.752614","0","3"
"01","北海道","01210","岩見沢市","012100014016","四条西十六丁目","43.196597","141.751794","0","3"
"01","北海道","01210","岩見沢市","012100014017","四条西十七丁目","43.196148","141.750893","0","3"
"01","北海道","01210","岩見沢市","012100014018","四条西十八丁目","43.195444","141.749694","0","3"
"01","北海道","01210","岩見沢市","012100014001","四条西一丁目","43.203299","141.766293","0","3"
"01","北海道","01210","岩見沢市","012100014002","四条西二丁目","43.202812","141.765313","0","3"
"01","北海道","01210","岩見沢市","012100014003","四条西三丁目","43.202347","141.764398","0","3"
"01","北海道","01210","岩見沢市","012100014004","四条西四丁目","43.201880","141.763460","0","3"
"01","北海道","01210","岩見沢市","012100014005","四条西五丁目","43.201410","141.762497","0","3"
"01","北海道","01210","岩見沢市","012100014006","四条西六丁目","43.200951","141.761567","0","3"
"01","北海道","01210","岩見沢市","012100014007","四条西七丁目","43.200517","141.760650","0","3"
"01","北海道","01210","岩見沢市","012100014008","四条西八丁目","43.200057","141.759736","0","3"
"01","北海道","01210","岩見沢市","012100014009","四条西九丁目","43.199584","141.758843","0","3"
"01","北海道","01210","岩見沢市","012100015010","四条東十丁目","43.208556","141.775243","0","3"
"01","北海道","01210","岩見沢市","012100015011","四条東十一丁目","43.209084","141.776964","0","3"
"01","北海道","01210","岩見沢市","012100015012","四条東十二丁目","43.210341","141.779114","0","3"
"01","北海道","01210","岩見沢市","012100015013","四条東十三丁目","43.210997","141.780421","0","3"
"01","北海道","01210","岩見沢市","012100015014","四条東十四丁目","43.211874","141.782122","0","3"
"01","北海道","01210","岩見沢市","012100015015","四条東十五丁目","43.212997","141.783269","0","3"
"01","北海道","01210","岩見沢市","012100015016","四条東十六丁目","43.214502","141.786309","0","3"
"01","北海道","01210","岩見沢市","012100015017","四条東十七丁目","43.216363","141.790020","0","3"
"01","北海道","01210","岩見沢市","012100015018","四条東十八丁目","43.217699","141.792880","0","3"
"01","北海道","01210","岩見沢市","012100015001","四条東一丁目","43.203847","141.767122","0","3"
"01","北海道","01210","岩見沢市","012100015002","四条東二丁目","43.204319","141.768240","0","3"
"01","北海道","01210","岩見沢市","012100015003","四条東三丁目","43.204758","141.769167","0","3"
"01","北海道","01210","岩見沢市","012100015004","四条東四丁目","43.205432","141.769915","0","3"
"01","北海道","01210","岩見沢市","012100015005","四条東五丁目","43.206090","141.770692","0","3"
"01","北海道","01210","岩見沢市","012100015006","四条東六丁目","43.206563","141.771491","0","3"
"01","北海道","01210","岩見沢市","012100015007","四条東七丁目","43.206997","141.772538","0","3"
"01","北海道","01210","岩見沢市","012100015008","四条東八丁目","43.207540","141.772904","0","3"
"01","北海道","01210","岩見沢市","012100015009","四条東九丁目","43.207561","141.774281","0","3"
"01","北海道","01210","岩見沢市","012100016010","五条西十丁目","43.198331","141.758604","0","3"
"01","北海道","01210","岩見沢市","012100016011","五条西十一丁目","43.197739","141.757466","0","3"
"01","北海道","01210","岩見沢市","012100016012","五条西十二丁目","43.197306","141.756599","0","3"
"01","北海道","01210","岩見沢市","012100016013","五条西十三丁目","43.197247","141.755322","0","3"
"01","北海道","01210","岩見沢市","012100016014","五条西十四丁目","43.196767","141.754412","0","3"
"01","北海道","01210","岩見沢市","012100016015","五条西十五丁目","43.196284","141.753463","0","3"
"01","北海道","01210","岩見沢市","012100016016","五条西十六丁目","43.195810","141.752524","0","3"
"01","北海道","01210","岩見沢市","012100016017","五条西十七丁目","43.195351","141.751618","0","3"
"01","北海道","01210","岩見沢市","012100016018","五条西十八丁目","43.194875","141.750665","0","3"
"01","北海道","01210","岩見沢市","012100016019","五条西十九丁目","43.194253","141.749675","0","3"
"01","北海道","01210","岩見沢市","012100016001","五条西一丁目","43.202599","141.766961","0","3"
"01","北海道","01210","岩見沢市","012100016002","五条西二丁目","43.202118","141.765971","0","3"
"01","北海道","01210","岩見沢市","012100016003","五条西三丁目","43.201604","141.764960","0","3"
"01","北海道","01210","岩見沢市","012100016004","五条西四丁目","43.201146","141.764131","0","3"
"01","北海道","01210","岩見沢市","012100016005","五条西五丁目","43.200618","141.763206","0","3"
"01","北海道","01210","岩見沢市","012100016006","五条西六丁目","43.200160","141.762272","0","3"
"01","北海道","01210","岩見沢市","012100016007","五条西七丁目","43.199718","141.761231","0","3"
"01","北海道","01210","岩見沢市","012100016008","五条西八丁目","43.199318","141.760556","0","3"
"01","北海道","01210","岩見沢市","012100016009","五条西九丁目","43.198810","141.759550","0","3"
"01","北海道","01210","岩見沢市","012100017010","五条東十丁目","43.207663","141.776013","0","3"
"01","北海道","01210","岩見沢市","012100017011","五条東十一丁目","43.208147","141.777831","0","3"
"01","北海道","01210","岩見沢市","012100017012","五条東十二丁目","43.209118","141.779915","0","3"
"01","北海道","01210","岩見沢市","012100017013","五条東十三丁目","43.209863","141.781441","0","3"
"01","北海道","01210","岩見沢市","012100017014","五条東十四丁目","43.210838","141.782987","0","3"
"01","北海道","01210","岩見沢市","012100017015","五条東十五丁目","43.211917","141.785464","0","3"
"01","北海道","01210","岩見沢市","012100017016","五条東十六丁目","43.213578","141.788327","0","3"
"01","北海道","01210","岩見沢市","012100017017","五条東十七丁目","43.214315","141.791562","0","3"
"01","北海道","01210","岩見沢市","012100017018","五条東十八丁目","43.215392","141.794622","0","3"
"01","北海道","01210","岩見沢市","012100017001","五条東一丁目","43.203097","141.767991","0","3"
"01","北海道","01210","岩見沢市","012100017002","五条東二丁目","43.203399","141.769127","0","3"
"01","北海道","01210","岩見沢市","012100017003","五条東三丁目","43.203910","141.769985","0","3"
"01","北海道","01210","岩見沢市","012100017004","五条東四丁目","43.204792","141.770379","0","3"
"01","北海道","01210","岩見沢市","012100017005","五条東五丁目","43.205320","141.771404","0","3"
"01","北海道","01210","岩見沢市","012100017006","五条東六丁目","43.205904","141.772401","0","3"
"01","北海道","01210","岩見沢市","012100017007","五条東七丁目","43.206389","141.773402","0","3"
"01","北海道","01210","岩見沢市","012100017008","五条東八丁目","43.206358","141.774844","0","3"
"01","北海道","01210","岩見沢市","012100018010","六条西十丁目","43.197454","141.759438","0","3"
"01","北海道","01210","岩見沢市","012100018011","六条西十一丁目","43.196937","141.758420","0","3"
"01","北海道","01210","岩見沢市","012100018012","六条西十二丁目","43.196433","141.757441","0","3"
"01","北海道","01210","岩見沢市","012100018013","六条西十三丁目","43.196259","141.756380","0","3"
"01","北海道","01210","岩見沢市","012100018014","六条西十四丁目","43.195705","141.755445","0","3"
"01","北海道","01210","岩見沢市","012100018015","六条西十五丁目","43.195214","141.754505","0","3"
"01","北海道","01210","岩見沢市","012100018016","六条西十六丁目","43.194745","141.753507","0","3"
"01","北海道","01210","岩見沢市","012100018017","六条西十七丁目","43.194636","141.752302","0","3"
"01","北海道","01210","岩見沢市","012100018018","六条西十八丁目","43.194156","141.751361","0","3"
"01","北海道","01210","岩見沢市","012100018019","六条西十九丁目","43.193681","141.750455","0","3"
"01","北海道","01210","岩見沢市","012100018001","六条西一丁目","43.201822","141.767698","0","3"
"01","北海道","01210","岩見沢市","012100018020","六条西二十丁目","43.192990","141.749374","0","3"
"01","北海道","01210","岩見沢市","012100018002","六条西二丁目","43.201226","141.766805","0","3"
"01","北海道","01210","岩見沢市","012100018003","六条西三丁目","43.200775","141.765871","0","3"
"01","北海道","01210","岩見沢市","012100018004","六条西四丁目","43.200264","141.764967","0","3"
"01","北海道","01210","岩見沢市","012100018005","六条西五丁目","43.199728","141.764053","0","3"
"01","北海道","01210","岩見沢市","012100018006","六条西六丁目","43.199253","141.763125","0","3"
"01","北海道","01210","岩見沢市","012100018007","六条西七丁目","43.199033","141.762026","0","3"
"01","北海道","01210","岩見沢市","012100018008","六条西八丁目","43.198379","141.761300","0","3"
"01","北海道","01210","岩見沢市","012100018009","六条西九丁目","43.197920","141.760392","0","3"
"01","北海道","01210","岩見沢市","012100019010","六条東十丁目","43.206577","141.776975","0","3"
"01","北海道","01210","岩見沢市","012100019011","六条東十一丁目","43.206623","141.779055","0","3"
"01","北海道","01210","岩見沢市","012100019012","六条東十二丁目","43.207596","141.780794","0","3"
"01","北海道","01210","岩見沢市","012100019013","六条東十三丁目","43.208397","141.782931","0","3"
"01","北海道","01210","岩見沢市","012100019014","六条東十四丁目","43.209377","141.784117","0","3"
"01","北海道","01210","岩見沢市","012100019001","六条東一丁目","43.202384","141.768671","0","3"
"01","北海道","01210","岩見沢市","012100019002","六条東二丁目","43.202748","141.769754","0","3"
"01","北海道","01210","岩見沢市","012100019003","六条東三丁目","43.202947","141.770768","0","3"
"01","北海道","01210","岩見沢市","012100019004","六条東四丁目","43.203757","141.771791","0","3"
"01","北海道","01210","岩見沢市","012100019005","六条東五丁目","43.204639","141.772034","0","3"
"01","北海道","01210","岩見沢市","012100019006","六条東六丁目","43.204608","141.773351","0","3"
"01","北海道","01210","岩見沢市","012100019007","六条東七丁目","43.205387","141.774635","0","3"
"01","北海道","01210","岩見沢市","012100019008","六条東八丁目","43.205173","141.775241","0","3"
"01","北海道","01210","岩見沢市","012100019009","六条東九丁目","43.205645","141.776141","0","3"
"01","北海道","01210","岩見沢市","012100020010","七条西十丁目","43.196204","141.760625","0","3"
"01","北海道","01210","岩見沢市","012100020011","七条西十一丁目","43.195707","141.759633","0","3"
"01","北海道","01210","岩見沢市","012100020012","七条西十二丁目","43.195205","141.758623","0","3"
"01","北海道","01210","岩見沢市","012100020013","七条西十三丁目","43.194725","141.757668","0","3"
"01","北海道","01210","岩見沢市","012100020014","七条西十四丁目","43.194293","141.756816","0","3"
"01","北海道","01210","岩見沢市","012100020015","七条西十五丁目","43.193804","141.755849","0","3"
"01","北海道","01210","岩見沢市","012100020016","七条西十六丁目","43.193267","141.754800","0","3"
"01","北海道","01210","岩見沢市","012100020017","七条西十七丁目","43.193647","141.753383","0","3"
"01","北海道","01210","岩見沢市","012100020018","七条西十八丁目","43.193104","141.752356","0","3"
"01","北海道","01210","岩見沢市","012100020019","七条西十九丁目","43.192622","141.751463","0","3"
"01","北海道","01210","岩見沢市","012100020001","七条西一丁目","43.200576","141.768676","0","3"
"01","北海道","01210","岩見沢市","012100020020","七条西二十丁目","43.192124","141.750513","0","3"
"01","北海道","01210","岩見沢市","012100020021","七条西二十一丁目","43.191645","141.749298","0","3"
"01","北海道","01210","岩見沢市","012100020022","七条西二十二丁目","43.190732","141.748860","0","3"
"01","北海道","01210","岩見沢市","012100020002","七条西二丁目","43.199919","141.768146","0","3"
"01","北海道","01210","岩見沢市","012100020003","七条西三丁目","43.199503","141.767089","0","3"
"01","北海道","01210","岩見沢市","012100020004","七条西四丁目","43.199003","141.766175","0","3"
"01","北海道","01210","岩見沢市","012100020005","七条西五丁目","43.198505","141.765209","0","3"
"01","北海道","01210","岩見沢市","012100020006","七条西六丁目","43.198031","141.764266","0","3"
"01","北海道","01210","岩見沢市","012100020007","七条西七丁目","43.197617","141.763372","0","3"
"01","北海道","01210","岩見沢市","012100020008","七条西八丁目","43.197181","141.762566","0","3"
"01","北海道","01210","岩見沢市","012100020009","七条西九丁目","43.196674","141.761566","0","3"
"01","北海道","01210","岩見沢市","012100021010","七条東十丁目","43.205507","141.777852","0","3"
"01","北海道","01210","岩見沢市","012100021011","七条東十一丁目","43.205244","141.780139","0","3"
"01","北海道","01210","岩見沢市","012100021012","七条東十二丁目","43.205854","141.782185","0","3"
"01","北海道","01210","岩見沢市","012100021013","七条東十三丁目","43.207055","141.783776","0","3"
"01","北海道","01210","岩見沢市","012100021014","七条東十四丁目","43.207626","141.784726","0","3"
"01","北海道","01210","岩見沢市","012100021001","七条東一丁目","43.201075","141.769878","0","3"
"01","北海道","01210","岩見沢市","012100021002","七条東二丁目","43.201670","141.770762","0","3"
"01","北海道","01210","岩見沢市","012100021003","七条東三丁目","43.201860","141.771656","0","3"
"01","北海道","01210","岩見沢市","012100021004","七条東四丁目","43.202341","141.772792","0","3"
"01","北海道","01210","岩見沢市","012100021005","七条東五丁目","43.202788","141.773114","0","3"
"01","北海道","01210","岩見沢市","012100021006","七条東六丁目","43.203411","141.774629","0","3"
"01","北海道","01210","岩見沢市","012100021007","七条東七丁目","43.203383","141.775737","0","3"
"01","北海道","01210","岩見沢市","012100021008","七条東八丁目","43.203828","141.776801","0","3"
"01","北海道","01210","岩見沢市","012100021009","七条東九丁目","43.204598","141.777357","0","3"
"01","北海道","01210","岩見沢市","012100022010","八条西十丁目","43.195124","141.761630","0","3"
"01","北海道","01210","岩見沢市","012100022011","八条西十一丁目","43.194625","141.760649","0","3"
"01","北海道","01210","岩見沢市","012100022012","八条西十二丁目","43.194128","141.759677","0","3"
"01","北海道","01210","岩見沢市","012100022013","八条西十三丁目","43.193648","141.758732","0","3"
"01","北海道","01210","岩見沢市","012100022014","八条西十四丁目","43.193203","141.757862","0","3"
"01","北海道","01210","岩見沢市","012100022015","八条西十五丁目","43.192723","141.756926","0","3"
"01","北海道","01210","岩見沢市","012100022016","八条西十六丁目","43.192230","141.755958","0","3"
"01","北海道","01210","岩見沢市","012100022017","八条西十七丁目","43.192155","141.754659","0","3"
"01","北海道","01210","岩見沢市","012100022018","八条西十八丁目","43.191667","141.753717","0","3"
"01","北海道","01210","岩見沢市","012100022019","八条西十九丁目","43.191193","141.752802","0","3"
"01","北海道","01210","岩見沢市","012100022001","八条西一丁目","43.199695","141.770031","0","3"
"01","北海道","01210","岩見沢市","012100022020","八条西二十丁目","43.190705","141.751845","0","3"
"01","北海道","01210","岩見沢市","012100022021","八条西二十一丁目","43.190167","141.750790","0","3"
"01","北海道","01210","岩見沢市","012100022022","八条西二十二丁目","43.189686","141.749865","0","3"
"01","北海道","01210","岩見沢市","012100022023","八条西二十三丁目","43.189090","141.748731","0","3"
"01","北海道","01210","岩見沢市","012100022002","八条西二丁目","43.198940","141.769088","0","3"
"01","北海道","01210","岩見沢市","012100022003","八条西三丁目","43.198447","141.768111","0","3"
"01","北海道","01210","岩見沢市","012100022004","八条西四丁目","43.197959","141.767174","0","3"
"01","北海道","01210","岩見沢市","012100022005","八条西五丁目","43.197340","141.766183","0","3"
"01","北海道","01210","岩見沢市","012100022006","八条西六丁目","43.196979","141.765263","0","3"
"01","北海道","01210","岩見沢市","012100022007","八条西七丁目","43.196618","141.764391","0","3"
"01","北海道","01210","岩見沢市","012100022008","八条西八丁目","43.196054","141.763456","0","3"
"01","北海道","01210","岩見沢市","012100022009","八条西九丁目","43.195605","141.762572","0","3"
"01","北海道","01210","岩見沢市","012100023010","八条東十丁目","43.202818","141.780099","0","3"
"01","北海道","01210","岩見沢市","012100023011","八条東十一丁目","43.204200","141.781701","0","3"
"01","北海道","01210","岩見沢市","012100023012","八条東十二丁目","43.205560","141.783770","0","3"
"01","北海道","01210","岩見沢市","012100023001","八条東一丁目","43.199870","141.771022","0","3"
"01","北海道","01210","岩見沢市","012100023002","八条東二丁目","43.200362","141.771988","0","3"
"01","北海道","01210","岩見沢市","012100023003","八条東三丁目","43.200956","141.772839","0","3"
"01","北海道","01210","岩見沢市","012100023004","八条東四丁目","43.201161","141.773869","0","3"
"01","北海道","01210","岩見沢市","012100023005","八条東五丁目","43.201703","141.774678","0","3"
"01","北海道","01210","岩見沢市","012100023006","八条東六丁目","43.202326","141.775557","0","3"
"01","北海道","01210","岩見沢市","012100024010","九条西十丁目","43.194074","141.762611","0","3"
"01","北海道","01210","岩見沢市","012100024011","九条西十一丁目","43.193569","141.761636","0","3"
"01","北海道","01210","岩見沢市","012100024012","九条西十二丁目","43.193078","141.760703","0","3"
"01","北海道","01210","岩見沢市","012100024013","九条西十三丁目","43.192597","141.759764","0","3"
"01","北海道","01210","岩見沢市","012100024014","九条西十四丁目","43.192144","141.758868","0","3"
"01","北海道","01210","岩見沢市","012100024015","九条西十五丁目","43.191643","141.757803","0","3"
"01","北海道","01210","岩見沢市","012100024016","九条西十六丁目","43.191180","141.756966","0","3"
"01","北海道","01210","岩見沢市","012100024017","九条西十七丁目","43.190508","141.756232","0","3"
"01","北海道","01210","岩見沢市","012100024018","九条西十八丁目","43.190272","141.755044","0","3"
"01","北海道","01210","岩見沢市","012100024019","九条西十九丁目","43.189864","141.754065","0","3"
"01","北海道","01210","岩見沢市","012100024001","九条西一丁目","43.198252","141.771068","0","3"
"01","北海道","01210","岩見沢市","012100024020","九条西二十丁目","43.189350","141.753130","0","3"
"01","北海道","01210","岩見沢市","012100024021","九条西二十一丁目","43.188979","141.752042","0","3"
"01","北海道","01210","岩見沢市","012100024022","九条西二十二丁目","43.188670","141.750825","0","3"
"01","北海道","01210","岩見沢市","012100024023","九条西二十三丁目","43.188213","141.749550","0","3"
"01","北海道","01210","岩見沢市","012100024002","九条西二丁目","43.197912","141.770072","0","3"
"01","北海道","01210","岩見沢市","012100024003","九条西三丁目","43.197396","141.769115","0","3"
"01","北海道","01210","岩見沢市","012100024004","九条西四丁目","43.196920","141.768161","0","3"
"01","北海道","01210","岩見沢市","012100024005","九条西五丁目","43.196438","141.767170","0","3"
"01","北海道","01210","岩見沢市","012100024006","九条西六丁目","43.195950","141.766241","0","3"
"01","北海道","01210","岩見沢市","012100024007","九条西七丁目","43.195486","141.765337","0","3"
"01","北海道","01210","岩見沢市","012100024008","九条西八丁目","43.195022","141.764438","0","3"
"01","北海道","01210","岩見沢市","012100024009","九条西九丁目","43.194566","141.763558","0","3"
"01","北海道","01210","岩見沢市","012100025001","九条東一丁目","43.198891","141.771969","0","3"
"01","北海道","01210","岩見沢市","012100025002","九条東二丁目","43.199833","141.773851","0","3"
"01","北海道","01210","岩見沢市","012100025005","九条東五丁目","43.200769","141.775716","0","3"
"01","北海道","01210","岩見沢市","012100025006","九条東六丁目","43.201273","141.776710","0","3"
"01","北海道","01210","岩見沢市","012100025007","九条東七丁目","43.201691","141.777589","0","3"
"01","北海道","01210","岩見沢市","012100025008","九条東八丁目","43.202311","141.778198","0","3"
"01","北海道","01210","岩見沢市","012100025009","九条東九丁目","43.203731","141.779093","0","3"
"01","北海道","01210","岩見沢市","012100026000","朝日町","43.170359","141.876840","0","1"
"01","北海道","01210","岩見沢市","012100027000","有明町中央","43.204594","141.756864","0","1"
"01","北海道","01210","岩見沢市","012100028000","有明町南","43.203852","141.759587","0","1"
"01","北海道","01210","岩見沢市","012100029000","大願町","43.264713","141.767172","0","1"
"01","北海道","01210","岩見沢市","012100030000","岡山町","43.243780","141.797405","0","1"
"01","北海道","01210","岩見沢市","012100031000","御茶の水町","43.179252","141.685881","0","1"
"01","北海道","01210","岩見沢市","012100032001","かえで町一丁目","43.200874","141.789631","0","3"
"01","北海道","01210","岩見沢市","012100032002","かえで町二丁目","43.200190","141.791632","0","3"
"01","北海道","01210","岩見沢市","012100032003","かえで町三丁目","43.201524","141.791765","0","3"
"01","北海道","01210","岩見沢市","012100032004","かえで町四丁目","43.203527","141.791568","0","3"
"01","北海道","01210","岩見沢市","012100032005","かえで町五丁目","43.203152","141.793665","0","3"
"01","北海道","01210","岩見沢市","012100032006","かえで町六丁目","43.201744","141.793990","0","3"
"01","北海道","01210","岩見沢市","012100032007","かえで町七丁目","43.200362","141.794132","0","3"
"01","北海道","01210","岩見沢市","012100032008","かえで町八丁目","43.201145","141.796421","0","3"
"01","北海道","01210","岩見沢市","012100033001","春日町一丁目","43.188893","141.771564","0","3"
"01","北海道","01210","岩見沢市","012100033002","春日町二丁目","43.190621","141.775489","0","3"
"01","北海道","01210","岩見沢市","012100033003","春日町三丁目","43.189467","141.777192","0","3"
"01","北海道","01210","岩見沢市","012100033004","春日町四丁目","43.189911","141.780790","0","3"
"01","北海道","01210","岩見沢市","012100034000","金子町","43.165518","141.726039","0","1"
"01","北海道","01210","岩見沢市","012100035000","上志文町","43.168853","141.836506","0","1"
"01","北海道","01210","岩見沢市","012100036001","上幌向北一条一丁目","43.187399","141.721933","0","3"
"01","北海道","01210","岩見沢市","012100036002","上幌向北一条二丁目","43.185822","141.718807","0","3"
"01","北海道","01210","岩見沢市","012100036003","上幌向北一条三丁目","43.184230","141.715739","0","3"
"01","北海道","01210","岩見沢市","012100036004","上幌向北一条四丁目","43.182582","141.712520","0","3"
"01","北海道","01210","岩見沢市","012100036005","上幌向北一条五丁目","43.181156","141.709599","0","3"
"01","北海道","01210","岩見沢市","012100036006","上幌向北一条六丁目","43.179861","141.707096","0","3"
"01","北海道","01210","岩見沢市","012100037000","上幌向町","43.195767","141.703126","0","1"
"01","北海道","01210","岩見沢市","012100038001","上幌向南一条一丁目","43.186343","141.726375","0","3"
"01","北海道","01210","岩見沢市","012100038002","上幌向南一条二丁目","43.183243","141.720987","0","3"
"01","北海道","01210","岩見沢市","012100038003","上幌向南一条三丁目","43.181509","141.717897","0","3"
"01","北海道","01210","岩見沢市","012100038004","上幌向南一条四丁目","43.179469","141.715166","0","3"
"01","北海道","01210","岩見沢市","012100038005","上幌向南一条五丁目","43.178699","141.712442","0","3"
"01","北海道","01210","岩見沢市","012100038006","上幌向南一条六丁目","43.177387","141.709800","0","3"
"01","北海道","01210","岩見沢市","012100039005","上幌向南二条五丁目","43.177054","141.713889","0","3"
"01","北海道","01210","岩見沢市","012100039006","上幌向南二条六丁目","43.175304","141.712227","0","3"
"01","北海道","01210","岩見沢市","012100039007","上幌向南二条七丁目","43.174097","141.709400","0","3"
"01","北海道","01210","岩見沢市","012100039008","上幌向南二条八丁目","43.173142","141.707526","0","3"
"01","北海道","01210","岩見沢市","012100039009","上幌向南二条九丁目","43.172321","141.705816","0","3"
"01","北海道","01210","岩見沢市","012100040006","上幌向南三条六丁目","43.173208","141.713332","0","3"
"01","北海道","01210","岩見沢市","012100040007","上幌向南三条七丁目","43.171412","141.711557","0","3"
"01","北海道","01210","岩見沢市","012100041011","北一条西十一丁目","43.202040","141.752884","0","3"
"01","北海道","01210","岩見沢市","012100041013","北一条西十三丁目","43.201274","141.751076","0","3"
"01","北海道","01210","岩見沢市","012100041014","北一条西十四丁目","43.200709","141.750149","0","3"
"01","北海道","01210","岩見沢市","012100041015","北一条西十五丁目","43.200878","141.748933","0","3"
"01","北海道","01210","岩見沢市","012100041016","北一条西十六丁目","43.199953","141.748703","0","3"
"01","北海道","01210","岩見沢市","012100041017","北一条西十七丁目","43.199413","141.747763","0","3"
"01","北海道","01210","岩見沢市","012100041018","北一条西十八丁目","43.199012","141.746679","0","3"
"01","北海道","01210","岩見沢市","012100041019","北一条西十九丁目","43.198559","141.745804","0","3"
"01","北海道","01210","岩見沢市","012100041020","北一条西二十丁目","43.198067","141.744858","0","3"
"01","北海道","01210","岩見沢市","012100041002","北一条西二丁目","43.206682","141.760307","0","3"
"01","北海道","01210","岩見沢市","012100041003","北一条西三丁目","43.206927","141.761265","0","3"
"01","北海道","01210","岩見沢市","012100042010","北二条西十丁目","43.204677","141.752559","0","3"
"01","北海道","01210","岩見沢市","012100042011","北二条西十一丁目","43.203821","141.751864","0","3"
"01","北海道","01210","岩見沢市","012100042012","北二条西十二丁目","43.203294","141.751048","0","3"
"01","北海道","01210","岩見沢市","012100042013","北二条西十三丁目","43.202838","141.749774","0","3"
"01","北海道","01210","岩見沢市","012100042014","北二条西十四丁目","43.202254","141.748802","0","3"
"01","北海道","01210","岩見沢市","012100042015","北二条西十五丁目","43.201849","141.747884","0","3"
"01","北海道","01210","岩見沢市","012100042016","北二条西十六丁目","43.201380","141.746978","0","3"
"01","北海道","01210","岩見沢市","012100042017","北二条西十七丁目","43.200911","141.746139","0","3"
"01","北海道","01210","岩見沢市","012100042018","北二条西十八丁目","43.200509","141.745294","0","3"
"01","北海道","01210","岩見沢市","012100042019","北二条西十九丁目","43.200065","141.744443","0","3"
"01","北海道","01210","岩見沢市","012100042020","北二条西二十丁目","43.199515","141.743547","0","3"
"01","北海道","01210","岩見沢市","012100042002","北二条西二丁目","43.208372","141.761267","0","3"
"01","北海道","01210","岩見沢市","012100042003","北二条西三丁目","43.207710","141.759205","0","3"
"01","北海道","01210","岩見沢市","012100042004","北二条西四丁目","43.207524","141.758098","0","3"
"01","北海道","01210","岩見沢市","012100042005","北二条西五丁目","43.207044","141.757152","0","3"
"01","北海道","01210","岩見沢市","012100042006","北二条西六丁目","43.206678","141.756197","0","3"
"01","北海道","01210","岩見沢市","012100042007","北二条西七丁目","43.206140","141.755290","0","3"
"01","北海道","01210","岩見沢市","012100042008","北二条西八丁目","43.205639","141.754419","0","3"
"01","北海道","01210","岩見沢市","012100042009","北二条西九丁目","43.205173","141.753532","0","3"
"01","北海道","01210","岩見沢市","012100043010","北三条西十丁目","43.205825","141.751461","0","3"
"01","北海道","01210","岩見沢市","012100043011","北三条西十一丁目","43.205435","141.750241","0","3"
"01","北海道","01210","岩見沢市","012100043012","北三条西十二丁目","43.204894","141.749466","0","3"
"01","北海道","01210","岩見沢市","012100043013","北三条西十三丁目","43.204433","141.748302","0","3"
"01","北海道","01210","岩見沢市","012100043014","北三条西十四丁目","43.203714","141.747404","0","3"
"01","北海道","01210","岩見沢市","012100043015","北三条西十五丁目","43.203290","141.746517","0","3"
"01","北海道","01210","岩見沢市","012100043016","北三条西十六丁目","43.202789","141.745629","0","3"
"01","北海道","01210","岩見沢市","012100043017","北三条西十七丁目","43.202312","141.744723","0","3"
"01","北海道","01210","岩見沢市","012100043018","北三条西十八丁目","43.201830","141.743823","0","3"
"01","北海道","01210","岩見沢市","012100043019","北三条西十九丁目","43.201431","141.742803","0","3"
"01","北海道","01210","岩見沢市","012100043020","北三条西二十丁目","43.200948","141.742018","0","3"
"01","北海道","01210","岩見沢市","012100043003","北三条西三丁目","43.209105","141.757521","0","3"
"01","北海道","01210","岩見沢市","012100043004","北三条西四丁目","43.208567","141.756871","0","3"
"01","北海道","01210","岩見沢市","012100043005","北三条西五丁目","43.208010","141.755837","0","3"
"01","北海道","01210","岩見沢市","012100043006","北三条西六丁目","43.207539","141.754916","0","3"
"01","北海道","01210","岩見沢市","012100043007","北三条西七丁目","43.207143","141.754205","0","3"
"01","北海道","01210","岩見沢市","012100043008","北三条西八丁目","43.206836","141.753274","0","3"
"01","北海道","01210","岩見沢市","012100043009","北三条西九丁目","43.206367","141.752385","0","3"
"01","北海道","01210","岩見沢市","012100044010","北四条西十丁目","43.207263","141.750128","0","3"
"01","北海道","01210","岩見沢市","012100044011","北四条西十一丁目","43.206700","141.748984","0","3"
"01","北海道","01210","岩見沢市","012100044012","北四条西十二丁目","43.206317","141.747916","0","3"
"01","北海道","01210","岩見沢市","012100044013","北四条西十三丁目","43.205693","141.747156","0","3"
"01","北海道","01210","岩見沢市","012100044014","北四条西十四丁目","43.205180","141.746057","0","3"
"01","北海道","01210","岩見沢市","012100044015","北四条西十五丁目","43.204714","141.745187","0","3"
"01","北海道","01210","岩見沢市","012100044016","北四条西十六丁目","43.204224","141.744295","0","3"
"01","北海道","01210","岩見沢市","012100044017","北四条西十七丁目","43.203909","141.743235","0","3"
"01","北海道","01210","岩見沢市","012100044018","北四条西十八丁目","43.203288","141.742445","0","3"
"01","北海道","01210","岩見沢市","012100044019","北四条西十九丁目","43.202964","141.741389","0","3"
"01","北海道","01210","岩見沢市","012100044020","北四条西二十丁目","43.202402","141.740687","0","3"
"01","北海道","01210","岩見沢市","012100044004","北四条西四丁目","43.209438","141.755763","0","3"
"01","北海道","01210","岩見沢市","012100044005","北四条西五丁目","43.209263","141.754462","0","3"
"01","北海道","01210","岩見沢市","012100044006","北四条西六丁目","43.209074","141.753672","0","3"
"01","北海道","01210","岩見沢市","012100044007","北四条西七丁目","43.208717","141.752925","0","3"
"01","北海道","01210","岩見沢市","012100044008","北四条西八丁目","43.208204","141.751922","0","3"
"01","北海道","01210","岩見沢市","012100044009","北四条西九丁目","43.207708","141.751041","0","3"
"01","北海道","01210","岩見沢市","012100045010","北五条西十丁目","43.208999","141.748294","0","3"
"01","北海道","01210","岩見沢市","012100045011","北五条西十一丁目","43.208293","141.747353","0","3"
"01","北海道","01210","岩見沢市","012100045012","北五条西十二丁目","43.207737","141.746312","0","3"
"01","北海道","01210","岩見沢市","012100045013","北五条西十三丁目","43.206987","141.745780","0","3"
"01","北海道","01210","岩見沢市","012100045014","北五条西十四丁目","43.206483","141.744864","0","3"
"01","北海道","01210","岩見沢市","012100045015","北五条西十五丁目","43.206056","141.743953","0","3"
"01","北海道","01210","岩見沢市","012100045016","北五条西十六丁目","43.205542","141.743154","0","3"
"01","北海道","01210","岩見沢市","012100045017","北五条西十七丁目","43.205121","141.742067","0","3"
"01","北海道","01210","岩見沢市","012100045018","北五条西十八丁目","43.204582","141.741207","0","3"
"01","北海道","01210","岩見沢市","012100045019","北五条西十九丁目","43.204123","141.740075","0","3"
"01","北海道","01210","岩見沢市","012100045020","北五条西二十丁目","43.203715","141.739206","0","3"
"01","北海道","01210","岩見沢市","012100045006","北五条西六丁目","43.210129","141.753065","0","3"
"01","北海道","01210","岩見沢市","012100045007","北五条西七丁目","43.209856","141.751897","0","3"
"01","北海道","01210","岩見沢市","012100045008","北五条西八丁目","43.209616","141.750275","0","3"
"01","北海道","01210","岩見沢市","012100045009","北五条西九丁目","43.209572","141.749125","0","3"
"01","北海道","01210","岩見沢市","012100046016","北六条西十六丁目","43.206704","141.742292","0","3"
"01","北海道","01210","岩見沢市","012100046017","北六条西十七丁目","43.206513","141.740807","0","3"
"01","北海道","01210","岩見沢市","012100046018","北六条西十八丁目","43.206160","141.739779","0","3"
"01","北海道","01210","岩見沢市","012100046019","北六条西十九丁目","43.205741","141.738597","0","3"
"01","北海道","01210","岩見沢市","012100046020","北六条西二十丁目","43.205405","141.737633","0","3"
"01","北海道","01210","岩見沢市","012100047001","北本町西一丁目","43.209876","141.760029","0","3"
"01","北海道","01210","岩見沢市","012100047002","北本町西二丁目","43.210088","141.758462","0","3"
"01","北海道","01210","岩見沢市","012100047003","北本町西三丁目","43.209219","141.758075","0","3"
"01","北海道","01210","岩見沢市","012100048010","北本町東十丁目","43.215116","141.769596","0","3"
"01","北海道","01210","岩見沢市","012100048001","北本町東一丁目","43.210213","141.761610","0","3"
"01","北海道","01210","岩見沢市","012100048002","北本町東二丁目","43.210610","141.762608","0","3"
"01","北海道","01210","岩見沢市","012100048003","北本町東三丁目","43.211098","141.763201","0","3"
"01","北海道","01210","岩見沢市","012100048004","北本町東四丁目","43.211845","141.763794","0","3"
"01","北海道","01210","岩見沢市","012100048005","北本町東五丁目","43.212539","141.764560","0","3"
"01","北海道","01210","岩見沢市","012100048006","北本町東六丁目","43.213068","141.765444","0","3"
"01","北海道","01210","岩見沢市","012100048007","北本町東七丁目","43.213386","141.766632","0","3"
"01","北海道","01210","岩見沢市","012100048008","北本町東八丁目","43.213964","141.767449","0","3"
"01","北海道","01210","岩見沢市","012100048009","北本町東九丁目","43.214631","141.767933","0","3"
"01","北海道","01210","岩見沢市","012100049000","北村赤川","43.250716","141.716186","0","1"
"01","北海道","01210","岩見沢市","012100050000","北村大願","43.279266","141.732134","0","1"
"01","北海道","01210","岩見沢市","012100051000","北村栄町","43.272888","141.704075","0","1"
"01","北海道","01210","岩見沢市","012100052000","北村砂浜","43.171595","141.636994","0","1"
"01","北海道","01210","岩見沢市","012100053000","北村中央","43.248635","141.679887","0","1"
"01","北海道","01210","岩見沢市","012100054000","北村豊里","43.281696","141.680924","0","1"
"01","北海道","01210","岩見沢市","012100055000","北村中小屋","43.295663","141.753809","0","1"
"01","北海道","01210","岩見沢市","012100056000","北村美唄達布","43.226182","141.688672","0","1"
"01","北海道","01210","岩見沢市","012100057000","北村豊正","43.311301","141.696904","0","1"
"01","北海道","01210","岩見沢市","012100058000","北村北都","43.264826","141.670384","0","1"
"01","北海道","01210","岩見沢市","012100059000","北村幌達布","43.205830","141.668797","0","1"
"01","北海道","01210","岩見沢市","012100060000","栗沢町越前","43.111383","141.690232","0","1"
"01","北海道","01210","岩見沢市","012100061000","栗沢町上幌","43.142464","141.823603","0","1"
"01","北海道","01210","岩見沢市","012100062000","栗沢町加茂川","43.101425","141.766680","0","1"
"01","北海道","01210","岩見沢市","012100063000","栗沢町北幸穂","43.130177","141.744856","0","1"
"01","北海道","01210","岩見沢市","012100064000","栗沢町北本町","43.123116","141.742413","0","1"
"01","北海道","01210","岩見沢市","012100065000","栗沢町岐阜","43.095740","141.709368","0","1"
"01","北海道","01210","岩見沢市","012100066000","栗沢町栗丘","43.088272","141.763021","0","1"
"01","北海道","01210","岩見沢市","012100067000","栗沢町栗部","43.148819","141.731278","0","1"
"01","北海道","01210","岩見沢市","012100068000","栗沢町耕成","43.149095","141.748037","0","1"
"01","北海道","01210","岩見沢市","012100069000","栗沢町小西","43.101843","141.730070","0","1"
"01","北海道","01210","岩見沢市","012100070000","栗沢町幸穂町","43.117261","141.745071","0","1"
"01","北海道","01210","岩見沢市","012100071000","栗沢町自協","43.114701","141.708146","0","1"
"01","北海道","01210","岩見沢市","012100072000","栗沢町砺波","43.135641","141.728188","0","1"
"01","北海道","01210","岩見沢市","012100073000","栗沢町西本町","43.117829","141.738536","0","1"
"01","北海道","01210","岩見沢市","012100074000","栗沢町西万字","43.121024","141.978416","0","1"
"01","北海道","01210","岩見沢市","012100075000","栗沢町東本町","43.121163","141.745941","0","1"
"01","北海道","01210","岩見沢市","012100076000","栗沢町必成","43.119743","141.727107","0","1"
"01","北海道","01210","岩見沢市","012100077000","栗沢町北斗","43.134577","141.680938","0","1"
"01","北海道","01210","岩見沢市","012100078000","栗沢町本町","43.119254","141.741917","0","1"
"01","北海道","01210","岩見沢市","012100079000","栗沢町万字曙町","43.138320","141.988458","0","1"
"01","北海道","01210","岩見沢市","012100080000","栗沢町万字旭町","43.123565","141.990683","0","1"
"01","北海道","01210","岩見沢市","012100081000","栗沢町万字大平","43.149623","141.970666","0","1"
"01","北海道","01210","岩見沢市","012100082000","栗沢町万字寿町","43.135248","141.986658","0","1"
"01","北海道","01210","岩見沢市","012100083000","栗沢町万字幸町","43.130707","142.015112","0","1"
"01","北海道","01210","岩見沢市","012100084000","栗沢町万字巴町","43.144041","141.979287","0","1"
"01","北海道","01210","岩見沢市","012100085000","栗沢町万字仲町","43.144331","141.983364","0","1"
"01","北海道","01210","岩見沢市","012100086000","栗沢町万字錦町","43.133171","141.988907","0","1"
"01","北海道","01210","岩見沢市","012100087000","栗沢町万字西原町","43.134050","141.993276","0","1"
"01","北海道","01210","岩見沢市","012100088000","栗沢町万字英町","43.139002","141.984032","0","1"
"01","北海道","01210","岩見沢市","012100089000","栗沢町万字二見町","43.114491","141.990439","0","1"
"01","北海道","01210","岩見沢市","012100090000","栗沢町万字睦町","43.141359","141.983121","0","1"
"01","北海道","01210","岩見沢市","012100091000","栗沢町南幸穂","43.113302","141.743097","0","1"
"01","北海道","01210","岩見沢市","012100092000","栗沢町南本町","43.115685","141.741278","0","1"
"01","北海道","01210","岩見沢市","012100093000","栗沢町宮村","43.146497","141.858000","0","1"
"01","北海道","01210","岩見沢市","012100094000","栗沢町美流渡楓町","43.124886","141.941392","0","1"
"01","北海道","01210","岩見沢市","012100095000","栗沢町美流渡栄町","43.158414","141.919560","0","1"
"01","北海道","01210","岩見沢市","012100096000","栗沢町美流渡桜町","43.150256","141.922398","0","1"
"01","北海道","01210","岩見沢市","012100097000","栗沢町美流渡末広町","43.165706","141.908858","0","1"
"01","北海道","01210","岩見沢市","012100098000","栗沢町美流渡東栄町","43.165580","141.911300","0","1"
"01","北海道","01210","岩見沢市","012100099000","栗沢町美流渡錦町","43.159791","141.920067","0","1"
"01","北海道","01210","岩見沢市","012100100000","栗沢町美流渡西町","43.140131","141.892019","0","1"
"01","北海道","01210","岩見沢市","012100101000","栗沢町美流渡東町","43.142297","141.946333","0","1"
"01","北海道","01210","岩見沢市","012100102000","栗沢町美流渡本町","43.163240","141.912127","0","1"
"01","北海道","01210","岩見沢市","012100103000","栗沢町美流渡緑町","43.138002","141.932897","0","1"
"01","北海道","01210","岩見沢市","012100104000","栗沢町美流渡南町","43.152705","141.919244","0","1"
"01","北海道","01210","岩見沢市","012100105000","栗沢町美流渡吉野町","43.160615","141.913535","0","1"
"01","北海道","01210","岩見沢市","012100106000","栗沢町美流渡若葉町","43.141847","141.929419","0","1"
"01","北海道","01210","岩見沢市","012100107000","栗沢町最上","43.116146","141.768483","0","1"
"01","北海道","01210","岩見沢市","012100108000","栗沢町茂世丑","43.114454","141.812673","0","1"
"01","北海道","01210","岩見沢市","012100109000","栗沢町由良","43.139743","141.770364","0","1"
"01","北海道","01210","岩見沢市","012100110001","駒園一丁目","43.186265","141.765972","0","3"
"01","北海道","01210","岩見沢市","012100110002","駒園二丁目","43.184847","141.766254","0","3"
"01","北海道","01210","岩見沢市","012100110003","駒園三丁目","43.183953","141.765946","0","3"
"01","北海道","01210","岩見沢市","012100110004","駒園四丁目","43.183452","141.765447","0","3"
"01","北海道","01210","岩見沢市","012100110005","駒園五丁目","43.182694","141.764756","0","3"
"01","北海道","01210","岩見沢市","012100110006","駒園六丁目","43.182058","141.766319","0","3"
"01","北海道","01210","岩見沢市","012100110007","駒園七丁目","43.179964","141.765559","0","3"
"01","北海道","01210","岩見沢市","012100110008","駒園八丁目","43.178576","141.764337","0","3"
"01","北海道","01210","岩見沢市","012100110009","駒園九丁目","43.175993","141.766194","0","3"
"01","北海道","01210","岩見沢市","012100111001","栄町一丁目","43.218707","141.796090","0","3"
"01","北海道","01210","岩見沢市","012100111002","栄町二丁目","43.219480","141.799636","0","3"
"01","北海道","01210","岩見沢市","012100111003","栄町三丁目","43.220696","141.802984","0","3"
"01","北海道","01210","岩見沢市","012100111004","栄町四丁目","43.222298","141.808159","0","3"
"01","北海道","01210","岩見沢市","012100111005","栄町五丁目","43.216564","141.797638","0","3"
"01","北海道","01210","岩見沢市","012100111006","栄町六丁目","43.217617","141.800770","0","3"
"01","北海道","01210","岩見沢市","012100111007","栄町七丁目","43.218791","141.804206","0","3"
"01","北海道","01210","岩見沢市","012100111008","栄町八丁目","43.220373","141.808630","0","3"
"01","北海道","01210","岩見沢市","012100112001","桜木一条一丁目","43.212323","141.759209","0","3"
"01","北海道","01210","岩見沢市","012100112002","桜木一条二丁目","43.212504","141.760596","0","3"
"01","北海道","01210","岩見沢市","012100112003","桜木一条三丁目","43.213394","141.761244","0","3"
"01","北海道","01210","岩見沢市","012100112004","桜木一条四丁目","43.213806","141.762313","0","3"
"01","北海道","01210","岩見沢市","012100112005","桜木一条五丁目","43.214486","141.763412","0","3"
"01","北海道","01210","岩見沢市","012100112006","桜木一条六丁目","43.215531","141.764382","0","3"
"01","北海道","01210","岩見沢市","012100112007","桜木一条七丁目","43.216297","141.765688","0","3"
"01","北海道","01210","岩見沢市","012100113000","志文町","43.162152","141.767125","0","1"
"01","北海道","01210","岩見沢市","012100114001","志文本町一条一丁目","43.155474","141.744544","0","3"
"01","北海道","01210","岩見沢市","012100114002","志文本町一条二丁目","43.157230","141.744744","0","3"
"01","北海道","01210","岩見沢市","012100114003","志文本町一条三丁目","43.158312","141.744866","0","3"
"01","北海道","01210","岩見沢市","012100114004","志文本町一条四丁目","43.159911","141.745077","0","3"
"01","北海道","01210","岩見沢市","012100114005","志文本町一条五丁目","43.162207","141.745036","0","3"
"01","北海道","01210","岩見沢市","012100114006","志文本町一条六丁目","43.162672","141.746164","0","3"
"01","北海道","01210","岩見沢市","012100115001","志文本町二条一丁目","43.155522","141.745524","0","3"
"01","北海道","01210","岩見沢市","012100115002","志文本町二条二丁目","43.157193","141.745666","0","3"
"01","北海道","01210","岩見沢市","012100115003","志文本町二条三丁目","43.158304","141.745784","0","3"
"01","北海道","01210","岩見沢市","012100115004","志文本町二条四丁目","43.159682","141.745950","0","3"
"01","北海道","01210","岩見沢市","012100115005","志文本町二条五丁目","43.161256","141.745687","0","3"
"01","北海道","01210","岩見沢市","012100115006","志文本町二条六丁目","43.161552","141.747058","0","3"
"01","北海道","01210","岩見沢市","012100116001","志文本町三条一丁目","43.155685","141.746333","0","3"
"01","北海道","01210","岩見沢市","012100116002","志文本町三条二丁目","43.157155","141.746473","0","3"
"01","北海道","01210","岩見沢市","012100116003","志文本町三条三丁目","43.158323","141.746604","0","3"
"01","北海道","01210","岩見沢市","012100116004","志文本町三条四丁目","43.159492","141.746810","0","3"
"01","北海道","01210","岩見沢市","012100116005","志文本町三条五丁目","43.160039","141.747412","0","3"
"01","北海道","01210","岩見沢市","012100116006","志文本町三条六丁目","43.160430","141.748451","0","3"
"01","北海道","01210","岩見沢市","012100117001","志文本町四条一丁目","43.155430","141.747061","0","3"
"01","北海道","01210","岩見沢市","012100117002","志文本町四条二丁目","43.156816","141.747164","0","3"
"01","北海道","01210","岩見沢市","012100117003","志文本町四条三丁目","43.158063","141.747238","0","3"
"01","北海道","01210","岩見沢市","012100117004","志文本町四条四丁目","43.158600","141.747725","0","3"
"01","北海道","01210","岩見沢市","012100117005","志文本町四条五丁目","43.159137","141.749287","0","3"
"01","北海道","01210","岩見沢市","012100118001","志文本町五条一丁目","43.155854","141.747844","0","3"
"01","北海道","01210","岩見沢市","012100118002","志文本町五条二丁目","43.157299","141.747838","0","3"
"01","北海道","01210","岩見沢市","012100118003","志文本町五条三丁目","43.155844","141.748662","0","3"
"01","北海道","01210","岩見沢市","012100118004","志文本町五条四丁目","43.157189","141.749224","0","3"
"01","北海道","01210","岩見沢市","012100118005","志文本町五条五丁目","43.157962","141.749968","0","3"
"01","北海道","01210","岩見沢市","012100119000","清水町","43.178066","141.897372","0","1"
"01","北海道","01210","岩見沢市","012100120000","下志文町","43.157781","141.733634","0","1"
"01","北海道","01210","岩見沢市","012100121000","総合公園","43.192858","141.775307","0","1"
"01","北海道","01210","岩見沢市","012100122000","中幌向町","43.157626","141.678803","0","1"
"01","北海道","01210","岩見沢市","012100123000","並木町","43.190137","141.768049","0","1"
"01","北海道","01210","岩見沢市","012100124000","奈良町","43.178344","141.919335","0","1"
"01","北海道","01210","岩見沢市","012100125000","西川町","43.215323","141.727826","0","1"
"01","北海道","01210","岩見沢市","012100126001","鳩が丘一丁目","43.197177","141.776726","0","3"
"01","北海道","01210","岩見沢市","012100126002","鳩が丘二丁目","43.199350","141.778560","0","3"
"01","北海道","01210","岩見沢市","012100126003","鳩が丘三丁目","43.195428","141.777990","0","3"
"01","北海道","01210","岩見沢市","012100126004","鳩が丘四丁目","43.196280","141.780706","0","3"
"01","北海道","01210","岩見沢市","012100127000","東町","43.225816","141.811628","0","1"
"01","北海道","01210","岩見沢市","012100128001","東町一条一丁目","43.212778","141.773922","0","3"
"01","北海道","01210","岩見沢市","012100128002","東町一条二丁目","43.214707","141.777058","0","3"
"01","北海道","01210","岩見沢市","012100128003","東町一条三丁目","43.216004","141.779704","0","3"
"01","北海道","01210","岩見沢市","012100128004","東町一条四丁目","43.218142","141.781980","0","3"
"01","北海道","01210","岩見沢市","012100128005","東町一条五丁目","43.220846","141.788907","0","3"
"01","北海道","01210","岩見沢市","012100128006","東町一条六丁目","43.222115","141.792914","0","3"
"01","北海道","01210","岩見沢市","012100128007","東町一条七丁目","43.221781","141.797115","0","3"
"01","北海道","01210","岩見沢市","012100128008","東町一条八丁目","43.222840","141.800485","0","3"
"01","北海道","01210","岩見沢市","012100129001","東町二条一丁目","43.214281","141.773004","0","3"
"01","北海道","01210","岩見沢市","012100129002","東町二条二丁目","43.216143","141.775519","0","3"
"01","北海道","01210","岩見沢市","012100129003","東町二条三丁目","43.217321","141.778368","0","3"
"01","北海道","01210","岩見沢市","012100129004","東町二条四丁目","43.219476","141.782230","0","3"
"01","北海道","01210","岩見沢市","012100129005","東町二条五丁目","43.222033","141.787392","0","3"
"01","北海道","01210","岩見沢市","012100129006","東町二条六丁目","43.223901","141.789741","0","3"
"01","北海道","01210","岩見沢市","012100129007","東町二条七丁目","43.224882","141.793641","0","3"
"01","北海道","01210","岩見沢市","012100129008","東町二条八丁目","43.225942","141.797421","0","3"
"01","北海道","01210","岩見沢市","012100130010","東山十丁目","43.196175","141.786654","0","3"
"01","北海道","01210","岩見沢市","012100130001","東山一丁目","43.193086","141.785840","0","3"
"01","北海道","01210","岩見沢市","012100130002","東山二丁目","43.192693","141.783286","0","3"
"01","北海道","01210","岩見沢市","012100130003","東山三丁目","43.191687","141.781688","0","3"
"01","北海道","01210","岩見沢市","012100130004","東山四丁目","43.190400","141.783675","0","3"
"01","北海道","01210","岩見沢市","012100130005","東山五丁目","43.190987","141.786735","0","3"
"01","北海道","01210","岩見沢市","012100130006","東山六丁目","43.191060","141.790966","0","3"
"01","北海道","01210","岩見沢市","012100130007","東山七丁目","43.193485","141.792757","0","3"
"01","北海道","01210","岩見沢市","012100130008","東山八丁目","43.192744","141.789547","0","3"
"01","北海道","01210","岩見沢市","012100130009","東山九丁目","43.196078","141.789989","0","3"
"01","北海道","01210","岩見沢市","012100131000","東山町","43.188729","141.804107","0","1"
"01","北海道","01210","岩見沢市","012100132001","日の出北一丁目","43.208816","141.786636","0","3"
"01","北海道","01210","岩見沢市","012100132002","日の出北二丁目","43.209346","141.788163","0","3"
"01","北海道","01210","岩見沢市","012100132003","日の出北三丁目","43.209930","141.789625","0","3"
"01","北海道","01210","岩見沢市","012100132004","日の出北四丁目","43.210367","141.791239","0","3"
"01","北海道","01210","岩見沢市","012100133010","日の出台十丁目","43.207871","141.804612","0","3"
"01","北海道","01210","岩見沢市","012100133001","日の出台一丁目","43.211297","141.792574","0","3"
"01","北海道","01210","岩見沢市","012100133002","日の出台二丁目","43.211857","141.794293","0","3"
"01","北海道","01210","岩見沢市","012100133003","日の出台三丁目","43.212376","141.795765","0","3"
"01","北海道","01210","岩見沢市","012100133004","日の出台四丁目","43.212993","141.806757","0","3"
"01","北海道","01210","岩見沢市","012100133005","日の出台五丁目","43.208761","141.793496","0","3"
"01","北海道","01210","岩見沢市","012100133006","日の出台六丁目","43.209103","141.795572","0","3"
"01","北海道","01210","岩見沢市","012100133007","日の出台七丁目","43.209055","141.797069","0","3"
"01","北海道","01210","岩見沢市","012100133008","日の出台八丁目","43.211080","141.801545","0","3"
"01","北海道","01210","岩見沢市","012100133009","日の出台九丁目","43.208568","141.799485","0","3"
"01","北海道","01210","岩見沢市","012100134000","日の出町","43.195630","141.814363","0","1"
"01","北海道","01210","岩見沢市","012100135001","日の出南一丁目","43.206434","141.788689","0","3"
"01","北海道","01210","岩見沢市","012100135002","日の出南二丁目","43.206978","141.791561","0","3"
"01","北海道","01210","岩見沢市","012100135003","日の出南三丁目","43.206796","141.798859","0","3"
"01","北海道","01210","岩見沢市","012100135004","日の出南四丁目","43.204889","141.790879","0","3"
"01","北海道","01210","岩見沢市","012100136001","ふじ町一条一丁目","43.168549","141.756966","0","3"
"01","北海道","01210","岩見沢市","012100136002","ふじ町一条二丁目","43.167468","141.755350","0","3"
"01","北海道","01210","岩見沢市","012100136003","ふじ町一条三丁目","43.166807","141.753858","0","3"
"01","北海道","01210","岩見沢市","012100136004","ふじ町一条四丁目","43.166161","141.752834","0","3"
"01","北海道","01210","岩見沢市","012100136005","ふじ町一条五丁目","43.165478","141.751346","0","3"
"01","北海道","01210","岩見沢市","012100136006","ふじ町一条六丁目","43.164445","141.749369","0","3"
"01","北海道","01210","岩見沢市","012100136007","ふじ町一条七丁目","43.163489","141.747521","0","3"
"01","北海道","01210","岩見沢市","012100137001","ふじ町二条一丁目","43.167042","141.758001","0","3"
"01","北海道","01210","岩見沢市","012100137002","ふじ町二条二丁目","43.166275","141.756458","0","3"
"01","北海道","01210","岩見沢市","012100137003","ふじ町二条三丁目","43.165631","141.755236","0","3"
"01","北海道","01210","岩見沢市","012100137004","ふじ町二条四丁目","43.164970","141.753950","0","3"
"01","北海道","01210","岩見沢市","012100137005","ふじ町二条五丁目","43.164235","141.752518","0","3"
"01","北海道","01210","岩見沢市","012100137006","ふじ町二条六丁目","43.163228","141.750487","0","3"
"01","北海道","01210","岩見沢市","012100137007","ふじ町二条七丁目","43.162310","141.748591","0","3"
"01","北海道","01210","岩見沢市","012100138000","双葉町","43.156438","141.698777","0","1"
"01","北海道","01210","岩見沢市","012100139000","宝水町","43.200165","141.859603","0","1"
"01","北海道","01210","岩見沢市","012100140001","幌向北一条一丁目","43.155105","141.659296","0","3"
"01","北海道","01210","岩見沢市","012100140002","幌向北一条二丁目","43.153575","141.656603","0","3"
"01","北海道","01210","岩見沢市","012100140003","幌向北一条三丁目","43.152039","141.653279","0","3"
"01","北海道","01210","岩見沢市","012100140004","幌向北一条四丁目","43.150625","141.650406","0","3"
"01","北海道","01210","岩見沢市","012100140005","幌向北一条五丁目","43.149179","141.648212","0","3"
"01","北海道","01210","岩見沢市","012100140006","幌向北一条六丁目","43.147493","141.645482","0","3"
"01","北海道","01210","岩見沢市","012100140007","幌向北一条七丁目","43.145623","141.642635","0","3"
"01","北海道","01210","岩見沢市","012100141001","幌向北二条一丁目","43.157139","141.657304","0","3"
"01","北海道","01210","岩見沢市","012100141002","幌向北二条二丁目","43.155808","141.654425","0","3"
"01","北海道","01210","岩見沢市","012100141003","幌向北二条三丁目","43.154317","141.651538","0","3"
"01","北海道","01210","岩見沢市","012100141004","幌向北二条四丁目","43.152910","141.648579","0","3"
"01","北海道","01210","岩見沢市","012100141005","幌向北二条五丁目","43.151519","141.645995","0","3"
"01","北海道","01210","岩見沢市","012100141006","幌向北二条六丁目","43.150042","141.643069","0","3"
"01","北海道","01210","岩見沢市","012100141007","幌向北二条七丁目","43.147972","141.641133","0","3"
"01","北海道","01210","岩見沢市","012100142000","幌向町","43.160868","141.656440","0","1"
"01","北海道","01210","岩見沢市","012100143001","幌向南一条一丁目","43.152729","141.660419","0","3"
"01","北海道","01210","岩見沢市","012100143002","幌向南一条二丁目","43.151644","141.657644","0","3"
"01","北海道","01210","岩見沢市","012100143003","幌向南一条三丁目","43.150266","141.654274","0","3"
"01","北海道","01210","岩見沢市","012100143004","幌向南一条四丁目","43.148789","141.652662","0","3"
"01","北海道","01210","岩見沢市","012100143005","幌向南一条五丁目","43.146603","141.649826","0","3"
"01","北海道","01210","岩見沢市","012100144001","幌向南二条一丁目","43.150743","141.662752","0","3"
"01","北海道","01210","岩見沢市","012100144002","幌向南二条二丁目","43.149425","141.659683","0","3"
"01","北海道","01210","岩見沢市","012100144003","幌向南二条三丁目","43.148298","141.657105","0","3"
"01","北海道","01210","岩見沢市","012100144004","幌向南二条四丁目","43.146546","141.654546","0","3"
"01","北海道","01210","岩見沢市","012100144005","幌向南二条五丁目","43.145366","141.651802","0","3"
"01","北海道","01210","岩見沢市","012100145001","幌向南三条一丁目","43.148511","141.665510","0","3"
"01","北海道","01210","岩見沢市","012100145002","幌向南三条二丁目","43.147317","141.662498","0","3"
"01","北海道","01210","岩見沢市","012100145003","幌向南三条三丁目","43.145597","141.659641","0","3"
"01","北海道","01210","岩見沢市","012100145004","幌向南三条四丁目","43.144305","141.656682","0","3"
"01","北海道","01210","岩見沢市","012100145005","幌向南三条五丁目","43.143255","141.654052","0","3"
"01","北海道","01210","岩見沢市","012100146001","幌向南四条一丁目","43.146452","141.667436","0","3"
"01","北海道","01210","岩見沢市","012100146002","幌向南四条二丁目","43.144621","141.664726","0","3"
"01","北海道","01210","岩見沢市","012100146003","幌向南四条三丁目","43.143628","141.661508","0","3"
"01","北海道","01210","岩見沢市","012100146004","幌向南四条四丁目","43.141174","141.659292","0","3"
"01","北海道","01210","岩見沢市","012100147001","幌向南五条一丁目","43.143747","141.669658","0","3"
"01","北海道","01210","岩見沢市","012100148001","美園一条一丁目","43.192143","141.762967","0","3"
"01","北海道","01210","岩見沢市","012100148002","美園一条二丁目","43.191655","141.762051","0","3"
"01","北海道","01210","岩見沢市","012100148003","美園一条三丁目","43.191168","141.761116","0","3"
"01","北海道","01210","岩見沢市","012100148004","美園一条四丁目","43.190712","141.760216","0","3"
"01","北海道","01210","岩見沢市","012100148005","美園一条五丁目","43.190198","141.759189","0","3"
"01","北海道","01210","岩見沢市","012100148006","美園一条六丁目","43.189771","141.758334","0","3"
"01","北海道","01210","岩見沢市","012100148007","美園一条七丁目","43.189150","141.757425","0","3"
"01","北海道","01210","岩見沢市","012100148008","美園一条八丁目","43.187683","141.755605","0","3"
"01","北海道","01210","岩見沢市","012100149001","美園二条一丁目","43.191073","141.763971","0","3"
"01","北海道","01210","岩見沢市","012100149002","美園二条二丁目","43.190511","141.763251","0","3"
"01","北海道","01210","岩見沢市","012100149003","美園二条三丁目","43.190033","141.762162","0","3"
"01","北海道","01210","岩見沢市","012100149004","美園二条四丁目","43.189579","141.761279","0","3"
"01","北海道","01210","岩見沢市","012100149005","美園二条五丁目","43.189114","141.760360","0","3"
"01","北海道","01210","岩見沢市","012100149006","美園二条六丁目","43.188646","141.759401","0","3"
"01","北海道","01210","岩見沢市","012100149007","美園二条七丁目","43.187981","141.758063","0","3"
"01","北海道","01210","岩見沢市","012100149008","美園二条八丁目","43.187003","141.756157","0","3"
"01","北海道","01210","岩見沢市","012100150001","美園三条一丁目","43.190307","141.764669","0","3"
"01","北海道","01210","岩見沢市","012100150002","美園三条二丁目","43.189724","141.763827","0","3"
"01","北海道","01210","岩見沢市","012100150003","美園三条三丁目","43.189243","141.762886","0","3"
"01","北海道","01210","岩見沢市","012100150004","美園三条四丁目","43.188797","141.762010","0","3"
"01","北海道","01210","岩見沢市","012100150005","美園三条五丁目","43.188341","141.761084","0","3"
"01","北海道","01210","岩見沢市","012100150006","美園三条六丁目","43.187873","141.760140","0","3"
"01","北海道","01210","岩見沢市","012100150007","美園三条七丁目","43.187203","141.758826","0","3"
"01","北海道","01210","岩見沢市","012100150008","美園三条八丁目","43.186227","141.756910","0","3"
"01","北海道","01210","岩見沢市","012100151001","美園四条一丁目","43.189341","141.765484","0","3"
"01","北海道","01210","岩見沢市","012100151002","美園四条二丁目","43.188957","141.764559","0","3"
"01","北海道","01210","岩見沢市","012100151003","美園四条三丁目","43.188436","141.763821","0","3"
"01","北海道","01210","岩見沢市","012100151004","美園四条四丁目","43.187977","141.762787","0","3"
"01","北海道","01210","岩見沢市","012100151005","美園四条五丁目","43.187520","141.761859","0","3"
"01","北海道","01210","岩見沢市","012100151006","美園四条六丁目","43.187050","141.760916","0","3"
"01","北海道","01210","岩見沢市","012100151007","美園四条七丁目","43.186380","141.759605","0","3"
"01","北海道","01210","岩見沢市","012100151008","美園四条八丁目","43.185337","141.757442","0","3"
"01","北海道","01210","岩見沢市","012100152002","美園五条二丁目","43.188228","141.765399","0","3"
"01","北海道","01210","岩見沢市","012100152003","美園五条三丁目","43.187327","141.764824","0","3"
"01","北海道","01210","岩見沢市","012100152004","美園五条四丁目","43.186401","141.764345","0","3"
"01","北海道","01210","岩見沢市","012100152005","美園五条五丁目","43.186014","141.763150","0","3"
"01","北海道","01210","岩見沢市","012100152006","美園五条六丁目","43.185491","141.762398","0","3"
"01","北海道","01210","岩見沢市","012100152007","美園五条七丁目","43.184799","141.761096","0","3"
"01","北海道","01210","岩見沢市","012100152008","美園五条八丁目","43.183907","141.759095","0","3"
"01","北海道","01210","岩見沢市","012100153006","美園六条六丁目","43.184101","141.763759","0","3"
"01","北海道","01210","岩見沢市","012100153007","美園六条七丁目","43.182573","141.762920","0","3"
"01","北海道","01210","岩見沢市","012100153008","美園六条八丁目","43.181839","141.761043","0","3"
"01","北海道","01210","岩見沢市","012100154008","美園七条八丁目","43.180142","141.762148","0","3"
"01","北海道","01210","岩見沢市","012100155000","緑が丘","43.177354","141.791632","0","1"
"01","北海道","01210","岩見沢市","012100156001","緑が丘一丁目","43.185646","141.770610","0","3"
"01","北海道","01210","岩見沢市","012100156002","緑が丘二丁目","43.185830","141.777000","0","3"
"01","北海道","01210","岩見沢市","012100156003","緑が丘三丁目","43.182676","141.777102","0","3"
"01","北海道","01210","岩見沢市","012100156004","緑が丘四丁目","43.180650","141.773715","0","3"
"01","北海道","01210","岩見沢市","012100156005","緑が丘五丁目","43.180858","141.769544","0","3"
"01","北海道","01210","岩見沢市","012100156006","緑が丘六丁目","43.176081","141.769065","0","3"
"01","北海道","01210","岩見沢市","012100157001","緑町一丁目","43.212166","141.757008","0","3"
"01","北海道","01210","岩見沢市","012100157002","緑町二丁目","43.210824","141.756184","0","3"
"01","北海道","01210","岩見沢市","012100157003","緑町三丁目","43.212653","141.753738","0","3"
"01","北海道","01210","岩見沢市","012100157004","緑町四丁目","43.211179","141.752094","0","3"
"01","北海道","01210","岩見沢市","012100157005","緑町五丁目","43.213262","141.749548","0","3"
"01","北海道","01210","岩見沢市","012100157006","緑町六丁目","43.211268","141.747672","0","3"
"01","北海道","01210","岩見沢市","012100157007","緑町七丁目","43.212602","141.746022","0","3"
"01","北海道","01210","岩見沢市","012100158000","南町","43.180522","141.751201","0","1"
"01","北海道","01210","岩見沢市","012100159001","南町一条一丁目","43.186472","141.753142","0","3"
"01","北海道","01210","岩見沢市","012100159002","南町一条二丁目","43.185693","141.751171","0","3"
"01","北海道","01210","岩見沢市","012100160001","南町二条一丁目","43.185986","141.754097","0","3"
"01","北海道","01210","岩見沢市","012100160002","南町二条二丁目","43.185366","141.752124","0","3"
"01","北海道","01210","岩見沢市","012100161001","南町三条一丁目","43.185073","141.754970","0","3"
"01","北海道","01210","岩見沢市","012100161002","南町三条二丁目","43.184247","141.753073","0","3"
"01","北海道","01210","岩見沢市","012100162001","南町四条一丁目","43.184241","141.755776","0","3"
"01","北海道","01210","岩見沢市","012100162002","南町四条二丁目","43.183349","141.753938","0","3"
"01","北海道","01210","岩見沢市","012100163001","南町五条一丁目","43.182865","141.757096","0","3"
"01","北海道","01210","岩見沢市","012100163002","南町五条二丁目","43.181951","141.755270","0","3"
"01","北海道","01210","岩見沢市","012100164001","南町六条一丁目","43.180813","141.759105","0","3"
"01","北海道","01210","岩見沢市","012100164002","南町六条二丁目","43.179917","141.757197","0","3"
"01","北海道","01210","岩見沢市","012100165001","南町七条一丁目","43.178825","141.761074","0","3"
"01","北海道","01210","岩見沢市","012100165002","南町七条二丁目","43.177880","141.759094","0","3"
"01","北海道","01210","岩見沢市","012100165003","南町七条三丁目","43.176905","141.757162","0","3"
"01","北海道","01210","岩見沢市","012100165004","南町七条四丁目","43.175941","141.755118","0","3"
"01","北海道","01210","岩見沢市","012100165005","南町七条五丁目","43.174900","141.753548","0","3"
"01","北海道","01210","岩見沢市","012100166001","南町八条一丁目","43.177122","141.763538","0","3"
"01","北海道","01210","岩見沢市","012100166002","南町八条二丁目","43.176323","141.760518","0","3"
"01","北海道","01210","岩見沢市","012100166003","南町八条三丁目","43.174351","141.759516","0","3"
"01","北海道","01210","岩見沢市","012100166004","南町八条四丁目","43.173857","141.757095","0","3"
"01","北海道","01210","岩見沢市","012100166005","南町八条五丁目","43.173003","141.755360","0","3"
"01","北海道","01210","岩見沢市","012100167001","南町九条一丁目","43.174925","141.765220","0","3"
"01","北海道","01210","岩見沢市","012100167002","南町九条二丁目","43.174934","141.762584","0","3"
"01","北海道","01210","岩見沢市","012100167003","南町九条三丁目","43.172683","141.761225","0","3"
"01","北海道","01210","岩見沢市","012100167004","南町九条四丁目","43.171783","141.759093","0","3"
"01","北海道","01210","岩見沢市","012100167005","南町九条五丁目","43.170910","141.757324","0","3"
"01","北海道","01210","岩見沢市","012100168000","峰延町","43.272876","141.787157","0","1"
"01","北海道","01210","岩見沢市","012100169000","稔町","43.236138","141.759227","0","1"
"01","北海道","01210","岩見沢市","012100170000","毛陽町","43.175575","141.967826","0","1"
"01","北海道","01210","岩見沢市","012100171001","元町一条西一丁目","43.206725","141.763314","0","3"
"01","北海道","01210","岩見沢市","012100171002","元町一条西二丁目","43.206721","141.762298","0","3"
"01","北海道","01210","岩見沢市","012100172001","元町一条東一丁目","43.207221","141.764050","0","3"
"01","北海道","01210","岩見沢市","012100172002","元町一条東二丁目","43.207645","141.765108","0","3"
"01","北海道","01210","岩見沢市","012100172003","元町一条東三丁目","43.208174","141.766020","0","3"
"01","北海道","01210","岩見沢市","012100172004","元町一条東四丁目","43.208784","141.767017","0","3"
"01","北海道","01210","岩見沢市","012100172005","元町一条東五丁目","43.209158","141.768155","0","3"
"01","北海道","01210","岩見沢市","012100172006","元町一条東六丁目","43.209865","141.769010","0","3"
"01","北海道","01210","岩見沢市","012100172007","元町一条東七丁目","43.210798","141.769965","0","3"
"01","北海道","01210","岩見沢市","012100172008","元町一条東八丁目","43.211101","141.771675","0","3"
"01","北海道","01210","岩見沢市","012100172009","元町一条東九丁目","43.211553","141.772575","0","3"
"01","北海道","01210","岩見沢市","012100173001","元町二条西一丁目","43.207941","141.762516","0","3"
"01","北海道","01210","岩見沢市","012100173002","元町二条西二丁目","43.207539","141.762030","0","3"
"01","北海道","01210","岩見沢市","012100174001","元町二条東一丁目","43.208083","141.763150","0","3"
"01","北海道","01210","岩見沢市","012100174002","元町二条東二丁目","43.208424","141.763914","0","3"
"01","北海道","01210","岩見沢市","012100174003","元町二条東三丁目","43.208993","141.765242","0","3"
"01","北海道","01210","岩見沢市","012100174004","元町二条東四丁目","43.210566","141.767136","0","3"
"01","北海道","01210","岩見沢市","012100174005","元町二条東五丁目","43.209960","141.767646","0","3"
"01","北海道","01210","岩見沢市","012100174006","元町二条東六丁目","43.210793","141.768102","0","3"
"01","北海道","01210","岩見沢市","012100174007","元町二条東七丁目","43.211734","141.768962","0","3"
"01","北海道","01210","岩見沢市","012100174008","元町二条東八丁目","43.212381","141.770403","0","3"
"01","北海道","01210","岩見沢市","012100174009","元町二条東九丁目","43.213096","141.770983","0","3"
"01","北海道","01210","岩見沢市","012100175004","元町三条東四丁目","43.210300","141.765901","0","3"
"01","北海道","01210","岩見沢市","012100175005","元町三条東五丁目","43.211374","141.766302","0","3"
"01","北海道","01210","岩見沢市","012100176001","大和一条一丁目","43.197486","141.747684","0","3"
"01","北海道","01210","岩見沢市","012100176002","大和一条二丁目","43.195078","141.745584","0","3"
"01","北海道","01210","岩見沢市","012100176003","大和一条三丁目","43.194280","141.744195","0","3"
"01","北海道","01210","岩見沢市","012100176004","大和一条四丁目","43.193717","141.742888","0","3"
"01","北海道","01210","岩見沢市","012100176005","大和一条五丁目","43.192828","141.741348","0","3"
"01","北海道","01210","岩見沢市","012100176006","大和一条六丁目","43.191936","141.739758","0","3"
"01","北海道","01210","岩見沢市","012100176007","大和一条七丁目","43.191167","141.738153","0","3"
"01","北海道","01210","岩見沢市","012100176008","大和一条八丁目","43.190136","141.735698","0","3"
"01","北海道","01210","岩見沢市","012100176009","大和一条九丁目","43.189015","141.732343","0","3"
"01","北海道","01210","岩見沢市","012100177002","大和二条二丁目","43.193163","141.747451","0","3"
"01","北海道","01210","岩見沢市","012100177003","大和二条三丁目","43.192101","141.745879","0","3"
"01","北海道","01210","岩見沢市","012100177004","大和二条四丁目","43.191286","141.744664","0","3"
"01","北海道","01210","岩見沢市","012100177005","大和二条五丁目","43.190608","141.743180","0","3"
"01","北海道","01210","岩見沢市","012100177006","大和二条六丁目","43.189813","141.741661","0","3"
"01","北海道","01210","岩見沢市","012100177007","大和二条七丁目","43.189093","141.740222","0","3"
"01","北海道","01210","岩見沢市","012100177008","大和二条八丁目","43.188183","141.738096","0","3"
"01","北海道","01210","岩見沢市","012100177009","大和二条九丁目","43.186317","141.734092","0","3"
"01","北海道","01210","岩見沢市","012100178003","大和三条三丁目","43.190848","141.747345","0","3"
"01","北海道","01210","岩見沢市","012100178004","大和三条四丁目","43.189900","141.746159","0","3"
"01","北海道","01210","岩見沢市","012100178005","大和三条五丁目","43.189072","141.744651","0","3"
"01","北海道","01210","岩見沢市","012100178006","大和三条六丁目","43.188301","141.743038","0","3"
"01","北海道","01210","岩見沢市","012100178007","大和三条七丁目","43.187163","141.741475","0","3"
"01","北海道","01210","岩見沢市","012100178008","大和三条八丁目","43.186922","141.739702","0","3"
"01","北海道","01210","岩見沢市","012100178009","大和三条九丁目","43.186053","141.738349","0","3"
"01","北海道","01210","岩見沢市","012100179004","大和四条四丁目","43.188624","141.746954","0","3"
"01","北海道","01210","岩見沢市","012100179005","大和四条五丁目","43.187700","141.745796","0","3"
"01","北海道","01210","岩見沢市","012100179006","大和四条六丁目","43.187176","141.744154","0","3"
"01","北海道","01210","岩見沢市","012100179007","大和四条七丁目","43.185304","141.744980","0","3"
"01","北海道","01210","岩見沢市","012100179008","大和四条八丁目","43.183705","141.741587","0","3"
"01","北海道","01210","岩見沢市","012100180000","大和町","43.181375","141.742346","0","1"
"01","北海道","01210","岩見沢市","012100181001","若駒一丁目","43.199150","141.796647","0","3"
"01","北海道","01210","岩見沢市","012100181002","若駒二丁目","43.198407","141.794241","0","3"
"01","北海道","01210","岩見沢市","012100181003","若駒三丁目","43.197934","141.792073","0","3"
"01","北海道","01210","岩見沢市","012100182000","若松町","43.200020","141.735086","0","1"
