"PrefCode","PrefName","MuniCode","MuniName","DistCode","DistName","lat","lon","SrcCode","CatCode"
"01","北海道","01601","沙流郡日高町","016010001000","字旭町","42.485537","142.099616","0","1"
"01","北海道","01601","沙流郡日高町","016010002000","字厚賀町","42.432497","142.218414","0","1"
"01","北海道","01601","沙流郡日高町","016010003000","字幾千世","42.504246","142.126832","0","1"
"01","北海道","01601","沙流郡日高町","016010004000","字賀張","42.480907","142.266309","0","1"
"01","北海道","01601","沙流郡日高町","016010005000","字清畠","42.501958","142.233459","0","1"
"01","北海道","01601","沙流郡日高町","016010006000","字庫富","42.531640","142.164244","0","1"
"01","北海道","01601","沙流郡日高町","016010007000","字正和","42.537094","142.315845","0","1"
"01","北海道","01601","沙流郡日高町","016010008000","字千栄","42.877732","142.613768","0","1"
"01","北海道","01601","沙流郡日高町","016010009000","字富岡","42.842863","142.463776","0","1"
"01","北海道","01601","沙流郡日高町","016010010000","字富浜","42.492604","142.037861","0","1"
"01","北海道","01601","沙流郡日高町","016010011000","字豊郷","42.523855","142.214957","0","1"
"01","北海道","01601","沙流郡日高町","016010012000","字豊田","42.467564","142.292173","0","1"
"01","北海道","01601","沙流郡日高町","016010013000","字日高","42.896351","142.434477","0","1"
"01","北海道","01601","沙流郡日高町","016010014000","字平賀","42.539925","142.038643","0","1"
"01","北海道","01601","沙流郡日高町","016010015000","字広富","42.590886","142.252503","0","1"
"01","北海道","01601","沙流郡日高町","016010016000","字福満","42.525110","142.081810","0","1"
"01","北海道","01601","沙流郡日高町","016010017000","字三岩","42.825963","142.416972","0","1"
"01","北海道","01601","沙流郡日高町","016010018000","字緑町","42.498762","142.073177","0","1"
"01","北海道","01601","沙流郡日高町","016010019000","字美原","42.438860","142.241185","0","1"
"01","北海道","01601","沙流郡日高町","016010020000","字三和","42.591337","142.388254","0","1"
"01","北海道","01601","沙流郡日高町","016010021001","栄町西一丁目","42.878504","142.438081","0","3"
"01","北海道","01601","沙流郡日高町","016010021002","栄町西二丁目","42.876242","142.434704","0","3"
"01","北海道","01601","沙流郡日高町","016010022001","栄町東一丁目","42.879529","142.439718","0","3"
"01","北海道","01601","沙流郡日高町","016010022002","栄町東二丁目","42.880637","142.441790","0","3"
"01","北海道","01601","沙流郡日高町","016010023001","新町一丁目","42.879748","142.435831","0","3"
"01","北海道","01601","沙流郡日高町","016010023002","新町二丁目","42.879976","142.432581","0","3"
"01","北海道","01601","沙流郡日高町","016010023003","新町三丁目","42.884267","142.432368","0","3"
"01","北海道","01601","沙流郡日高町","016010024001","富川北一丁目","42.520085","142.041175","0","3"
"01","北海道","01601","沙流郡日高町","016010024002","富川北二丁目","42.521073","142.033482","0","3"
"01","北海道","01601","沙流郡日高町","016010024003","富川北三丁目","42.522617","142.031423","0","3"
"01","北海道","01601","沙流郡日高町","016010024004","富川北四丁目","42.522884","142.028063","0","3"
"01","北海道","01601","沙流郡日高町","016010024005","富川北五丁目","42.532706","142.020652","0","3"
"01","北海道","01601","沙流郡日高町","016010024006","富川北六丁目","42.523923","142.035240","0","3"
"01","北海道","01601","沙流郡日高町","016010024007","富川北七丁目","42.525370","142.036768","0","3"
"01","北海道","01601","沙流郡日高町","016010025000","富川駒丘","42.540305","142.002658","0","1"
"01","北海道","01601","沙流郡日高町","016010026010","富川西十丁目","42.533912","141.989140","0","3"
"01","北海道","01601","沙流郡日高町","016010026011","富川西十一丁目","42.537784","141.984979","0","3"
"01","北海道","01601","沙流郡日高町","016010026012","富川西十二丁目","42.518733","141.989390","0","3"
"01","北海道","01601","沙流郡日高町","016010026001","富川西一丁目","42.522970","142.022767","0","3"
"01","北海道","01601","沙流郡日高町","016010026002","富川西二丁目","42.525020","142.019020","0","3"
"01","北海道","01601","沙流郡日高町","016010026003","富川西三丁目","42.527423","142.016836","0","3"
"01","北海道","01601","沙流郡日高町","016010026004","富川西四丁目","42.533255","142.012205","0","3"
"01","北海道","01601","沙流郡日高町","016010026005","富川西五丁目","42.517223","142.013200","0","3"
"01","北海道","01601","沙流郡日高町","016010026006","富川西六丁目","42.520242","142.009997","0","3"
"01","北海道","01601","沙流郡日高町","016010026007","富川西七丁目","42.524263","142.005407","0","3"
"01","北海道","01601","沙流郡日高町","016010026008","富川西八丁目","42.527955","142.000849","0","3"
"01","北海道","01601","沙流郡日高町","016010026009","富川西九丁目","42.530761","141.994711","0","3"
"01","北海道","01601","沙流郡日高町","016010027001","富川東一丁目","42.518062","142.049602","0","3"
"01","北海道","01601","沙流郡日高町","016010027002","富川東二丁目","42.513223","142.053687","0","3"
"01","北海道","01601","沙流郡日高町","016010027003","富川東三丁目","42.508118","142.061326","0","3"
"01","北海道","01601","沙流郡日高町","016010027004","富川東四丁目","42.508153","142.027790","0","3"
"01","北海道","01601","沙流郡日高町","016010027005","富川東五丁目","42.504152","142.035518","0","3"
"01","北海道","01601","沙流郡日高町","016010027006","富川東六丁目","42.498252","142.045900","0","3"
"01","北海道","01601","沙流郡日高町","016010028001","富川南一丁目","42.517555","142.029798","0","3"
"01","北海道","01601","沙流郡日高町","016010028002","富川南二丁目","42.517973","142.020406","0","3"
"01","北海道","01601","沙流郡日高町","016010028003","富川南三丁目","42.515942","142.026790","0","3"
"01","北海道","01601","沙流郡日高町","016010028004","富川南四丁目","42.514199","142.022729","0","3"
"01","北海道","01601","沙流郡日高町","016010028005","富川南五丁目","42.508579","142.016929","0","3"
"01","北海道","01601","沙流郡日高町","016010028006","富川南六丁目","42.513390","142.014176","0","3"
"01","北海道","01601","沙流郡日高町","016010029001","本町西一丁目","42.875805","142.441241","0","3"
"01","北海道","01601","沙流郡日高町","016010029002","本町西二丁目","42.876028","142.439268","0","3"
"01","北海道","01601","沙流郡日高町","016010029003","本町西三丁目","42.876784","142.438675","0","3"
"01","北海道","01601","沙流郡日高町","016010030001","本町東一丁目","42.877135","142.442154","0","3"
"01","北海道","01601","沙流郡日高町","016010030002","本町東二丁目","42.876442","142.445979","0","3"
"01","北海道","01601","沙流郡日高町","016010030003","本町東三丁目","42.878775","142.442022","0","3"
"01","北海道","01601","沙流郡日高町","016010031001","松風町一丁目","42.877763","142.448775","0","3"
"01","北海道","01601","沙流郡日高町","016010031002","松風町二丁目","42.879990","142.446118","0","3"
"01","北海道","01601","沙流郡日高町","016010032001","宮下町一丁目","42.881390","142.438801","0","3"
"01","北海道","01601","沙流郡日高町","016010032002","宮下町二丁目","42.881981","142.436997","0","3"
"01","北海道","01601","沙流郡日高町","016010032003","宮下町三丁目","42.884847","142.436930","0","3"
"01","北海道","01601","沙流郡日高町","016010033000","門別本町","42.474516","142.079071","0","1"
"01","北海道","01601","沙流郡日高町","016010034001","山手町一丁目","42.881750","142.449717","0","3"
"01","北海道","01601","沙流郡日高町","016010034002","山手町二丁目","42.884213","142.443821","0","3"
"01","北海道","01601","沙流郡日高町","016010034003","山手町三丁目","42.886002","142.449782","0","3"
"01","北海道","01601","沙流郡日高町","016010035001","若葉町一丁目","42.872458","142.435553","0","3"
"01","北海道","01601","沙流郡日高町","016010035002","若葉町二丁目","42.874981","142.442202","0","3"
