"PrefCode","PrefName","MuniCode","MuniName","DistCode","DistName","lat","lon","SrcCode","CatCode"
"01","北海道","01634","河東郡鹿追町","016340001000","字ウリマク","43.290695","143.047232","0","1"
"01","北海道","01634","河東郡鹿追町","016340002001","泉町一丁目","43.102582","142.986413","0","3"
"01","北海道","01634","河東郡鹿追町","016340002002","泉町二丁目","43.104977","142.987200","0","3"
"01","北海道","01634","河東郡鹿追町","016340002003","泉町三丁目","43.106653","142.987794","0","3"
"01","北海道","01634","河東郡鹿追町","016340002004","泉町四丁目","43.109232","142.988696","0","3"
"01","北海道","01634","河東郡鹿追町","016340003001","瓜幕西一丁目","43.167138","143.021629","0","3"
"01","北海道","01634","河東郡鹿追町","016340004000","瓜幕西二十四線","43.165468","143.049414","0","1"
"01","北海道","01634","河東郡鹿追町","016340005000","瓜幕西二十五線","43.166720","143.042766","0","1"
"01","北海道","01634","河東郡鹿追町","016340006000","瓜幕西二十六線","43.167960","143.036143","0","1"
"01","北海道","01634","河東郡鹿追町","016340007000","瓜幕西二十七線","43.169183","143.031406","0","1"
"01","北海道","01634","河東郡鹿追町","016340008000","瓜幕西二十八線","43.175722","143.024623","0","1"
"01","北海道","01634","河東郡鹿追町","016340009000","瓜幕西二十九線","43.173036","143.016648","0","1"
"01","北海道","01634","河東郡鹿追町","016340003002","瓜幕西二丁目","43.168407","143.023828","0","3"
"01","北海道","01634","河東郡鹿追町","016340010000","瓜幕西三十線","43.169084","143.008186","0","1"
"01","北海道","01634","河東郡鹿追町","016340011000","瓜幕西三十一線","43.165895","142.999923","0","1"
"01","北海道","01634","河東郡鹿追町","016340012000","瓜幕西三十二線","43.167163","142.993303","0","1"
"01","北海道","01634","河東郡鹿追町","016340013000","瓜幕西三十三線","43.168267","142.986918","0","1"
"01","北海道","01634","河東郡鹿追町","016340003003","瓜幕西三丁目","43.169890","143.024303","0","3"
"01","北海道","01634","河東郡鹿追町","016340014001","瓜幕東一丁目","43.166180","143.026806","0","3"
"01","北海道","01634","河東郡鹿追町","016340014002","瓜幕東二丁目","43.167793","143.027368","0","3"
"01","北海道","01634","河東郡鹿追町","016340014003","瓜幕東三丁目","43.169449","143.027938","0","3"
"01","北海道","01634","河東郡鹿追町","016340015001","瓜幕南一丁目","43.163914","143.025624","0","3"
"01","北海道","01634","河東郡鹿追町","016340015002","瓜幕南二丁目","43.165180","143.022678","0","3"
"01","北海道","01634","河東郡鹿追町","016340015003","瓜幕南三丁目","43.165783","143.019395","0","3"
"01","北海道","01634","河東郡鹿追町","016340016000","柏ケ丘","43.095043","142.977728","0","1"
"01","北海道","01634","河東郡鹿追町","016340017000","上然別西十線","43.042289","143.055544","0","1"
"01","北海道","01634","河東郡鹿追町","016340018000","上然別西十一線","43.041865","143.048842","0","1"
"01","北海道","01634","河東郡鹿追町","016340019000","上然別西十二線","43.045967","143.041338","0","1"
"01","北海道","01634","河東郡鹿追町","016340020000","上然別西十三線","43.047619","143.034642","0","1"
"01","北海道","01634","河東郡鹿追町","016340021000","上然別西九線","43.038750","143.062899","0","1"
"01","北海道","01634","河東郡鹿追町","016340022000","上幌内","43.184757","142.973319","0","1"
"01","北海道","01634","河東郡鹿追町","016340023000","上幌内一線北","43.164683","142.964841","0","1"
"01","北海道","01634","河東郡鹿追町","016340024000","上幌内一線南","43.154880","142.960316","0","1"
"01","北海道","01634","河東郡鹿追町","016340025000","上幌内二線北","43.168520","142.959001","0","1"
"01","北海道","01634","河東郡鹿追町","016340026000","上幌内二線南","43.154507","142.953668","0","1"
"01","北海道","01634","河東郡鹿追町","016340027000","上幌内三線北","43.170279","142.951463","0","1"
"01","北海道","01634","河東郡鹿追町","016340028000","上幌内三線南","43.152672","142.945651","0","1"
"01","北海道","01634","河東郡鹿追町","016340029000","上幌内四線北","43.171247","142.943814","0","1"
"01","北海道","01634","河東郡鹿追町","016340030000","上幌内四線南","43.154214","142.937239","0","1"
"01","北海道","01634","河東郡鹿追町","016340031000","上幌内五線北","43.170375","142.936337","0","1"
"01","北海道","01634","河東郡鹿追町","016340032000","上幌内五線南","43.151476","142.928003","0","1"
"01","北海道","01634","河東郡鹿追町","016340033000","上幌内基線北","43.163486","142.971764","0","1"
"01","北海道","01634","河東郡鹿追町","016340034000","上幌内基線南","43.152553","142.968167","0","1"
"01","北海道","01634","河東郡鹿追町","016340035000","北瓜幕","43.209168","143.027682","0","1"
"01","北海道","01634","河東郡鹿追町","016340036000","北鹿追北十線","43.128309","143.043642","0","1"
"01","北海道","01634","河東郡鹿追町","016340037000","北鹿追北十一線","43.132801","143.048527","0","1"
"01","北海道","01634","河東郡鹿追町","016340038000","北鹿追北十二線","43.138025","143.046914","0","1"
"01","北海道","01634","河東郡鹿追町","016340039000","北鹿追北十三線","43.142830","143.048619","0","1"
"01","北海道","01634","河東郡鹿追町","016340040000","北鹿追北十四線","43.147657","143.050446","0","1"
"01","北海道","01634","河東郡鹿追町","016340041000","北鹿追北十五線","43.150955","143.051161","0","1"
"01","北海道","01634","河東郡鹿追町","016340042000","北鹿追北六線","43.109145","143.037185","0","1"
"01","北海道","01634","河東郡鹿追町","016340043000","北鹿追北七線","43.113864","143.038781","0","1"
"01","北海道","01634","河東郡鹿追町","016340044000","北鹿追北八線","43.118651","143.040051","0","1"
"01","北海道","01634","河東郡鹿追町","016340045000","北鹿追北九線","43.123477","143.041928","0","1"
"01","北海道","01634","河東郡鹿追町","016340046001","北町一丁目","43.111994","142.997507","0","3"
"01","北海道","01634","河東郡鹿追町","016340046002","北町二丁目","43.112435","142.994511","0","3"
"01","北海道","01634","河東郡鹿追町","016340046003","北町三丁目","43.112886","142.992298","0","3"
"01","北海道","01634","河東郡鹿追町","016340046004","北町四丁目","43.113436","142.989866","0","3"
"01","北海道","01634","河東郡鹿追町","016340047001","栄町一丁目","43.100313","142.987285","0","3"
"01","北海道","01634","河東郡鹿追町","016340047002","栄町二丁目","43.100310","142.989148","0","3"
"01","北海道","01634","河東郡鹿追町","016340048000","笹川北十線","43.136976","143.001171","0","1"
"01","北海道","01634","河東郡鹿追町","016340049000","笹川北十一線","43.141683","143.003547","0","1"
"01","北海道","01634","河東郡鹿追町","016340050000","笹川北十二線","43.146014","143.006251","0","1"
"01","北海道","01634","河東郡鹿追町","016340051000","笹川北十三線","43.150781","143.006005","0","1"
"01","北海道","01634","河東郡鹿追町","016340052000","笹川北十四線","43.155488","143.008582","0","1"
"01","北海道","01634","河東郡鹿追町","016340053000","笹川北十五線","43.158903","143.009152","0","1"
"01","北海道","01634","河東郡鹿追町","016340054000","笹川北六線","43.117837","142.992183","0","1"
"01","北海道","01634","河東郡鹿追町","016340055000","笹川北七線","43.123338","142.988830","0","1"
"01","北海道","01634","河東郡鹿追町","016340056000","笹川北八線","43.127992","142.996586","0","1"
"01","北海道","01634","河東郡鹿追町","016340057000","笹川北九線","43.132724","142.998330","0","1"
"01","北海道","01634","河東郡鹿追町","016340058000","鹿追基線","43.082463","143.013604","0","1"
"01","北海道","01634","河東郡鹿追町","016340059000","鹿追北一線","43.086735","143.018051","0","1"
"01","北海道","01634","河東郡鹿追町","016340060000","鹿追北二線","43.091922","143.018710","0","1"
"01","北海道","01634","河東郡鹿追町","016340061000","鹿追北三線","43.096556","143.022984","0","1"
"01","北海道","01634","河東郡鹿追町","016340062000","鹿追北四線","43.101571","143.022211","0","1"
"01","北海道","01634","河東郡鹿追町","016340063000","鹿追北五線","43.106333","143.026177","0","1"
"01","北海道","01634","河東郡鹿追町","016340064000","鹿追南一線","43.077455","143.014230","0","1"
"01","北海道","01634","河東郡鹿追町","016340065000","鹿追南二線","43.072704","143.013966","0","1"
"01","北海道","01634","河東郡鹿追町","016340066001","新町一丁目","43.101723","142.991173","0","3"
"01","北海道","01634","河東郡鹿追町","016340066002","新町二丁目","43.103909","142.991883","0","3"
"01","北海道","01634","河東郡鹿追町","016340066003","新町三丁目","43.105790","142.992689","0","3"
"01","北海道","01634","河東郡鹿追町","016340066004","新町四丁目","43.108253","142.993521","0","3"
"01","北海道","01634","河東郡鹿追町","016340067000","中瓜幕西二十線","43.178200","143.082024","0","1"
"01","北海道","01634","河東郡鹿追町","016340068000","中瓜幕西二十一線","43.170421","143.072279","0","1"
"01","北海道","01634","河東郡鹿追町","016340069000","中瓜幕西二十二線","43.174008","143.066376","0","1"
"01","北海道","01634","河東郡鹿追町","016340070000","中瓜幕西二十三線","43.172935","143.059069","0","1"
"01","北海道","01634","河東郡鹿追町","016340071001","仲町一丁目","43.102155","142.988685","0","3"
"01","北海道","01634","河東郡鹿追町","016340071002","仲町二丁目","43.104335","142.989535","0","3"
"01","北海道","01634","河東郡鹿追町","016340071003","仲町三丁目","43.106233","142.990164","0","3"
"01","北海道","01634","河東郡鹿追町","016340071004","仲町四丁目","43.108760","142.990998","0","3"
"01","北海道","01634","河東郡鹿追町","016340072000","西笹川","43.147792","142.973602","0","1"
"01","北海道","01634","河東郡鹿追町","016340073001","西町一丁目","43.103207","142.983076","0","3"
"01","北海道","01634","河東郡鹿追町","016340073002","西町二丁目","43.105448","142.983620","0","3"
"01","北海道","01634","河東郡鹿追町","016340073003","西町三丁目","43.107317","142.984256","0","3"
"01","北海道","01634","河東郡鹿追町","016340073004","西町四丁目","43.109955","142.985146","0","3"
"01","北海道","01634","河東郡鹿追町","016340074000","東瓜幕西十線","43.156172","143.144171","0","1"
"01","北海道","01634","河東郡鹿追町","016340075000","東瓜幕西十一線","43.158177","143.138551","0","1"
"01","北海道","01634","河東郡鹿追町","016340076000","東瓜幕西十二線","43.160834","143.132350","0","1"
"01","北海道","01634","河東郡鹿追町","016340077000","東瓜幕西十三線","43.164044","143.126396","0","1"
"01","北海道","01634","河東郡鹿追町","016340078000","東瓜幕西十四線","43.167530","143.120604","0","1"
"01","北海道","01634","河東郡鹿追町","016340079000","東瓜幕西十五線","43.171995","143.115158","0","1"
"01","北海道","01634","河東郡鹿追町","016340080000","東瓜幕西十六線","43.173200","143.108551","0","1"
"01","北海道","01634","河東郡鹿追町","016340081000","東瓜幕西十七線","43.174452","143.101904","0","1"
"01","北海道","01634","河東郡鹿追町","016340082000","東瓜幕西十八線","43.175724","143.095245","0","1"
"01","北海道","01634","河東郡鹿追町","016340083000","東瓜幕西十九線","43.176959","143.088631","0","1"
"01","北海道","01634","河東郡鹿追町","016340084000","東瓜幕西九線","43.153784","143.148444","0","1"
"01","北海道","01634","河東郡鹿追町","016340085001","東町一丁目","43.099341","142.989049","0","3"
"01","北海道","01634","河東郡鹿追町","016340085002","東町二丁目","43.098842","142.992583","0","3"
"01","北海道","01634","河東郡鹿追町","016340085003","東町三丁目","43.097382","142.991034","0","3"
"01","北海道","01634","河東郡鹿追町","016340085004","東町四丁目","43.093957","142.991810","0","3"
"01","北海道","01634","河東郡鹿追町","016340086000","美蔓西十四線","43.047784","143.028509","0","1"
"01","北海道","01634","河東郡鹿追町","016340087000","美蔓西十五線","43.050265","143.021389","0","1"
"01","北海道","01634","河東郡鹿追町","016340088000","美蔓西十六線","43.053331","143.013894","0","1"
"01","北海道","01634","河東郡鹿追町","016340089000","美蔓西十七線","43.058045","143.006176","0","1"
"01","北海道","01634","河東郡鹿追町","016340090000","美蔓西十八線","43.063277","142.998123","0","1"
"01","北海道","01634","河東郡鹿追町","016340091000","美蔓西十九線","43.067170","142.990473","0","1"
"01","北海道","01634","河東郡鹿追町","016340092000","美蔓西二十線","43.069916","142.983485","0","1"
"01","北海道","01634","河東郡鹿追町","016340093000","美蔓西二十一線","43.065607","142.977173","0","1"
"01","北海道","01634","河東郡鹿追町","016340094000","美蔓西二十二線","43.067695","142.970929","0","1"
"01","北海道","01634","河東郡鹿追町","016340095000","幌内","43.117684","142.954171","0","1"
"01","北海道","01634","河東郡鹿追町","016340096000","幌内西二十一線","43.081348","142.974990","0","1"
"01","北海道","01634","河東郡鹿追町","016340097000","幌内西二十二線","43.083497","142.967608","0","1"
"01","北海道","01634","河東郡鹿追町","016340098000","幌内西二十三線","43.085963","142.960465","0","1"
"01","北海道","01634","河東郡鹿追町","016340099000","幌内西二十四線","43.091139","142.952882","0","1"
"01","北海道","01634","河東郡鹿追町","016340100000","幌内西二十五線","43.097947","142.945055","0","1"
"01","北海道","01634","河東郡鹿追町","016340101000","幌内西二十六線","43.113695","142.936182","0","1"
"01","北海道","01634","河東郡鹿追町","016340102000","幌内西二十七線","43.116055","142.930556","0","1"
"01","北海道","01634","河東郡鹿追町","016340103001","緑町一丁目","43.101175","142.993879","0","3"
"01","北海道","01634","河東郡鹿追町","016340103002","緑町二丁目","43.103370","142.994654","0","3"
"01","北海道","01634","河東郡鹿追町","016340103003","緑町三丁目","43.105219","142.995252","0","3"
"01","北海道","01634","河東郡鹿追町","016340103004","緑町四丁目","43.107683","142.996285","0","3"
"01","北海道","01634","河東郡鹿追町","016340104001","南町一丁目","43.097271","142.982785","0","3"
"01","北海道","01634","河東郡鹿追町","016340104002","南町二丁目","43.096881","142.987318","0","3"
"01","北海道","01634","河東郡鹿追町","016340104003","南町三丁目","43.094917","142.988647","0","3"
"01","北海道","01634","河東郡鹿追町","016340104004","南町四丁目","43.095154","142.984777","0","3"
"01","北海道","01634","河東郡鹿追町","016340104005","南町五丁目","43.091919","142.988446","0","3"
"01","北海道","01634","河東郡鹿追町","016340105001","元町一丁目","43.099578","142.985438","0","3"
"01","北海道","01634","河東郡鹿追町","016340105002","元町二丁目","43.100908","142.984598","0","3"
"01","北海道","01634","河東郡鹿追町","016340105003","元町三丁目","43.098421","142.982379","0","3"
"01","北海道","01634","河東郡鹿追町","016340105004","元町四丁目","43.100923","142.980680","0","3"
