"PrefCode","PrefName","MuniCode","MuniName","DistCode","DistName","lat","lon","SrcCode","CatCode"
"01","北海道","01692","標津郡中標津町","016920001000","青葉台","43.540284","144.908841","0","1"
"01","北海道","01692","標津郡中標津町","016920002000","字開陽","43.633362","144.861707","0","1"
"01","北海道","01692","標津郡中標津町","016920003000","字上標津","43.511639","144.763649","0","1"
"01","北海道","01692","標津郡中標津町","016920004000","字協和","43.519167","145.010064","0","1"
"01","北海道","01692","標津郡中標津町","016920005000","字計根別","43.490691","144.790109","0","1"
"01","北海道","01692","標津郡中標津町","016920006000","字俵橋","43.590738","145.027984","0","1"
"01","北海道","01692","標津郡中標津町","016920007000","字当幌三十八線","43.506294","144.899592","0","1"
"01","北海道","01692","標津郡中標津町","016920008000","字当幌三十九線","43.504743","144.890786","0","1"
"01","北海道","01692","標津郡中標津町","016920009000","字当幌四十線","43.505076","144.880962","0","1"
"01","北海道","01692","標津郡中標津町","016920010000","字当幌四十一線","43.503789","144.872795","0","1"
"01","北海道","01692","標津郡中標津町","016920011000","字当幌四十二線","43.500688","144.867101","0","1"
"01","北海道","01692","標津郡中標津町","016920012000","字当幌四十三線","43.498036","144.861625","0","1"
"01","北海道","01692","標津郡中標津町","016920013000","字当幌四十四線","43.498962","144.851249","0","1"
"01","北海道","01692","標津郡中標津町","016920014000","字当幌四十五線","43.495919","144.845978","0","1"
"01","北海道","01692","標津郡中標津町","016920015000","字当幌四十六線","43.495921","144.836835","0","1"
"01","北海道","01692","標津郡中標津町","016920016000","字当幌四十七線","43.493385","144.832354","0","1"
"01","北海道","01692","標津郡中標津町","016920017000","字当幌四十八線","43.485051","144.831092","0","1"
"01","北海道","01692","標津郡中標津町","016920018000","字当幌四十九線","43.483066","144.824135","0","1"
"01","北海道","01692","標津郡中標津町","016920019000","字当幌五十線","43.481197","144.819638","0","1"
"01","北海道","01692","標津郡中標津町","016920020000","字当幌五十一線","43.479665","144.816817","0","1"
"01","北海道","01692","標津郡中標津町","016920021000","字当幌五十二線","43.478221","144.814891","0","1"
"01","北海道","01692","標津郡中標津町","016920022000","字当幌本通","43.511730","144.914974","0","1"
"01","北海道","01692","標津郡中標津町","016920023000","字豊岡","43.488275","144.947439","0","1"
"01","北海道","01692","標津郡中標津町","016920024000","字西竹","43.588453","144.746023","0","1"
"01","北海道","01692","標津郡中標津町","016920025000","旭ヶ丘","43.543474","144.995543","0","1"
"01","北海道","01692","標津郡中標津町","016920026000","字俣落","43.623994","144.803123","0","1"
"01","北海道","01692","標津郡中標津町","016920027000","字武佐","43.646195","144.920303","0","1"
"01","北海道","01692","標津郡中標津町","016920028000","字養老牛","43.596711","144.648368","0","1"
"01","北海道","01692","標津郡中標津町","016920029001","大通北一丁目","43.548404","144.972550","0","3"
"01","北海道","01692","標津郡中標津町","016920029002","大通北二丁目","43.549058","144.971738","0","3"
"01","北海道","01692","標津郡中標津町","016920029003","大通北三丁目","43.549614","144.971051","0","3"
"01","北海道","01692","標津郡中標津町","016920029004","大通北四丁目","43.550186","144.970231","0","3"
"01","北海道","01692","標津郡中標津町","016920030001","大通南一丁目","43.547667","144.973495","0","3"
"01","北海道","01692","標津郡中標津町","016920030002","大通南二丁目","43.546997","144.974343","0","3"
"01","北海道","01692","標津郡中標津町","016920030003","大通南三丁目","43.546380","144.975098","0","3"
"01","北海道","01692","標津郡中標津町","016920030004","大通南四丁目","43.545727","144.976224","0","3"
"01","北海道","01692","標津郡中標津町","016920031001","川西一丁目","43.554494","144.949117","0","3"
"01","北海道","01692","標津郡中標津町","016920031002","川西二丁目","43.554060","144.946955","0","3"
"01","北海道","01692","標津郡中標津町","016920031003","川西三丁目","43.553384","144.945411","0","3"
"01","北海道","01692","標津郡中標津町","016920031004","川西四丁目","43.551808","144.948849","0","3"
"01","北海道","01692","標津郡中標津町","016920031005","川西五丁目","43.553982","144.942397","0","3"
"01","北海道","01692","標津郡中標津町","016920031006","川西六丁目","43.550501","144.945741","0","3"
"01","北海道","01692","標津郡中標津町","016920031007","川西七丁目","43.550711","144.938419","0","3"
"01","北海道","01692","標津郡中標津町","016920031008","川西八丁目","43.548693","144.942191","0","3"
"01","北海道","01692","標津郡中標津町","016920032000","北中","43.576199","144.957328","0","1"
"01","北海道","01692","標津郡中標津町","016920033001","北町一丁目","43.561877","144.971171","0","3"
"01","北海道","01692","標津郡中標津町","016920033002","北町二丁目","43.563998","144.969580","0","3"
"01","北海道","01692","標津郡中標津町","016920034000","共立","43.528701","144.988760","0","1"
"01","北海道","01692","標津郡中標津町","016920035001","計根別北一条西一丁目","43.489879","144.808749","0","3"
"01","北海道","01692","標津郡中標津町","016920035002","計根別北一条西二丁目","43.488814","144.807525","0","3"
"01","北海道","01692","標津郡中標津町","016920035003","計根別北一条西三丁目","43.488330","144.806454","0","3"
"01","北海道","01692","標津郡中標津町","016920035004","計根別北一条西四丁目","43.487718","144.805476","0","3"
"01","北海道","01692","標津郡中標津町","016920035005","計根別北一条西五丁目","43.487422","144.803505","0","3"
"01","北海道","01692","標津郡中標津町","016920036001","計根別北一条東一丁目","43.489638","144.811093","0","3"
"01","北海道","01692","標津郡中標津町","016920036002","計根別北一条東二丁目","43.490211","144.813769","0","3"
"01","北海道","01692","標津郡中標津町","016920036003","計根別北一条東三丁目","43.490770","144.814705","0","3"
"01","北海道","01692","標津郡中標津町","016920036004","計根別北一条東四丁目","43.491207","144.815517","0","3"
"01","北海道","01692","標津郡中標津町","016920036005","計根別北一条東五丁目","43.491628","144.816600","0","3"
"01","北海道","01692","標津郡中標津町","016920036006","計根別北一条東六丁目","43.492205","144.817737","0","3"
"01","北海道","01692","標津郡中標津町","016920036007","計根別北一条東七丁目","43.493108","144.819080","0","3"
"01","北海道","01692","標津郡中標津町","016920037002","計根別北二条西二丁目","43.489527","144.807267","0","3"
"01","北海道","01692","標津郡中標津町","016920037003","計根別北二条西三丁目","43.489182","144.806389","0","3"
"01","北海道","01692","標津郡中標津町","016920037004","計根別北二条西四丁目","43.488338","144.804643","0","3"
"01","北海道","01692","標津郡中標津町","016920038001","計根別北二条東一丁目","43.490553","144.811710","0","3"
"01","北海道","01692","標津郡中標津町","016920038003","計根別北二条東三丁目","43.491468","144.813941","0","3"
"01","北海道","01692","標津郡中標津町","016920038004","計根別北二条東四丁目","43.492503","144.815230","0","3"
"01","北海道","01692","標津郡中標津町","016920038006","計根別北二条東六丁目","43.494285","144.817080","0","3"
"01","北海道","01692","標津郡中標津町","016920039002","計根別北三条西二丁目","43.490448","144.807212","0","3"
"01","北海道","01692","標津郡中標津町","016920039003","計根別北三条西三丁目","43.489576","144.805884","0","3"
"01","北海道","01692","標津郡中標津町","016920040001","計根別本通西一丁目","43.488248","144.809727","0","3"
"01","北海道","01692","標津郡中標津町","016920040002","計根別本通西二丁目","43.487810","144.808273","0","3"
"01","北海道","01692","標津郡中標津町","016920040003","計根別本通西三丁目","43.487386","144.806880","0","3"
"01","北海道","01692","標津郡中標津町","016920040004","計根別本通西四丁目","43.486987","144.805237","0","3"
"01","北海道","01692","標津郡中標津町","016920040005","計根別本通西五丁目","43.486439","144.803670","0","3"
"01","北海道","01692","標津郡中標津町","016920041001","計根別本通東一丁目","43.488792","144.811540","0","3"
"01","北海道","01692","標津郡中標津町","016920041002","計根別本通東二丁目","43.489567","144.813317","0","3"
"01","北海道","01692","標津郡中標津町","016920041003","計根別本通東三丁目","43.489822","144.815040","0","3"
"01","北海道","01692","標津郡中標津町","016920041004","計根別本通東四丁目","43.490175","144.816240","0","3"
"01","北海道","01692","標津郡中標津町","016920041005","計根別本通東五丁目","43.490541","144.817704","0","3"
"01","北海道","01692","標津郡中標津町","016920041006","計根別本通東六丁目","43.491332","144.818846","0","3"
"01","北海道","01692","標津郡中標津町","016920041007","計根別本通東七丁目","43.491924","144.820710","0","3"
"01","北海道","01692","標津郡中標津町","016920041008","計根別本通東八丁目","43.492903","144.822438","0","3"
"01","北海道","01692","標津郡中標津町","016920042001","計根別南一条西一丁目","43.487438","144.810217","0","3"
"01","北海道","01692","標津郡中標津町","016920042002","計根別南一条西二丁目","43.486992","144.808751","0","3"
"01","北海道","01692","標津郡中標津町","016920042003","計根別南一条西三丁目","43.486560","144.807333","0","3"
"01","北海道","01692","標津郡中標津町","016920042004","計根別南一条西四丁目","43.486226","144.806074","0","3"
"01","北海道","01692","標津郡中標津町","016920043001","計根別南一条東一丁目","43.487897","144.811902","0","3"
"01","北海道","01692","標津郡中標津町","016920043002","計根別南一条東二丁目","43.488670","144.813889","0","3"
"01","北海道","01692","標津郡中標津町","016920043003","計根別南一条東三丁目","43.489022","144.815586","0","3"
"01","北海道","01692","標津郡中標津町","016920043004","計根別南一条東四丁目","43.489425","144.816868","0","3"
"01","北海道","01692","標津郡中標津町","016920043005","計根別南一条東五丁目","43.489877","144.818499","0","3"
"01","北海道","01692","標津郡中標津町","016920044001","計根別南二条西一丁目","43.485416","144.810560","0","3"
"01","北海道","01692","標津郡中標津町","016920044003","計根別南二条西三丁目","43.485812","144.807737","0","3"
"01","北海道","01692","標津郡中標津町","016920044004","計根別南二条西四丁目","43.485524","144.806810","0","3"
"01","北海道","01692","標津郡中標津町","016920045001","計根別南二条東一丁目","43.486092","144.813334","0","3"
"01","北海道","01692","標津郡中標津町","016920045002","計根別南二条東二丁目","43.487941","144.814127","0","3"
"01","北海道","01692","標津郡中標津町","016920045003","計根別南二条東三丁目","43.487653","144.816895","0","3"
"01","北海道","01692","標津郡中標津町","016920045004","計根別南二条東四丁目","43.488397","144.818511","0","3"
"01","北海道","01692","標津郡中標津町","016920046003","計根別南三条西三丁目","43.484919","144.807919","0","3"
"01","北海道","01692","標津郡中標津町","016920047001","桜ヶ丘一丁目","43.541440","144.976553","0","3"
"01","北海道","01692","標津郡中標津町","016920047002","桜ヶ丘二丁目","43.541582","144.981022","0","3"
"01","北海道","01692","標津郡中標津町","016920047003","桜ヶ丘三丁目","43.539302","144.981728","0","3"
"01","北海道","01692","標津郡中標津町","016920047004","桜ヶ丘四丁目","43.538209","144.981926","0","3"
"01","北海道","01692","標津郡中標津町","016920048001","並美ヶ丘一丁目","43.539916","144.963532","0","3"
"01","北海道","01692","標津郡中標津町","016920048002","並美ヶ丘二丁目","43.539863","144.959737","0","3"
"01","北海道","01692","標津郡中標津町","016920048003","並美ヶ丘三丁目","43.537046","144.962347","0","3"
"01","北海道","01692","標津郡中標津町","016920048004","並美ヶ丘四丁目","43.537963","144.965657","0","3"
"01","北海道","01692","標津郡中標津町","016920049010","西十条北十丁目","43.548410","144.957167","0","3"
"01","北海道","01692","標津郡中標津町","016920049011","西十条北十一丁目","43.548840","144.956407","0","3"
"01","北海道","01692","標津郡中標津町","016920049012","西十条北十二丁目","43.549464","144.955146","0","3"
"01","北海道","01692","標津郡中標津町","016920049001","西十条北一丁目","43.542607","144.963597","0","3"
"01","北海道","01692","標津郡中標津町","016920049003","西十条北三丁目","43.544262","144.962530","0","3"
"01","北海道","01692","標津郡中標津町","016920049004","西十条北四丁目","43.544671","144.961779","0","3"
"01","北海道","01692","標津郡中標津町","016920049007","西十条北七丁目","43.546639","144.959361","0","3"
"01","北海道","01692","標津郡中標津町","016920049008","西十条北八丁目","43.547368","144.958784","0","3"
"01","北海道","01692","標津郡中標津町","016920049009","西十条北九丁目","43.547963","144.957927","0","3"
"01","北海道","01692","標津郡中標津町","016920050010","西十条南十丁目","43.535773","144.972978","0","3"
"01","北海道","01692","標津郡中標津町","016920050005","西十条南五丁目","43.539484","144.967590","0","3"
"01","北海道","01692","標津郡中標津町","016920050006","西十条南六丁目","43.538943","144.968281","0","3"
"01","北海道","01692","標津郡中標津町","016920050007","西十条南七丁目","43.538414","144.969212","0","3"
"01","北海道","01692","標津郡中標津町","016920050008","西十条南八丁目","43.537793","144.970094","0","3"
"01","北海道","01692","標津郡中標津町","016920050009","西十条南九丁目","43.537209","144.971760","0","3"
"01","北海道","01692","標津郡中標津町","016920051010","西十一条北十丁目","43.547986","144.956576","0","3"
"01","北海道","01692","標津郡中標津町","016920051011","西十一条北十一丁目","43.548560","144.955254","0","3"
"01","北海道","01692","標津郡中標津町","016920051012","西十一条北十二丁目","43.549090","144.954668","0","3"
"01","北海道","01692","標津郡中標津町","016920051013","西十一条北十三丁目","43.549783","144.954042","0","3"
"01","北海道","01692","標津郡中標津町","016920051014","西十一条北十四丁目","43.550133","144.953154","0","3"
"01","北海道","01692","標津郡中標津町","016920051003","西十一条北三丁目","43.543541","144.961660","0","3"
"01","北海道","01692","標津郡中標津町","016920051004","西十一条北四丁目","43.544143","144.960856","0","3"
"01","北海道","01692","標津郡中標津町","016920051005","西十一条北五丁目","43.544584","144.959809","0","3"
"01","北海道","01692","標津郡中標津町","016920051006","西十一条北六丁目","43.545218","144.959029","0","3"
"01","北海道","01692","標津郡中標津町","016920051007","西十一条北七丁目","43.546113","144.958700","0","3"
"01","北海道","01692","標津郡中標津町","016920051008","西十一条北八丁目","43.546700","144.957904","0","3"
"01","北海道","01692","標津郡中標津町","016920051009","西十一条北九丁目","43.547201","144.957031","0","3"
"01","北海道","01692","標津郡中標津町","016920052010","西十一条南十丁目","43.535345","144.971102","0","3"
"01","北海道","01692","標津郡中標津町","016920052011","西十一条南十一丁目","43.534629","144.972006","0","3"
"01","北海道","01692","標津郡中標津町","016920052005","西十一条南五丁目","43.539478","144.966974","0","3"
"01","北海道","01692","標津郡中標津町","016920052006","西十一条南六丁目","43.538712","144.967919","0","3"
"01","北海道","01692","標津郡中標津町","016920052007","西十一条南七丁目","43.537721","144.968583","0","3"
"01","北海道","01692","標津郡中標津町","016920052008","西十一条南八丁目","43.536869","144.969306","0","3"
"01","北海道","01692","標津郡中標津町","016920052009","西十一条南九丁目","43.536426","144.970686","0","3"
"01","北海道","01692","標津郡中標津町","016920053010","西十二条北十丁目","43.547285","144.955814","0","3"
"01","北海道","01692","標津郡中標津町","016920053011","西十二条北十一丁目","43.547684","144.954609","0","3"
"01","北海道","01692","標津郡中標津町","016920053012","西十二条北十二丁目","43.548458","144.953520","0","3"
"01","北海道","01692","標津郡中標津町","016920053013","西十二条北十三丁目","43.549219","144.953286","0","3"
"01","北海道","01692","標津郡中標津町","016920053014","西十二条北十四丁目","43.549719","144.952579","0","3"
"01","北海道","01692","標津郡中標津町","016920053003","西十二条北三丁目","43.543173","144.960578","0","3"
"01","北海道","01692","標津郡中標津町","016920053004","西十二条北四丁目","43.543549","144.959934","0","3"
"01","北海道","01692","標津郡中標津町","016920053005","西十二条北五丁目","43.544157","144.959154","0","3"
"01","北海道","01692","標津郡中標津町","016920053006","西十二条北六丁目","43.544788","144.958370","0","3"
"01","北海道","01692","標津郡中標津町","016920053007","西十二条北七丁目","43.545371","144.957646","0","3"
"01","北海道","01692","標津郡中標津町","016920053008","西十二条北八丁目","43.545881","144.957022","0","3"
"01","北海道","01692","標津郡中標津町","016920053009","西十二条北九丁目","43.546566","144.956392","0","3"
"01","北海道","01692","標津郡中標津町","016920054010","西十二条南十丁目","43.534803","144.970266","0","3"
"01","北海道","01692","標津郡中標津町","016920054011","西十二条南十一丁目","43.534098","144.971176","0","3"
"01","北海道","01692","標津郡中標津町","016920054007","西十二条南七丁目","43.537056","144.967383","0","3"
"01","北海道","01692","標津郡中標津町","016920054008","西十二条南八丁目","43.536300","144.968353","0","3"
"01","北海道","01692","標津郡中標津町","016920054009","西十二条南九丁目","43.535557","144.969303","0","3"
"01","北海道","01692","標津郡中標津町","016920055010","西十三条北十丁目","43.546737","144.954861","0","3"
"01","北海道","01692","標津郡中標津町","016920055011","西十三条北十一丁目","43.547029","144.953791","0","3"
"01","北海道","01692","標津郡中標津町","016920055012","西十三条北十二丁目","43.548011","144.952613","0","3"
"01","北海道","01692","標津郡中標津町","016920055013","西十三条北十三丁目","43.548697","144.952431","0","3"
"01","北海道","01692","標津郡中標津町","016920055014","西十三条北十四丁目","43.549307","144.951676","0","3"
"01","北海道","01692","標津郡中標津町","016920055004","西十三条北四丁目","43.543011","144.959121","0","3"
"01","北海道","01692","標津郡中標津町","016920055005","西十三条北五丁目","43.543619","144.958328","0","3"
"01","北海道","01692","標津郡中標津町","016920055006","西十三条北六丁目","43.544247","144.957539","0","3"
"01","北海道","01692","標津郡中標津町","016920055007","西十三条北七丁目","43.544829","144.956816","0","3"
"01","北海道","01692","標津郡中標津町","016920055008","西十三条北八丁目","43.545350","144.956186","0","3"
"01","北海道","01692","標津郡中標津町","016920055009","西十三条北九丁目","43.545912","144.955683","0","3"
"01","北海道","01692","標津郡中標津町","016920056010","西十四条北十丁目","43.546257","144.954112","0","3"
"01","北海道","01692","標津郡中標津町","016920056011","西十四条北十一丁目","43.546798","144.953161","0","3"
"01","北海道","01692","標津郡中標津町","016920056012","西十四条北十二丁目","43.547606","144.952147","0","3"
"01","北海道","01692","標津郡中標津町","016920056013","西十四条北十三丁目","43.548244","144.951699","0","3"
"01","北海道","01692","標津郡中標津町","016920056014","西十四条北十四丁目","43.548922","144.950755","0","3"
"01","北海道","01692","標津郡中標津町","016920056015","西十四条北十五丁目","43.549935","144.950325","0","3"
"01","北海道","01692","標津郡中標津町","016920056004","西十四条北四丁目","43.542637","144.958284","0","3"
"01","北海道","01692","標津郡中標津町","016920056005","西十四条北五丁目","43.543204","144.957611","0","3"
"01","北海道","01692","標津郡中標津町","016920056006","西十四条北六丁目","43.543808","144.956858","0","3"
"01","北海道","01692","標津郡中標津町","016920056007","西十四条北七丁目","43.544382","144.956142","0","3"
"01","北海道","01692","標津郡中標津町","016920056008","西十四条北八丁目","43.544911","144.955496","0","3"
"01","北海道","01692","標津郡中標津町","016920056009","西十四条北九丁目","43.545843","144.954569","0","3"
"01","北海道","01692","標津郡中標津町","016920057001","西一条北一丁目","43.547889","144.971709","0","3"
"01","北海道","01692","標津郡中標津町","016920057002","西一条北二丁目","43.548454","144.971002","0","3"
"01","北海道","01692","標津郡中標津町","016920057003","西一条北三丁目","43.549197","144.970123","0","3"
"01","北海道","01692","標津郡中標津町","016920058001","西一条南一丁目","43.547154","144.972686","0","3"
"01","北海道","01692","標津郡中標津町","016920058002","西一条南二丁目","43.546527","144.973429","0","3"
"01","北海道","01692","標津郡中標津町","016920058003","西一条南三丁目","43.545845","144.974282","0","3"
"01","北海道","01692","標津郡中標津町","016920058004","西一条南四丁目","43.544968","144.975142","0","3"
"01","北海道","01692","標津郡中標津町","016920059001","西二条北一丁目","43.547295","144.970835","0","3"
"01","北海道","01692","標津郡中標津町","016920059002","西二条北二丁目","43.547977","144.970091","0","3"
"01","北海道","01692","標津郡中標津町","016920059003","西二条北三丁目","43.548586","144.969306","0","3"
"01","北海道","01692","標津郡中標津町","016920059004","西二条北四丁目","43.549189","144.968241","0","3"
"01","北海道","01692","標津郡中標津町","016920059005","西二条北五丁目","43.550097","144.966851","0","3"
"01","北海道","01692","標津郡中標津町","016920060001","西二条南一丁目","43.546618","144.971906","0","3"
"01","北海道","01692","標津郡中標津町","016920060002","西二条南二丁目","43.545936","144.972730","0","3"
"01","北海道","01692","標津郡中標津町","016920060003","西二条南三丁目","43.545318","144.973464","0","3"
"01","北海道","01692","標津郡中標津町","016920060004","西二条南四丁目","43.544585","144.974498","0","3"
"01","北海道","01692","標津郡中標津町","016920060006","西二条南六丁目","43.543321","144.974836","0","3"
"01","北海道","01692","標津郡中標津町","016920061001","西三条北一丁目","43.546709","144.969943","0","3"
"01","北海道","01692","標津郡中標津町","016920061002","西三条北二丁目","43.547410","144.969249","0","3"
"01","北海道","01692","標津郡中標津町","016920061003","西三条北三丁目","43.547995","144.968429","0","3"
"01","北海道","01692","標津郡中標津町","016920061004","西三条北四丁目","43.548660","144.967706","0","3"
"01","北海道","01692","標津郡中標津町","016920061005","西三条北五丁目","43.549208","144.966834","0","3"
"01","北海道","01692","標津郡中標津町","016920061006","西三条北六丁目","43.549917","144.965963","0","3"
"01","北海道","01692","標津郡中標津町","016920061007","西三条北七丁目","43.550673","144.965232","0","3"
"01","北海道","01692","標津郡中標津町","016920061008","西三条北八丁目","43.551301","144.964742","0","3"
"01","北海道","01692","標津郡中標津町","016920061009","西三条北九丁目","43.551651","144.963817","0","3"
"01","北海道","01692","標津郡中標津町","016920062001","西三条南一丁目","43.546214","144.971204","0","3"
"01","北海道","01692","標津郡中標津町","016920062002","西三条南二丁目","43.545434","144.972023","0","3"
"01","北海道","01692","標津郡中標津町","016920062003","西三条南三丁目","43.544783","144.972983","0","3"
"01","北海道","01692","標津郡中標津町","016920062004","西三条南四丁目","43.544252","144.973143","0","3"
"01","北海道","01692","標津郡中標津町","016920062005","西三条南五丁目","43.543925","144.973958","0","3"
"01","北海道","01692","標津郡中標津町","016920063010","西四条北十丁目","43.551874","144.962544","0","3"
"01","北海道","01692","標津郡中標津町","016920063001","西四条北一丁目","43.546344","144.969134","0","3"
"01","北海道","01692","標津郡中標津町","016920063002","西四条北二丁目","43.546833","144.968380","0","3"
"01","北海道","01692","標津郡中標津町","016920063003","西四条北三丁目","43.547446","144.967601","0","3"
"01","北海道","01692","標津郡中標津町","016920063004","西四条北四丁目","43.548063","144.966775","0","3"
"01","北海道","01692","標津郡中標津町","016920063005","西四条北五丁目","43.548696","144.966023","0","3"
"01","北海道","01692","標津郡中標津町","016920063006","西四条北六丁目","43.549333","144.965251","0","3"
"01","北海道","01692","標津郡中標津町","016920063007","西四条北七丁目","43.549993","144.964427","0","3"
"01","北海道","01692","標津郡中標津町","016920063008","西四条北八丁目","43.550628","144.963683","0","3"
"01","北海道","01692","標津郡中標津町","016920063009","西四条北九丁目","43.551259","144.962896","0","3"
"01","北海道","01692","標津郡中標津町","016920064001","西四条南一丁目","43.545715","144.970710","0","3"
"01","北海道","01692","標津郡中標津町","016920064002","西四条南二丁目","43.544994","144.971298","0","3"
"01","北海道","01692","標津郡中標津町","016920064003","西四条南三丁目","43.544649","144.971961","0","3"
"01","北海道","01692","標津郡中標津町","016920064004","西四条南四丁目","43.544060","144.972285","0","3"
"01","北海道","01692","標津郡中標津町","016920064005","西四条南五丁目","43.543367","144.973087","0","3"
"01","北海道","01692","標津郡中標津町","016920065010","西五条北十丁目","43.551403","144.961291","0","3"
"01","北海道","01692","標津郡中標津町","016920065011","西五条北十一丁目","43.551640","144.960513","0","3"
"01","北海道","01692","標津郡中標津町","016920065001","西五条北一丁目","43.545818","144.968127","0","3"
"01","北海道","01692","標津郡中標津町","016920065002","西五条北二丁目","43.546302","144.967525","0","3"
"01","北海道","01692","標津郡中標津町","016920065003","西五条北三丁目","43.546901","144.966773","0","3"
"01","北海道","01692","標津郡中標津町","016920065004","西五条北四丁目","43.547508","144.965971","0","3"
"01","北海道","01692","標津郡中標津町","016920065005","西五条北五丁目","43.548078","144.965273","0","3"
"01","北海道","01692","標津郡中標津町","016920065006","西五条北六丁目","43.548774","144.964428","0","3"
"01","北海道","01692","標津郡中標津町","016920065007","西五条北七丁目","43.549372","144.963682","0","3"
"01","北海道","01692","標津郡中標津町","016920065008","西五条北八丁目","43.550069","144.962826","0","3"
"01","北海道","01692","標津郡中標津町","016920065009","西五条北九丁目","43.550599","144.962125","0","3"
"01","北海道","01692","標津郡中標津町","016920066010","西五条南十丁目","43.539108","144.975727","0","3"
"01","北海道","01692","標津郡中標津町","016920066011","西五条南十一丁目","43.538106","144.976986","0","3"
"01","北海道","01692","標津郡中標津町","016920066001","西五条南一丁目","43.545315","144.969022","0","3"
"01","北海道","01692","標津郡中標津町","016920066002","西五条南二丁目","43.544353","144.970303","0","3"
"01","北海道","01692","標津郡中標津町","016920066003","西五条南三丁目","43.543769","144.971096","0","3"
"01","北海道","01692","標津郡中標津町","016920066004","西五条南四丁目","43.543242","144.971575","0","3"
"01","北海道","01692","標津郡中標津町","016920066005","西五条南五丁目","43.542929","144.972413","0","3"
"01","北海道","01692","標津郡中標津町","016920066007","西五条南七丁目","43.541123","144.973422","0","3"
"01","北海道","01692","標津郡中標津町","016920066008","西五条南八丁目","43.540415","144.974150","0","3"
"01","北海道","01692","標津郡中標津町","016920066009","西五条南九丁目","43.539794","144.975037","0","3"
"01","北海道","01692","標津郡中標津町","016920067010","西六条北十丁目","43.550779","144.960491","0","3"
"01","北海道","01692","標津郡中標津町","016920067011","西六条北十一丁目","43.551232","144.959950","0","3"
"01","北海道","01692","標津郡中標津町","016920067001","西六条北一丁目","43.545295","144.967070","0","3"
"01","北海道","01692","標津郡中標津町","016920067002","西六条北二丁目","43.545757","144.966599","0","3"
"01","北海道","01692","標津郡中標津町","016920067003","西六条北三丁目","43.546306","144.965875","0","3"
"01","北海道","01692","標津郡中標津町","016920067004","西六条北四丁目","43.546941","144.965100","0","3"
"01","北海道","01692","標津郡中標津町","016920067005","西六条北五丁目","43.547513","144.964416","0","3"
"01","北海道","01692","標津郡中標津町","016920067006","西六条北六丁目","43.548289","144.963489","0","3"
"01","北海道","01692","標津郡中標津町","016920067007","西六条北七丁目","43.548897","144.962792","0","3"
"01","北海道","01692","標津郡中標津町","016920067008","西六条北八丁目","43.549520","144.962052","0","3"
"01","北海道","01692","標津郡中標津町","016920067009","西六条北九丁目","43.550130","144.961085","0","3"
"01","北海道","01692","標津郡中標津町","016920068010","西六条南十丁目","43.538584","144.975416","0","3"
"01","北海道","01692","標津郡中標津町","016920068011","西六条南十一丁目","43.537536","144.976130","0","3"
"01","北海道","01692","標津郡中標津町","016920068002","西六条南二丁目","43.543771","144.969135","0","3"
"01","北海道","01692","標津郡中標津町","016920068003","西六条南三丁目","43.543020","144.969939","0","3"
"01","北海道","01692","標津郡中標津町","016920068004","西六条南四丁目","43.542551","144.970555","0","3"
"01","北海道","01692","標津郡中標津町","016920068005","西六条南五丁目","43.541881","144.971811","0","3"
"01","北海道","01692","標津郡中標津町","016920068007","西六条南七丁目","43.540705","144.972918","0","3"
"01","北海道","01692","標津郡中標津町","016920068008","西六条南八丁目","43.539998","144.973483","0","3"
"01","北海道","01692","標津郡中標津町","016920068009","西六条南九丁目","43.539396","144.974451","0","3"
"01","北海道","01692","標津郡中標津町","016920069010","西七条北十丁目","43.550212","144.959613","0","3"
"01","北海道","01692","標津郡中標津町","016920069011","西七条北十一丁目","43.550633","144.959093","0","3"
"01","北海道","01692","標津郡中標津町","016920069001","西七条北一丁目","43.544912","144.966469","0","3"
"01","北海道","01692","標津郡中標津町","016920069002","西七条北二丁目","43.545339","144.965914","0","3"
"01","北海道","01692","標津郡中標津町","016920069003","西七条北三丁目","43.545885","144.965049","0","3"
"01","北海道","01692","標津郡中標津町","016920069004","西七条北四丁目","43.546367","144.964453","0","3"
"01","北海道","01692","標津郡中標津町","016920069005","西七条北五丁目","43.547047","144.963462","0","3"
"01","北海道","01692","標津郡中標津町","016920069006","西七条北六丁目","43.547673","144.962735","0","3"
"01","北海道","01692","標津郡中標津町","016920069007","西七条北七丁目","43.548221","144.961895","0","3"
"01","北海道","01692","標津郡中標津町","016920069008","西七条北八丁目","43.548937","144.961144","0","3"
"01","北海道","01692","標津郡中標津町","016920069009","西七条北九丁目","43.549536","144.960386","0","3"
"01","北海道","01692","標津郡中標津町","016920070010","西七条南十丁目","43.538102","144.974434","0","3"
"01","北海道","01692","標津郡中標津町","016920070011","西七条南十一丁目","43.537120","144.975140","0","3"
"01","北海道","01692","標津郡中標津町","016920070001","西七条南一丁目","43.544347","144.966625","0","3"
"01","北海道","01692","標津郡中標津町","016920070002","西七条南二丁目","43.543067","144.968479","0","3"
"01","北海道","01692","標津郡中標津町","016920070003","西七条南三丁目","43.542458","144.969112","0","3"
"01","北海道","01692","標津郡中標津町","016920070004","西七条南四丁目","43.541980","144.969708","0","3"
"01","北海道","01692","標津郡中標津町","016920070005","西七条南五丁目","43.540624","144.969967","0","3"
"01","北海道","01692","標津郡中標津町","016920070007","西七条南七丁目","43.540256","144.971966","0","3"
"01","北海道","01692","標津郡中標津町","016920070008","西七条南八丁目","43.539504","144.972742","0","3"
"01","北海道","01692","標津郡中標津町","016920070009","西七条南九丁目","43.538795","144.973518","0","3"
"01","北海道","01692","標津郡中標津町","016920071010","西八条北十丁目","43.549634","144.958737","0","3"
"01","北海道","01692","標津郡中標津町","016920071011","西八条北十一丁目","43.550199","144.958413","0","3"
"01","北海道","01692","標津郡中標津町","016920071003","西八条北三丁目","43.545338","144.964186","0","3"
"01","北海道","01692","標津郡中標津町","016920071004","西八条北四丁目","43.545900","144.963481","0","3"
"01","北海道","01692","標津郡中標津町","016920071005","西八条北五丁目","43.545754","144.961609","0","3"
"01","北海道","01692","標津郡中標津町","016920071006","西八条北六丁目","43.546390","144.960804","0","3"
"01","北海道","01692","標津郡中標津町","016920071007","西八条北七丁目","43.547729","144.961022","0","3"
"01","北海道","01692","標津郡中標津町","016920071008","西八条北八丁目","43.548379","144.960321","0","3"
"01","北海道","01692","標津郡中標津町","016920071009","西八条北九丁目","43.548987","144.959498","0","3"
"01","北海道","01692","標津郡中標津町","016920072010","西八条南十丁目","43.537540","144.973823","0","3"
"01","北海道","01692","標津郡中標津町","016920072011","西八条南十一丁目","43.536869","144.974736","0","3"
"01","北海道","01692","標津郡中標津町","016920072001","西八条南一丁目","43.543360","144.967280","0","3"
"01","北海道","01692","標津郡中標津町","016920072002","西八条南二丁目","43.542563","144.967818","0","3"
"01","北海道","01692","標津郡中標津町","016920072003","西八条南三丁目","43.541882","144.968223","0","3"
"01","北海道","01692","標津郡中標津町","016920072004","西八条南四丁目","43.541380","144.968811","0","3"
"01","北海道","01692","標津郡中標津町","016920072007","西八条南七丁目","43.539602","144.971103","0","3"
"01","北海道","01692","標津郡中標津町","016920072008","西八条南八丁目","43.538871","144.971894","0","3"
"01","北海道","01692","標津郡中標津町","016920072009","西八条南九丁目","43.538337","144.972745","0","3"
"01","北海道","01692","標津郡中標津町","016920073010","西九条北十丁目","43.548993","144.957841","0","3"
"01","北海道","01692","標津郡中標津町","016920073011","西九条北十一丁目","43.549576","144.957511","0","3"
"01","北海道","01692","標津郡中標津町","016920073001","西九条北一丁目","43.544296","144.964786","0","3"
"01","北海道","01692","標津郡中標津町","016920073003","西九条北三丁目","43.544648","144.963190","0","3"
"01","北海道","01692","標津郡中標津町","016920073004","西九条北四丁目","43.545312","144.962339","0","3"
"01","北海道","01692","標津郡中標津町","016920073007","西九条北七丁目","43.547162","144.960217","0","3"
"01","北海道","01692","標津郡中標津町","016920073008","西九条北八丁目","43.547852","144.959495","0","3"
"01","北海道","01692","標津郡中標津町","016920073009","西九条北九丁目","43.548337","144.958741","0","3"
"01","北海道","01692","標津郡中標津町","016920074010","西九条南十丁目","43.537233","144.973201","0","3"
"01","北海道","01692","標津郡中標津町","016920074011","西九条南十一丁目","43.536495","144.974364","0","3"
"01","北海道","01692","標津郡中標津町","016920074001","西九条南一丁目","43.541577","144.965499","0","3"
"01","北海道","01692","標津郡中標津町","016920074003","西九条南三丁目","43.541498","144.967433","0","3"
"01","北海道","01692","標津郡中標津町","016920074004","西九条南四丁目","43.540672","144.967803","0","3"
"01","北海道","01692","標津郡中標津町","016920074005","西九条南五丁目","43.539520","144.968275","0","3"
"01","北海道","01692","標津郡中標津町","016920074007","西九条南七丁目","43.538898","144.970040","0","3"
"01","北海道","01692","標津郡中標津町","016920074008","西九条南八丁目","43.538295","144.970889","0","3"
"01","北海道","01692","標津郡中標津町","016920074009","西九条南九丁目","43.537954","144.972189","0","3"
"01","北海道","01692","標津郡中標津町","016920075001","西町一丁目","43.555811","144.961303","0","3"
"01","北海道","01692","標津郡中標津町","016920075002","西町二丁目","43.555321","144.959432","0","3"
"01","北海道","01692","標津郡中標津町","016920075003","西町三丁目","43.555175","144.957114","0","3"
"01","北海道","01692","標津郡中標津町","016920075004","西町四丁目","43.552689","144.957185","0","3"
"01","北海道","01692","標津郡中標津町","016920075005","西町五丁目","43.554426","144.954279","0","3"
"01","北海道","01692","標津郡中標津町","016920075006","西町六丁目","43.554493","144.951467","0","3"
"01","北海道","01692","標津郡中標津町","016920075007","西町七丁目","43.552943","144.951868","0","3"
"01","北海道","01692","標津郡中標津町","016920075008","西町八丁目","43.551640","144.954735","0","3"
"01","北海道","01692","標津郡中標津町","016920076010","東十条北十丁目","43.560261","144.973232","0","3"
"01","北海道","01692","標津郡中標津町","016920076011","東十条北十一丁目","43.560892","144.972438","0","3"
"01","北海道","01692","標津郡中標津町","016920076001","東十条北一丁目","43.554236","144.982512","0","3"
"01","北海道","01692","標津郡中標津町","016920076002","東十条北二丁目","43.554570","144.981327","0","3"
"01","北海道","01692","標津郡中標津町","016920076003","東十条北三丁目","43.555069","144.981036","0","3"
"01","北海道","01692","標津郡中標津町","016920076004","東十条北四丁目","43.555976","144.978257","0","3"
"01","北海道","01692","標津郡中標津町","016920076005","東十条北五丁目","43.556784","144.977881","0","3"
"01","北海道","01692","標津郡中標津町","016920076006","東十条北六丁目","43.557258","144.976989","0","3"
"01","北海道","01692","標津郡中標津町","016920076007","東十条北七丁目","43.557801","144.976279","0","3"
"01","北海道","01692","標津郡中標津町","016920076008","東十条北八丁目","43.558565","144.975534","0","3"
"01","北海道","01692","標津郡中標津町","016920076009","東十条北九丁目","43.559273","144.974297","0","3"
"01","北海道","01692","標津郡中標津町","016920077010","東十条南十丁目","43.547256","144.989642","0","3"
"01","北海道","01692","標津郡中標津町","016920077011","東十条南十一丁目","43.546691","144.990371","0","3"
"01","北海道","01692","標津郡中標津町","016920077001","東十条南一丁目","43.553259","144.982724","0","3"
"01","北海道","01692","標津郡中標津町","016920077002","東十条南二丁目","43.552437","144.983216","0","3"
"01","北海道","01692","標津郡中標津町","016920077003","東十条南三丁目","43.552058","144.983689","0","3"
"01","北海道","01692","標津郡中標津町","016920077004","東十条南四丁目","43.551559","144.984287","0","3"
"01","北海道","01692","標津郡中標津町","016920077005","東十条南五丁目","43.551056","144.984828","0","3"
"01","北海道","01692","標津郡中標津町","016920077006","東十条南六丁目","43.550605","144.985387","0","3"
"01","北海道","01692","標津郡中標津町","016920077007","東十条南七丁目","43.549275","144.986714","0","3"
"01","北海道","01692","標津郡中標津町","016920077008","東十条南八丁目","43.548220","144.987562","0","3"
"01","北海道","01692","標津郡中標津町","016920077009","東十条南九丁目","43.547847","144.988891","0","3"
"01","北海道","01692","標津郡中標津町","016920078010","東十一条北十丁目","43.560792","144.974296","0","3"
"01","北海道","01692","標津郡中標津町","016920078011","東十一条北十一丁目","43.561512","144.973297","0","3"
"01","北海道","01692","標津郡中標津町","016920078001","東十一条北一丁目","43.554535","144.984062","0","3"
"01","北海道","01692","標津郡中標津町","016920078002","東十一条北二丁目","43.555402","144.982508","0","3"
"01","北海道","01692","標津郡中標津町","016920078004","東十一条北四丁目","43.556365","144.979173","0","3"
"01","北海道","01692","標津郡中標津町","016920078005","東十一条北五丁目","43.557078","144.978892","0","3"
"01","北海道","01692","標津郡中標津町","016920078006","東十一条北六丁目","43.557724","144.977883","0","3"
"01","北海道","01692","標津郡中標津町","016920078007","東十一条北七丁目","43.558365","144.977180","0","3"
"01","北海道","01692","標津郡中標津町","016920078008","東十一条北八丁目","43.558941","144.976459","0","3"
"01","北海道","01692","標津郡中標津町","016920078009","東十一条北九丁目","43.559796","144.975148","0","3"
"01","北海道","01692","標津郡中標津町","016920079010","東十一条南十丁目","43.547756","144.990459","0","3"
"01","北海道","01692","標津郡中標津町","016920079011","東十一条南十一丁目","43.547191","144.991016","0","3"
"01","北海道","01692","標津郡中標津町","016920079001","東十一条南一丁目","43.553216","144.983531","0","3"
"01","北海道","01692","標津郡中標津町","016920079002","東十一条南二丁目","43.552708","144.983458","0","3"
"01","北海道","01692","標津郡中標津町","016920079003","東十一条南三丁目","43.552514","144.984398","0","3"
"01","北海道","01692","標津郡中標津町","016920079004","東十一条南四丁目","43.552033","144.984976","0","3"
"01","北海道","01692","標津郡中標津町","016920079005","東十一条南五丁目","43.551519","144.985518","0","3"
"01","北海道","01692","標津郡中標津町","016920079006","東十一条南六丁目","43.550753","144.986263","0","3"
"01","北海道","01692","標津郡中標津町","016920079007","東十一条南七丁目","43.550338","144.987720","0","3"
"01","北海道","01692","標津郡中標津町","016920079008","東十一条南八丁目","43.549152","144.988616","0","3"
"01","北海道","01692","標津郡中標津町","016920079009","東十一条南九丁目","43.548376","144.989658","0","3"
"01","北海道","01692","標津郡中標津町","016920080010","東十二条北十丁目","43.561474","144.974918","0","3"
"01","北海道","01692","標津郡中標津町","016920080011","東十二条北十一丁目","43.562099","144.974123","0","3"
"01","北海道","01692","標津郡中標津町","016920080005","東十二条北五丁目","43.557332","144.979788","0","3"
"01","北海道","01692","標津郡中標津町","016920080006","東十二条北六丁目","43.558281","144.978757","0","3"
"01","北海道","01692","標津郡中標津町","016920080007","東十二条北七丁目","43.558893","144.977970","0","3"
"01","北海道","01692","標津郡中標津町","016920080008","東十二条北八丁目","43.559537","144.977204","0","3"
"01","北海道","01692","標津郡中標津町","016920080009","東十二条北九丁目","43.560484","144.975856","0","3"
"01","北海道","01692","標津郡中標津町","016920081010","東十二条南十丁目","43.548269","144.991273","0","3"
"01","北海道","01692","標津郡中標津町","016920081011","東十二条南十一丁目","43.547769","144.992028","0","3"
"01","北海道","01692","標津郡中標津町","016920081001","東十二条南一丁目","43.553700","144.984008","0","3"
"01","北海道","01692","標津郡中標津町","016920081002","東十二条南二丁目","43.553265","144.984352","0","3"
"01","北海道","01692","標津郡中標津町","016920081003","東十二条南三丁目","43.553251","144.985344","0","3"
"01","北海道","01692","標津郡中標津町","016920081004","東十二条南四丁目","43.552755","144.986047","0","3"
"01","北海道","01692","標津郡中標津町","016920081005","東十二条南五丁目","43.552212","144.986605","0","3"
"01","北海道","01692","標津郡中標津町","016920081006","東十二条南六丁目","43.551408","144.987099","0","3"
"01","北海道","01692","標津郡中標津町","016920081008","東十二条南八丁目","43.549515","144.989783","0","3"
"01","北海道","01692","標津郡中標津町","016920081009","東十二条南九丁目","43.548936","144.990596","0","3"
"01","北海道","01692","標津郡中標津町","016920082010","東十三条北十丁目","43.561884","144.975486","0","3"
"01","北海道","01692","標津郡中標津町","016920082011","東十三条北十一丁目","43.562499","144.974696","0","3"
"01","北海道","01692","標津郡中標津町","016920082001","東十三条北一丁目","43.555625","144.984777","0","3"
"01","北海道","01692","標津郡中標津町","016920082004","東十三条北四丁目","43.557435","144.981369","0","3"
"01","北海道","01692","標津郡中標津町","016920082005","東十三条北五丁目","43.558037","144.980616","0","3"
"01","北海道","01692","標津郡中標津町","016920082006","東十三条北六丁目","43.558806","144.979679","0","3"
"01","北海道","01692","標津郡中標津町","016920082007","東十三条北七丁目","43.560713","144.979862","0","3"
"01","北海道","01692","標津郡中標津町","016920082008","東十三条北八丁目","43.559958","144.977859","0","3"
"01","北海道","01692","標津郡中標津町","016920082009","東十三条北九丁目","43.560772","144.976895","0","3"
"01","北海道","01692","標津郡中標津町","016920083010","東十三条南十丁目","43.548932","144.992162","0","3"
"01","北海道","01692","標津郡中標津町","016920083011","東十三条南十一丁目","43.548324","144.992852","0","3"
"01","北海道","01692","標津郡中標津町","016920083001","東十三条南一丁目","43.554180","144.985170","0","3"
"01","北海道","01692","標津郡中標津町","016920083002","東十三条南二丁目","43.553878","144.986480","0","3"
"01","北海道","01692","標津郡中標津町","016920083003","東十三条南三丁目","43.553565","144.987301","0","3"
"01","北海道","01692","標津郡中標津町","016920083004","東十三条南四丁目","43.552985","144.987399","0","3"
"01","北海道","01692","標津郡中標津町","016920083005","東十三条南五丁目","43.552599","144.987525","0","3"
"01","北海道","01692","標津郡中標津町","016920083006","東十三条南六丁目","43.552004","144.987997","0","3"
"01","北海道","01692","標津郡中標津町","016920083007","東十三条南七丁目","43.551126","144.988819","0","3"
"01","北海道","01692","標津郡中標津町","016920083008","東十三条南八丁目","43.550057","144.990268","0","3"
"01","北海道","01692","標津郡中標津町","016920083009","東十三条南九丁目","43.549627","144.991523","0","3"
"01","北海道","01692","標津郡中標津町","016920084001","東十四条北一丁目","43.555581","144.986259","0","3"
"01","北海道","01692","標津郡中標津町","016920084004","東十四条北四丁目","43.557932","144.982734","0","3"
"01","北海道","01692","標津郡中標津町","016920084005","東十四条北五丁目","43.558666","144.981822","0","3"
"01","北海道","01692","標津郡中標津町","016920084006","東十四条北六丁目","43.559251","144.980735","0","3"
"01","北海道","01692","標津郡中標津町","016920085010","東十四条南十丁目","43.549505","144.992943","0","3"
"01","北海道","01692","標津郡中標津町","016920085011","東十四条南十一丁目","43.548851","144.993674","0","3"
"01","北海道","01692","標津郡中標津町","016920085001","東十四条南一丁目","43.554931","144.986643","0","3"
"01","北海道","01692","標津郡中標津町","016920085002","東十四条南二丁目","43.554413","144.987307","0","3"
"01","北海道","01692","標津郡中標津町","016920085003","東十四条南三丁目","43.554093","144.988122","0","3"
"01","北海道","01692","標津郡中標津町","016920085004","東十四条南四丁目","43.553579","144.988194","0","3"
"01","北海道","01692","標津郡中標津町","016920085005","東十四条南五丁目","43.553299","144.988619","0","3"
"01","北海道","01692","標津郡中標津町","016920085006","東十四条南六丁目","43.552714","144.989092","0","3"
"01","北海道","01692","標津郡中標津町","016920085007","東十四条南七丁目","43.551631","144.990024","0","3"
"01","北海道","01692","標津郡中標津町","016920085008","東十四条南八丁目","43.550847","144.991161","0","3"
"01","北海道","01692","標津郡中標津町","016920085009","東十四条南九丁目","43.550138","144.992215","0","3"
"01","北海道","01692","標津郡中標津町","016920086001","東十五条北一丁目","43.556137","144.986854","0","3"
"01","北海道","01692","標津郡中標津町","016920086003","東十五条北三丁目","43.557906","144.985322","0","3"
"01","北海道","01692","標津郡中標津町","016920086004","東十五条北四丁目","43.558238","144.983742","0","3"
"01","北海道","01692","標津郡中標津町","016920086005","東十五条北五丁目","43.559188","144.982414","0","3"
"01","北海道","01692","標津郡中標津町","016920086006","東十五条北六丁目","43.560071","144.981352","0","3"
"01","北海道","01692","標津郡中標津町","016920087010","東十五条南十丁目","43.550075","144.993821","0","3"
"01","北海道","01692","標津郡中標津町","016920087011","東十五条南十一丁目","43.549420","144.994600","0","3"
"01","北海道","01692","標津郡中標津町","016920087001","東十五条南一丁目","43.555458","144.987321","0","3"
"01","北海道","01692","標津郡中標津町","016920087002","東十五条南二丁目","43.554906","144.988076","0","3"
"01","北海道","01692","標津郡中標津町","016920087003","東十五条南三丁目","43.554428","144.988663","0","3"
"01","北海道","01692","標津郡中標津町","016920087004","東十五条南四丁目","43.554206","144.989205","0","3"
"01","北海道","01692","標津郡中標津町","016920087005","東十五条南五丁目","43.553540","144.989267","0","3"
"01","北海道","01692","標津郡中標津町","016920087006","東十五条南六丁目","43.553227","144.990217","0","3"
"01","北海道","01692","標津郡中標津町","016920087007","東十五条南七丁目","43.552209","144.990859","0","3"
"01","北海道","01692","標津郡中標津町","016920087008","東十五条南八丁目","43.551273","144.992326","0","3"
"01","北海道","01692","標津郡中標津町","016920087009","東十五条南九丁目","43.550707","144.993065","0","3"
"01","北海道","01692","標津郡中標津町","016920088001","東十六条北一丁目","43.556599","144.987969","0","3"
"01","北海道","01692","標津郡中標津町","016920088003","東十六条北三丁目","43.558483","144.985493","0","3"
"01","北海道","01692","標津郡中標津町","016920088004","東十六条北四丁目","43.558769","144.984184","0","3"
"01","北海道","01692","標津郡中標津町","016920088005","東十六条北五丁目","43.559551","144.983076","0","3"
"01","北海道","01692","標津郡中標津町","016920088006","東十六条北六丁目","43.560540","144.982747","0","3"
"01","北海道","01692","標津郡中標津町","016920089010","東十六条南十丁目","43.550632","144.994669","0","3"
"01","北海道","01692","標津郡中標津町","016920089011","東十六条南十一丁目","43.549962","144.995638","0","3"
"01","北海道","01692","標津郡中標津町","016920089001","東十六条南一丁目","43.555905","144.988148","0","3"
"01","北海道","01692","標津郡中標津町","016920089002","東十六条南二丁目","43.555319","144.988808","0","3"
"01","北海道","01692","標津郡中標津町","016920089003","東十六条南三丁目","43.554813","144.989249","0","3"
"01","北海道","01692","標津郡中標津町","016920089004","東十六条南四丁目","43.554449","144.989963","0","3"
"01","北海道","01692","標津郡中標津町","016920089005","東十六条南五丁目","43.554365","144.990474","0","3"
"01","北海道","01692","標津郡中標津町","016920089006","東十六条南六丁目","43.553823","144.990842","0","3"
"01","北海道","01692","標津郡中標津町","016920089007","東十六条南七丁目","43.553126","144.991697","0","3"
"01","北海道","01692","標津郡中標津町","016920089008","東十六条南八丁目","43.551830","144.993215","0","3"
"01","北海道","01692","標津郡中標津町","016920089009","東十六条南九丁目","43.551269","144.993899","0","3"
"01","北海道","01692","標津郡中標津町","016920090001","東十七条北一丁目","43.557240","144.988308","0","3"
"01","北海道","01692","標津郡中標津町","016920090002","東十七条北二丁目","43.558504","144.986344","0","3"
"01","北海道","01692","標津郡中標津町","016920090003","東十七条北三丁目","43.559447","144.985414","0","3"
"01","北海道","01692","標津郡中標津町","016920090004","東十七条北四丁目","43.559508","144.984553","0","3"
"01","北海道","01692","標津郡中標津町","016920090005","東十七条北五丁目","43.559978","144.984291","0","3"
"01","北海道","01692","標津郡中標津町","016920090006","東十七条北六丁目","43.561085","144.983212","0","3"
"01","北海道","01692","標津郡中標津町","016920090007","東十七条北七丁目","43.561795","144.982345","0","3"
"01","北海道","01692","標津郡中標津町","016920090008","東十七条北八丁目","43.562409","144.981565","0","3"
"01","北海道","01692","標津郡中標津町","016920090009","東十七条北九丁目","43.563154","144.980102","0","3"
"01","北海道","01692","標津郡中標津町","016920091010","東十七条南十丁目","43.551198","144.995526","0","3"
"01","北海道","01692","標津郡中標津町","016920091011","東十七条南十一丁目","43.550493","144.996251","0","3"
"01","北海道","01692","標津郡中標津町","016920091001","東十七条南一丁目","43.556327","144.989017","0","3"
"01","北海道","01692","標津郡中標津町","016920091002","東十七条南二丁目","43.555828","144.989604","0","3"
"01","北海道","01692","標津郡中標津町","016920091003","東十七条南三丁目","43.555362","144.990059","0","3"
"01","北海道","01692","標津郡中標津町","016920091004","東十七条南四丁目","43.554947","144.990685","0","3"
"01","北海道","01692","標津郡中標津町","016920091005","東十七条南五丁目","43.554896","144.991280","0","3"
"01","北海道","01692","標津郡中標津町","016920091006","東十七条南六丁目","43.554486","144.991826","0","3"
"01","北海道","01692","標津郡中標津町","016920091007","東十七条南七丁目","43.553714","144.992383","0","3"
"01","北海道","01692","標津郡中標津町","016920091008","東十七条南八丁目","43.552390","144.994063","0","3"
"01","北海道","01692","標津郡中標津町","016920091009","東十七条南九丁目","43.551834","144.994744","0","3"
"01","北海道","01692","標津郡中標津町","016920092010","東十八条北十丁目","43.564344","144.981137","0","3"
"01","北海道","01692","標津郡中標津町","016920092001","東十八条北一丁目","43.557284","144.989413","0","3"
"01","北海道","01692","標津郡中標津町","016920092002","東十八条北二丁目","43.559204","144.986733","0","3"
"01","北海道","01692","標津郡中標津町","016920092003","東十八条北三丁目","43.559877","144.985917","0","3"
"01","北海道","01692","標津郡中標津町","016920092004","東十八条北四丁目","43.560334","144.985434","0","3"
"01","北海道","01692","標津郡中標津町","016920092006","東十八条北六丁目","43.561734","144.983553","0","3"
"01","北海道","01692","標津郡中標津町","016920092007","東十八条北七丁目","43.562438","144.983353","0","3"
"01","北海道","01692","標津郡中標津町","016920092008","東十八条北八丁目","43.563045","144.982549","0","3"
"01","北海道","01692","標津郡中標津町","016920092009","東十八条北九丁目","43.563655","144.981761","0","3"
"01","北海道","01692","標津郡中標津町","016920093010","東十八条南十丁目","43.551705","144.996308","0","3"
"01","北海道","01692","標津郡中標津町","016920093011","東十八条南十一丁目","43.551045","144.996895","0","3"
"01","北海道","01692","標津郡中標津町","016920093001","東十八条南一丁目","43.556831","144.989840","0","3"
"01","北海道","01692","標津郡中標津町","016920093002","東十八条南二丁目","43.556386","144.990454","0","3"
"01","北海道","01692","標津郡中標津町","016920093003","東十八条南三丁目","43.556012","144.990910","0","3"
"01","北海道","01692","標津郡中標津町","016920093004","東十八条南四丁目","43.555656","144.991296","0","3"
"01","北海道","01692","標津郡中標津町","016920093005","東十八条南五丁目","43.555361","144.991995","0","3"
"01","北海道","01692","標津郡中標津町","016920093006","東十八条南六丁目","43.554984","144.992577","0","3"
"01","北海道","01692","標津郡中標津町","016920093008","東十八条南八丁目","43.552948","144.994902","0","3"
"01","北海道","01692","標津郡中標津町","016920093009","東十八条南九丁目","43.552407","144.995573","0","3"
"01","北海道","01692","標津郡中標津町","016920094010","東十九条北十丁目","43.566181","144.980577","0","3"
"01","北海道","01692","標津郡中標津町","016920094001","東十九条北一丁目","43.557767","144.989981","0","3"
"01","北海道","01692","標津郡中標津町","016920094002","東十九条北二丁目","43.559649","144.987858","0","3"
"01","北海道","01692","標津郡中標津町","016920094003","東十九条北三丁目","43.560288","144.987010","0","3"
"01","北海道","01692","標津郡中標津町","016920094004","東十九条北四丁目","43.560913","144.986502","0","3"
"01","北海道","01692","標津郡中標津町","016920094005","東十九条北五丁目","43.561537","144.984384","0","3"
"01","北海道","01692","標津郡中標津町","016920094007","東十九条北七丁目","43.563171","144.984289","0","3"
"01","北海道","01692","標津郡中標津町","016920094008","東十九条北八丁目","43.564034","144.983201","0","3"
"01","北海道","01692","標津郡中標津町","016920094009","東十九条北九丁目","43.565247","144.981692","0","3"
"01","北海道","01692","標津郡中標津町","016920095010","東十九条南十丁目","43.552090","144.997181","0","3"
"01","北海道","01692","標津郡中標津町","016920095011","東十九条南十一丁目","43.551449","144.997662","0","3"
"01","北海道","01692","標津郡中標津町","016920095001","東十九条南一丁目","43.557405","144.990834","0","3"
"01","北海道","01692","標津郡中標津町","016920095002","東十九条南二丁目","43.556966","144.991371","0","3"
"01","北海道","01692","標津郡中標津町","016920095003","東十九条南三丁目","43.556584","144.991924","0","3"
"01","北海道","01692","標津郡中標津町","016920095004","東十九条南四丁目","43.555960","144.992280","0","3"
"01","北海道","01692","標津郡中標津町","016920095005","東十九条南五丁目","43.556093","144.993099","0","3"
"01","北海道","01692","標津郡中標津町","016920095006","東十九条南六丁目","43.555555","144.993333","0","3"
"01","北海道","01692","標津郡中標津町","016920095007","東十九条南七丁目","43.553501","144.994101","0","3"
"01","北海道","01692","標津郡中標津町","016920095008","東十九条南八丁目","43.553673","144.995736","0","3"
"01","北海道","01692","標津郡中標津町","016920095009","東十九条南九丁目","43.552914","144.996430","0","3"
"01","北海道","01692","標津郡中標津町","016920096001","東一条北一丁目","43.548905","144.973454","0","3"
"01","北海道","01692","標津郡中標津町","016920096002","東一条北二丁目","43.549620","144.972575","0","3"
"01","北海道","01692","標津郡中標津町","016920096003","東一条北三丁目","43.550210","144.971813","0","3"
"01","北海道","01692","標津郡中標津町","016920096004","東一条北四丁目","43.550666","144.971190","0","3"
"01","北海道","01692","標津郡中標津町","016920097010","東一条南十丁目","43.542037","144.982477","0","3"
"01","北海道","01692","標津郡中標津町","016920097001","東一条南一丁目","43.548132","144.974022","0","3"
"01","北海道","01692","標津郡中標津町","016920097002","東一条南二丁目","43.547384","144.974957","0","3"
"01","北海道","01692","標津郡中標津町","016920097003","東一条南三丁目","43.547052","144.976114","0","3"
"01","北海道","01692","標津郡中標津町","016920097004","東一条南四丁目","43.546705","144.976893","0","3"
"01","北海道","01692","標津郡中標津町","016920097005","東一条南五丁目","43.546542","144.977583","0","3"
"01","北海道","01692","標津郡中標津町","016920097006","東一条南六丁目","43.545196","144.977730","0","3"
"01","北海道","01692","標津郡中標津町","016920097007","東一条南七丁目","43.544656","144.979288","0","3"
"01","北海道","01692","標津郡中標津町","016920097008","東一条南八丁目","43.543743","144.980329","0","3"
"01","北海道","01692","標津郡中標津町","016920097009","東一条南九丁目","43.543012","144.981204","0","3"
"01","北海道","01692","標津郡中標津町","016920098001","東二十条北一丁目","43.558331","144.991244","0","3"
"01","北海道","01692","標津郡中標津町","016920098002","東二十条北二丁目","43.560242","144.988220","0","3"
"01","北海道","01692","標津郡中標津町","016920098003","東二十条北三丁目","43.561048","144.987708","0","3"
"01","北海道","01692","標津郡中標津町","016920098004","東二十条北四丁目","43.561643","144.987126","0","3"
"01","北海道","01692","標津郡中標津町","016920098005","東二十条北五丁目","43.561911","144.986658","0","3"
"01","北海道","01692","標津郡中標津町","016920098007","東二十条北七丁目","43.564787","144.984523","0","3"
"01","北海道","01692","標津郡中標津町","016920098008","東二十条北八丁目","43.566707","144.982147","0","3"
"01","北海道","01692","標津郡中標津町","016920099010","東二十条南十丁目","43.552474","144.998234","0","3"
"01","北海道","01692","標津郡中標津町","016920099001","東二十条南一丁目","43.557892","144.991722","0","3"
"01","北海道","01692","標津郡中標津町","016920099002","東二十条南二丁目","43.557497","144.992212","0","3"
"01","北海道","01692","標津郡中標津町","016920099003","東二十条南三丁目","43.557082","144.992769","0","3"
"01","北海道","01692","標津郡中標津町","016920099005","東二十条南五丁目","43.556620","144.993364","0","3"
"01","北海道","01692","標津郡中標津町","016920099006","東二十条南六丁目","43.556000","144.994114","0","3"
"01","北海道","01692","標津郡中標津町","016920099007","東二十条南七丁目","43.555371","144.994891","0","3"
"01","北海道","01692","標津郡中標津町","016920099008","東二十条南八丁目","43.554163","144.996210","0","3"
"01","北海道","01692","標津郡中標津町","016920099009","東二十条南九丁目","43.553470","144.997167","0","3"
"01","北海道","01692","標津郡中標津町","016920100001","東二十一条北一丁目","43.559401","144.991779","0","3"
"01","北海道","01692","標津郡中標津町","016920100003","東二十一条北三丁目","43.561671","144.988377","0","3"
"01","北海道","01692","標津郡中標津町","016920100004","東二十一条北四丁目","43.562566","144.987986","0","3"
"01","北海道","01692","標津郡中標津町","016920100005","東二十一条北五丁目","43.562241","144.985892","0","3"
"01","北海道","01692","標津郡中標津町","016920101010","東二十一条南十丁目","43.553034","144.998928","0","3"
"01","北海道","01692","標津郡中標津町","016920101001","東二十一条南一丁目","43.558272","144.992284","0","3"
"01","北海道","01692","標津郡中標津町","016920101002","東二十一条南二丁目","43.557912","144.992898","0","3"
"01","北海道","01692","標津郡中標津町","016920101003","東二十一条南三丁目","43.557467","144.993335","0","3"
"01","北海道","01692","標津郡中標津町","016920101005","東二十一条南五丁目","43.557159","144.994124","0","3"
"01","北海道","01692","標津郡中標津町","016920101006","東二十一条南六丁目","43.556549","144.994775","0","3"
"01","北海道","01692","標津郡中標津町","016920101007","東二十一条南七丁目","43.555282","144.996119","0","3"
"01","北海道","01692","標津郡中標津町","016920101008","東二十一条南八丁目","43.554725","144.997108","0","3"
"01","北海道","01692","標津郡中標津町","016920101009","東二十一条南九丁目","43.554023","144.997940","0","3"
"01","北海道","01692","標津郡中標津町","016920102001","東二十二条北一丁目","43.559424","144.992485","0","3"
"01","北海道","01692","標津郡中標津町","016920102002","東二十二条北二丁目","43.560598","144.991847","0","3"
"01","北海道","01692","標津郡中標津町","016920102003","東二十二条北三丁目","43.562087","144.989448","0","3"
"01","北海道","01692","標津郡中標津町","016920102004","東二十二条北四丁目","43.562996","144.988861","0","3"
"01","北海道","01692","標津郡中標津町","016920102005","東二十二条北五丁目","43.563342","144.987945","0","3"
"01","北海道","01692","標津郡中標津町","016920102006","東二十二条北六丁目","43.564045","144.987351","0","3"
"01","北海道","01692","標津郡中標津町","016920103010","東二十二条南十丁目","43.553618","144.999424","0","3"
"01","北海道","01692","標津郡中標津町","016920103001","東二十二条南一丁目","43.558557","144.993343","0","3"
"01","北海道","01692","標津郡中標津町","016920103002","東二十二条南二丁目","43.558289","144.992971","0","3"
"01","北海道","01692","標津郡中標津町","016920103003","東二十二条南三丁目","43.557962","144.993678","0","3"
"01","北海道","01692","標津郡中標津町","016920103004","東二十二条南四丁目","43.558093","144.994213","0","3"
"01","北海道","01692","標津郡中標津町","016920103005","東二十二条南五丁目","43.557729","144.994985","0","3"
"01","北海道","01692","標津郡中標津町","016920103006","東二十二条南六丁目","43.557080","144.995775","0","3"
"01","北海道","01692","標津郡中標津町","016920103007","東二十二条南七丁目","43.556101","144.996571","0","3"
"01","北海道","01692","標津郡中標津町","016920103008","東二十二条南八丁目","43.555310","144.997537","0","3"
"01","北海道","01692","標津郡中標津町","016920103009","東二十二条南九丁目","43.554510","144.998517","0","3"
"01","北海道","01692","標津郡中標津町","016920104001","東二十三条北一丁目","43.560287","144.993414","0","3"
"01","北海道","01692","標津郡中標津町","016920104002","東二十三条北二丁目","43.561374","144.991954","0","3"
"01","北海道","01692","標津郡中標津町","016920104003","東二十三条北三丁目","43.562833","144.990149","0","3"
"01","北海道","01692","標津郡中標津町","016920104004","東二十三条北四丁目","43.563429","144.989594","0","3"
"01","北海道","01692","標津郡中標津町","016920104005","東二十三条北五丁目","43.563977","144.989144","0","3"
"01","北海道","01692","標津郡中標津町","016920104006","東二十三条北六丁目","43.564367","144.988230","0","3"
"01","北海道","01692","標津郡中標津町","016920105001","東二十三条南一丁目","43.558977","144.993983","0","3"
"01","北海道","01692","標津郡中標津町","016920105003","東二十三条南三丁目","43.559035","144.994937","0","3"
"01","北海道","01692","標津郡中標津町","016920105004","東二十三条南四丁目","43.558469","144.995060","0","3"
"01","北海道","01692","標津郡中標津町","016920105005","東二十三条南五丁目","43.558339","144.995940","0","3"
"01","北海道","01692","標津郡中標津町","016920105006","東二十三条南六丁目","43.557569","144.996664","0","3"
"01","北海道","01692","標津郡中標津町","016920106001","東二十四条北一丁目","43.561084","144.993735","0","3"
"01","北海道","01692","標津郡中標津町","016920106002","東二十四条北二丁目","43.562059","144.992686","0","3"
"01","北海道","01692","標津郡中標津町","016920106003","東二十四条北三丁目","43.563472","144.990825","0","3"
"01","北海道","01692","標津郡中標津町","016920106004","東二十四条北四丁目","43.563976","144.990445","0","3"
"01","北海道","01692","標津郡中標津町","016920106005","東二十四条北五丁目","43.564670","144.989712","0","3"
"01","北海道","01692","標津郡中標津町","016920106006","東二十四条北六丁目","43.565143","144.988912","0","3"
"01","北海道","01692","標津郡中標津町","016920107003","東二十四条南三丁目","43.559684","144.995315","0","3"
"01","北海道","01692","標津郡中標津町","016920107004","東二十四条南四丁目","43.559219","144.996094","0","3"
"01","北海道","01692","標津郡中標津町","016920107005","東二十四条南五丁目","43.558847","144.996850","0","3"
"01","北海道","01692","標津郡中標津町","016920107006","東二十四条南六丁目","43.558134","144.997515","0","3"
"01","北海道","01692","標津郡中標津町","016920108001","東二十五条北一丁目","43.561515","144.995053","0","3"
"01","北海道","01692","標津郡中標津町","016920108002","東二十五条北二丁目","43.562895","144.993565","0","3"
"01","北海道","01692","標津郡中標津町","016920108004","東二十五条北四丁目","43.564371","144.991131","0","3"
"01","北海道","01692","標津郡中標津町","016920108005","東二十五条北五丁目","43.564939","144.990385","0","3"
"01","北海道","01692","標津郡中標津町","016920108006","東二十五条北六丁目","43.565391","144.989856","0","3"
"01","北海道","01692","標津郡中標津町","016920109001","東二十五条南一丁目","43.560381","144.995864","0","3"
"01","北海道","01692","標津郡中標津町","016920109002","東二十五条南二丁目","43.560745","144.996425","0","3"
"01","北海道","01692","標津郡中標津町","016920109003","東二十五条南三丁目","43.560027","144.996173","0","3"
"01","北海道","01692","標津郡中標津町","016920109004","東二十五条南四丁目","43.559890","144.997020","0","3"
"01","北海道","01692","標津郡中標津町","016920109005","東二十五条南五丁目","43.559398","144.997323","0","3"
"01","北海道","01692","標津郡中標津町","016920109006","東二十五条南六丁目","43.558888","144.998458","0","3"
"01","北海道","01692","標津郡中標津町","016920110001","東二十六条北一丁目","43.562239","144.996214","0","3"
"01","北海道","01692","標津郡中標津町","016920110002","東二十六条北二丁目","43.563228","144.994915","0","3"
"01","北海道","01692","標津郡中標津町","016920111001","東二十六条南一丁目","43.561061","144.997281","0","3"
"01","北海道","01692","標津郡中標津町","016920111002","東二十六条南二丁目","43.560292","144.998164","0","3"
"01","北海道","01692","標津郡中標津町","016920111003","東二十六条南三丁目","43.559560","144.999162","0","3"
"01","北海道","01692","標津郡中標津町","016920112001","東二十七条北一丁目","43.562974","144.997021","0","3"
"01","北海道","01692","標津郡中標津町","016920112002","東二十七条北二丁目","43.563672","144.995934","0","3"
"01","北海道","01692","標津郡中標津町","016920113001","東二十七条南一丁目","43.561781","144.997942","0","3"
"01","北海道","01692","標津郡中標津町","016920113002","東二十七条南二丁目","43.560662","144.998716","0","3"
"01","北海道","01692","標津郡中標津町","016920113003","東二十七条南三丁目","43.559854","144.999828","0","3"
"01","北海道","01692","標津郡中標津町","016920114001","東二十八条北一丁目","43.563249","144.998074","0","3"
"01","北海道","01692","標津郡中標津町","016920114005","東二十八条北五丁目","43.565421","144.993648","0","3"
"01","北海道","01692","標津郡中標津町","016920114006","東二十八条北六丁目","43.566131","144.991602","0","3"
"01","北海道","01692","標津郡中標津町","016920114007","東二十八条北七丁目","43.567193","144.991116","0","3"
"01","北海道","01692","標津郡中標津町","016920115001","東二十八条南一丁目","43.562247","144.998829","0","3"
"01","北海道","01692","標津郡中標津町","016920115002","東二十八条南二丁目","43.561230","144.999544","0","3"
"01","北海道","01692","標津郡中標津町","016920115003","東二十八条南三丁目","43.560386","145.000598","0","3"
"01","北海道","01692","標津郡中標津町","016920116001","東二十九条北一丁目","43.563976","144.999037","0","3"
"01","北海道","01692","標津郡中標津町","016920116005","東二十九条北五丁目","43.566679","144.995004","0","3"
"01","北海道","01692","標津郡中標津町","016920116006","東二十九条北六丁目","43.567585","144.993295","0","3"
"01","北海道","01692","標津郡中標津町","016920116007","東二十九条北七丁目","43.568584","144.992417","0","3"
"01","北海道","01692","標津郡中標津町","016920117001","東二十九条南一丁目","43.562856","144.999649","0","3"
"01","北海道","01692","標津郡中標津町","016920117002","東二十九条南二丁目","43.562029","145.000741","0","3"
"01","北海道","01692","標津郡中標津町","016920117003","東二十九条南三丁目","43.561157","145.001803","0","3"
"01","北海道","01692","標津郡中標津町","016920118001","東二条北一丁目","43.549683","144.974143","0","3"
"01","北海道","01692","標津郡中標津町","016920118002","東二条北二丁目","43.550113","144.973475","0","3"
"01","北海道","01692","標津郡中標津町","016920118003","東二条北三丁目","43.550688","144.972418","0","3"
"01","北海道","01692","標津郡中標津町","016920119010","東二条南十丁目","43.542595","144.982634","0","3"
"01","北海道","01692","標津郡中標津町","016920119011","東二条南十一丁目","43.542093","144.983482","0","3"
"01","北海道","01692","標津郡中標津町","016920119001","東二条南一丁目","43.548741","144.975337","0","3"
"01","北海道","01692","標津郡中標津町","016920119002","東二条南二丁目","43.548182","144.974837","0","3"
"01","北海道","01692","標津郡中標津町","016920119003","東二条南三丁目","43.548905","144.978537","0","3"
"01","北海道","01692","標津郡中標津町","016920119004","東二条南四丁目","43.547334","144.977894","0","3"
"01","北海道","01692","標津郡中標津町","016920119005","東二条南五丁目","43.546772","144.978409","0","3"
"01","北海道","01692","標津郡中標津町","016920119006","東二条南六丁目","43.545895","144.978861","0","3"
"01","北海道","01692","標津郡中標津町","016920119007","東二条南七丁目","43.544961","144.980724","0","3"
"01","北海道","01692","標津郡中標津町","016920119008","東二条南八丁目","43.544117","144.980939","0","3"
"01","北海道","01692","標津郡中標津町","016920119009","東二条南九丁目","43.543172","144.981936","0","3"
"01","北海道","01692","標津郡中標津町","016920120001","東三十条北一丁目","43.564264","145.000279","0","3"
"01","北海道","01692","標津郡中標津町","016920120006","東三十条北六丁目","43.568174","144.994532","0","3"
"01","北海道","01692","標津郡中標津町","016920120007","東三十条北七丁目","43.569753","144.992913","0","3"
"01","北海道","01692","標津郡中標津町","016920121001","東三十条南一丁目","43.563183","145.001429","0","3"
"01","北海道","01692","標津郡中標津町","016920121002","東三十条南二丁目","43.562353","145.002108","0","3"
"01","北海道","01692","標津郡中標津町","016920121003","東三十条南三丁目","43.561806","145.002987","0","3"
"01","北海道","01692","標津郡中標津町","016920122001","東三十一条北一丁目","43.564314","145.001453","0","3"
"01","北海道","01692","標津郡中標津町","016920122002","東三十一条北二丁目","43.564988","145.000528","0","3"
"01","北海道","01692","標津郡中標津町","016920122006","東三十一条北六丁目","43.569235","144.994977","0","3"
"01","北海道","01692","標津郡中標津町","016920122007","東三十一条北七丁目","43.570078","144.993979","0","3"
"01","北海道","01692","標津郡中標津町","016920122008","東三十一条北八丁目","43.570813","144.993115","0","3"
"01","北海道","01692","標津郡中標津町","016920123001","東三十一条南一丁目","43.563417","145.002676","0","3"
"01","北海道","01692","標津郡中標津町","016920123002","東三十一条南二丁目","43.562433","145.003878","0","3"
"01","北海道","01692","標津郡中標津町","016920124001","東三十二条北一丁目","43.564838","145.002377","0","3"
"01","北海道","01692","標津郡中標津町","016920124002","東三十二条北二丁目","43.565470","145.001571","0","3"
"01","北海道","01692","標津郡中標津町","016920124003","東三十二条北三丁目","43.566034","145.000841","0","3"
"01","北海道","01692","標津郡中標津町","016920124004","東三十二条北四丁目","43.567142","144.999787","0","3"
"01","北海道","01692","標津郡中標津町","016920124005","東三十二条北五丁目","43.567875","144.998722","0","3"
"01","北海道","01692","標津郡中標津町","016920124007","東三十二条北七丁目","43.570397","144.994592","0","3"
"01","北海道","01692","標津郡中標津町","016920124008","東三十二条北八丁目","43.571772","144.993811","0","3"
"01","北海道","01692","標津郡中標津町","016920125001","東三十二条南一丁目","43.563927","145.003401","0","3"
"01","北海道","01692","標津郡中標津町","016920125002","東三十二条南二丁目","43.562959","145.004613","0","3"
"01","北海道","01692","標津郡中標津町","016920126001","東三十三条北一丁目","43.565296","145.003289","0","3"
"01","北海道","01692","標津郡中標津町","016920126002","東三十三条北二丁目","43.565971","145.002291","0","3"
"01","北海道","01692","標津郡中標津町","016920126003","東三十三条北三丁目","43.566664","145.001618","0","3"
"01","北海道","01692","標津郡中標津町","016920126004","東三十三条北四丁目","43.567753","145.001067","0","3"
"01","北海道","01692","標津郡中標津町","016920126005","東三十三条北五丁目","43.569054","144.999398","0","3"
"01","北海道","01692","標津郡中標津町","016920126006","東三十三条北六丁目","43.570200","144.998508","0","3"
"01","北海道","01692","標津郡中標津町","016920127001","東三十三条南一丁目","43.564337","145.004308","0","3"
"01","北海道","01692","標津郡中標津町","016920127002","東三十三条南二丁目","43.563483","145.005393","0","3"
"01","北海道","01692","標津郡中標津町","016920128001","東三十四条北一丁目","43.565859","145.004229","0","3"
"01","北海道","01692","標津郡中標津町","016920128002","東三十四条北二丁目","43.566620","145.003279","0","3"
"01","北海道","01692","標津郡中標津町","016920128003","東三十四条北三丁目","43.567354","145.002442","0","3"
"01","北海道","01692","標津郡中標津町","016920129001","東三十四条南一丁目","43.564920","145.005294","0","3"
"01","北海道","01692","標津郡中標津町","016920129002","東三十四条南二丁目","43.564104","145.006317","0","3"
"01","北海道","01692","標津郡中標津町","016920130001","東三十五条北一丁目","43.566313","145.005405","0","3"
"01","北海道","01692","標津郡中標津町","016920130002","東三十五条北二丁目","43.567204","145.004188","0","3"
"01","北海道","01692","標津郡中標津町","016920130003","東三十五条北三丁目","43.567822","145.003428","0","3"
"01","北海道","01692","標津郡中標津町","016920130004","東三十五条北四丁目","43.568567","145.002101","0","3"
"01","北海道","01692","標津郡中標津町","016920130005","東三十五条北五丁目","43.569776","145.000621","0","3"
"01","北海道","01692","標津郡中標津町","016920130006","東三十五条北六丁目","43.571003","144.999026","0","3"
"01","北海道","01692","標津郡中標津町","016920131001","東三十五条南一丁目","43.565429","145.006199","0","3"
"01","北海道","01692","標津郡中標津町","016920131002","東三十五条南二丁目","43.564778","145.007115","0","3"
"01","北海道","01692","標津郡中標津町","016920132001","東三十六条北一丁目","43.566884","145.006053","0","3"
"01","北海道","01692","標津郡中標津町","016920132002","東三十六条北二丁目","43.567792","145.005167","0","3"
"01","北海道","01692","標津郡中標津町","016920132003","東三十六条北三丁目","43.568348","145.004240","0","3"
"01","北海道","01692","標津郡中標津町","016920132004","東三十六条北四丁目","43.569200","145.003094","0","3"
"01","北海道","01692","標津郡中標津町","016920132005","東三十六条北五丁目","43.570388","145.001603","0","3"
"01","北海道","01692","標津郡中標津町","016920132006","東三十六条北六丁目","43.571749","144.999979","0","3"
"01","北海道","01692","標津郡中標津町","016920133001","東三十六条南一丁目","43.566006","145.006935","0","3"
"01","北海道","01692","標津郡中標津町","016920133002","東三十六条南二丁目","43.565229","145.008017","0","3"
"01","北海道","01692","標津郡中標津町","016920134001","東三十七条北一丁目","43.567241","145.007071","0","3"
"01","北海道","01692","標津郡中標津町","016920134002","東三十七条北二丁目","43.568035","145.006101","0","3"
"01","北海道","01692","標津郡中標津町","016920134003","東三十七条北三丁目","43.568712","145.005380","0","3"
"01","北海道","01692","標津郡中標津町","016920134004","東三十七条北四丁目","43.569932","145.004220","0","3"
"01","北海道","01692","標津郡中標津町","016920134005","東三十七条北五丁目","43.571134","145.002705","0","3"
"01","北海道","01692","標津郡中標津町","016920135001","東三十七条南一丁目","43.566080","145.008563","0","3"
"01","北海道","01692","標津郡中標津町","016920136001","東三十八条北一丁目","43.567837","145.008002","0","3"
"01","北海道","01692","標津郡中標津町","016920136002","東三十八条北二丁目","43.568680","145.006793","0","3"
"01","北海道","01692","標津郡中標津町","016920136003","東三十八条北三丁目","43.569274","145.005995","0","3"
"01","北海道","01692","標津郡中標津町","016920137001","東三十八条南一丁目","43.566703","145.009250","0","3"
"01","北海道","01692","標津郡中標津町","016920137002","東三十八条南二丁目","43.566293","145.010246","0","3"
"01","北海道","01692","標津郡中標津町","016920138001","東三十九条北一丁目","43.568266","145.008853","0","3"
"01","北海道","01692","標津郡中標津町","016920138002","東三十九条北二丁目","43.569105","145.007832","0","3"
"01","北海道","01692","標津郡中標津町","016920138003","東三十九条北三丁目","43.569676","145.006852","0","3"
"01","北海道","01692","標津郡中標津町","016920138004","東三十九条北四丁目","43.570726","145.005428","0","3"
"01","北海道","01692","標津郡中標津町","016920138005","東三十九条北五丁目","43.571925","145.003918","0","3"
"01","北海道","01692","標津郡中標津町","016920138006","東三十九条北六丁目","43.572729","145.002934","0","3"
"01","北海道","01692","標津郡中標津町","016920139001","東三十九条南一丁目","43.567543","145.009752","0","3"
"01","北海道","01692","標津郡中標津町","016920139002","東三十九条南二丁目","43.567036","145.010718","0","3"
"01","北海道","01692","標津郡中標津町","016920140001","東三条北一丁目","43.549833","144.975454","0","3"
"01","北海道","01692","標津郡中標津町","016920140002","東三条北二丁目","43.550821","144.973919","0","3"
"01","北海道","01692","標津郡中標津町","016920140003","東三条北三丁目","43.551075","144.973338","0","3"
"01","北海道","01692","標津郡中標津町","016920141010","東三条南十丁目","43.543161","144.983664","0","3"
"01","北海道","01692","標津郡中標津町","016920141011","東三条南十一丁目","43.542824","144.984551","0","3"
"01","北海道","01692","標津郡中標津町","016920141001","東三条南一丁目","43.549158","144.976302","0","3"
"01","北海道","01692","標津郡中標津町","016920141004","東三条南四丁目","43.547940","144.978824","0","3"
"01","北海道","01692","標津郡中標津町","016920141005","東三条南五丁目","43.547463","144.979420","0","3"
"01","北海道","01692","標津郡中標津町","016920141006","東三条南六丁目","43.546541","144.979699","0","3"
"01","北海道","01692","標津郡中標津町","016920141007","東三条南七丁目","43.545733","144.980769","0","3"
"01","北海道","01692","標津郡中標津町","016920141008","東三条南八丁目","43.544829","144.981814","0","3"
"01","北海道","01692","標津郡中標津町","016920141009","東三条南九丁目","43.543952","144.982883","0","3"
"01","北海道","01692","標津郡中標津町","016920142001","東四十条北一丁目","43.568909","145.010046","0","3"
"01","北海道","01692","標津郡中標津町","016920142002","東四十条北二丁目","43.569426","145.008332","0","3"
"01","北海道","01692","標津郡中標津町","016920142003","東四十条北三丁目","43.570144","145.007325","0","3"
"01","北海道","01692","標津郡中標津町","016920142004","東四十条北四丁目","43.571156","145.006048","0","3"
"01","北海道","01692","標津郡中標津町","016920143001","東四十条南一丁目","43.567795","145.011603","0","3"
"01","北海道","01692","標津郡中標津町","016920144001","東四十一条北一丁目","43.569583","145.011022","0","3"
"01","北海道","01692","標津郡中標津町","016920145001","東四十一条南一丁目","43.568423","145.012351","0","3"
"01","北海道","01692","標津郡中標津町","016920146001","東四十二条北一丁目","43.570020","145.011583","0","3"
"01","北海道","01692","標津郡中標津町","016920147001","東四十二条南一丁目","43.568990","145.012854","0","3"
"01","北海道","01692","標津郡中標津町","016920148001","東四条北一丁目","43.550774","144.976713","0","3"
"01","北海道","01692","標津郡中標津町","016920148002","東四条北二丁目","43.551255","144.976218","0","3"
"01","北海道","01692","標津郡中標津町","016920148003","東四条北三丁目","43.551310","144.974759","0","3"
"01","北海道","01692","標津郡中標津町","016920149010","東四条南十丁目","43.544010","144.984753","0","3"
"01","北海道","01692","標津郡中標津町","016920149011","東四条南十一丁目","43.543453","144.985440","0","3"
"01","北海道","01692","標津郡中標津町","016920149001","東四条南一丁目","43.549704","144.977696","0","3"
"01","北海道","01692","標津郡中標津町","016920149004","東四条南四丁目","43.548432","144.979568","0","3"
"01","北海道","01692","標津郡中標津町","016920149005","東四条南五丁目","43.547994","144.980256","0","3"
"01","北海道","01692","標津郡中標津町","016920149006","東四条南六丁目","43.547285","144.981047","0","3"
"01","北海道","01692","標津郡中標津町","016920149007","東四条南七丁目","43.546424","144.981993","0","3"
"01","北海道","01692","標津郡中標津町","016920149008","東四条南八丁目","43.545516","144.983125","0","3"
"01","北海道","01692","標津郡中標津町","016920149009","東四条南九丁目","43.544671","144.984287","0","3"
"01","北海道","01692","標津郡中標津町","016920150001","東五条北一丁目","43.551464","144.977577","0","3"
"01","北海道","01692","標津郡中標津町","016920150002","東五条北二丁目","43.552050","144.976940","0","3"
"01","北海道","01692","標津郡中標津町","016920150003","東五条北三丁目","43.552403","144.976343","0","3"
"01","北海道","01692","標津郡中標津町","016920151010","東五条南十丁目","43.544500","144.985483","0","3"
"01","北海道","01692","標津郡中標津町","016920151011","東五条南十一丁目","43.543936","144.986155","0","3"
"01","北海道","01692","標津郡中標津町","016920151001","東五条南一丁目","43.550728","144.978325","0","3"
"01","北海道","01692","標津郡中標津町","016920151002","東五条南二丁目","43.550277","144.979177","0","3"
"01","北海道","01692","標津郡中標津町","016920151003","東五条南三丁目","43.549375","144.979910","0","3"
"01","北海道","01692","標津郡中標津町","016920151004","東五条南四丁目","43.548982","144.980399","0","3"
"01","北海道","01692","標津郡中標津町","016920151005","東五条南五丁目","43.548490","144.981019","0","3"
"01","北海道","01692","標津郡中標津町","016920151006","東五条南六丁目","43.547858","144.981889","0","3"
"01","北海道","01692","標津郡中標津町","016920151007","東五条南七丁目","43.546866","144.982699","0","3"
"01","北海道","01692","標津郡中標津町","016920151008","東五条南八丁目","43.545951","144.983822","0","3"
"01","北海道","01692","標津郡中標津町","016920151009","東五条南九丁目","43.545207","144.984783","0","3"
"01","北海道","01692","標津郡中標津町","016920152001","東六条北一丁目","43.551824","144.978575","0","3"
"01","北海道","01692","標津郡中標津町","016920152002","東六条北二丁目","43.552387","144.977889","0","3"
"01","北海道","01692","標津郡中標津町","016920153010","東六条南十丁目","43.544903","144.986118","0","3"
"01","北海道","01692","標津郡中標津町","016920153011","東六条南十一丁目","43.544343","144.986777","0","3"
"01","北海道","01692","標津郡中標津町","016920153001","東六条南一丁目","43.551351","144.979181","0","3"
"01","北海道","01692","標津郡中標津町","016920153002","東六条南二丁目","43.550793","144.979900","0","3"
"01","北海道","01692","標津郡中標津町","016920153003","東六条南三丁目","43.549917","144.980751","0","3"
"01","北海道","01692","標津郡中標津町","016920153004","東六条南四丁目","43.549530","144.981234","0","3"
"01","北海道","01692","標津郡中標津町","016920153005","東六条南五丁目","43.549046","144.981851","0","3"
"01","北海道","01692","標津郡中標津町","016920153006","東六条南六丁目","43.548442","144.982657","0","3"
"01","北海道","01692","標津郡中標津町","016920153007","東六条南七丁目","43.547233","144.983258","0","3"
"01","北海道","01692","標津郡中標津町","016920153008","東六条南八丁目","43.546316","144.984393","0","3"
"01","北海道","01692","標津郡中標津町","016920153009","東六条南九丁目","43.545388","144.985559","0","3"
"01","北海道","01692","標津郡中標津町","016920154010","東七条北十丁目","43.558840","144.971096","0","3"
"01","北海道","01692","標津郡中標津町","016920154011","東七条北十一丁目","43.559331","144.970123","0","3"
"01","北海道","01692","標津郡中標津町","016920154001","東七条北一丁目","43.552501","144.979122","0","3"
"01","北海道","01692","標津郡中標津町","016920154002","東七条北二丁目","43.553258","144.978702","0","3"
"01","北海道","01692","標津郡中標津町","016920154003","東七条北三丁目","43.553838","144.978750","0","3"
"01","北海道","01692","標津郡中標津町","016920154004","東七条北四丁目","43.554730","144.975942","0","3"
"01","北海道","01692","標津郡中標津町","016920154005","東七条北五丁目","43.555393","144.975130","0","3"
"01","北海道","01692","標津郡中標津町","016920154006","東七条北六丁目","43.556036","144.974801","0","3"
"01","北海道","01692","標津郡中標津町","016920154007","東七条北七丁目","43.556492","144.974126","0","3"
"01","北海道","01692","標津郡中標津町","016920154008","東七条北八丁目","43.557051","144.973186","0","3"
"01","北海道","01692","標津郡中標津町","016920154009","東七条北九丁目","43.557854","144.972141","0","3"
"01","北海道","01692","標津郡中標津町","016920155010","東七条南十丁目","43.545429","144.986903","0","3"
"01","北海道","01692","標津郡中標津町","016920155011","東七条南十一丁目","43.544896","144.987604","0","3"
"01","北海道","01692","標津郡中標津町","016920155001","東七条南一丁目","43.551960","144.980022","0","3"
"01","北海道","01692","標津郡中標津町","016920155002","東七条南二丁目","43.551233","144.980591","0","3"
"01","北海道","01692","標津郡中標津町","016920155003","東七条南三丁目","43.550559","144.981299","0","3"
"01","北海道","01692","標津郡中標津町","016920155004","東七条南四丁目","43.550073","144.982062","0","3"
"01","北海道","01692","標津郡中標津町","016920155005","東七条南五丁目","43.549727","144.982496","0","3"
"01","北海道","01692","標津郡中標津町","016920155006","東七条南六丁目","43.549165","144.983206","0","3"
"01","北海道","01692","標津郡中標津町","016920155007","東七条南七丁目","43.548037","144.984513","0","3"
"01","北海道","01692","標津郡中標津町","016920155008","東七条南八丁目","43.547030","144.985711","0","3"
"01","北海道","01692","標津郡中標津町","016920155009","東七条南九丁目","43.546024","144.985999","0","3"
"01","北海道","01692","標津郡中標津町","016920156010","東八条北十丁目","43.559324","144.971874","0","3"
"01","北海道","01692","標津郡中標津町","016920156011","東八条北十一丁目","43.559751","144.970776","0","3"
"01","北海道","01692","標津郡中標津町","016920156004","東八条北四丁目","43.555136","144.976596","0","3"
"01","北海道","01692","標津郡中標津町","016920156005","東八条北五丁目","43.555889","144.975801","0","3"
"01","北海道","01692","標津郡中標津町","016920156006","東八条北六丁目","43.556546","144.975713","0","3"
"01","北海道","01692","標津郡中標津町","016920156007","東八条北七丁目","43.557013","144.974719","0","3"
"01","北海道","01692","標津郡中標津町","016920156008","東八条北八丁目","43.557620","144.973946","0","3"
"01","北海道","01692","標津郡中標津町","016920156009","東八条北九丁目","43.558329","144.972876","0","3"
"01","北海道","01692","標津郡中標津町","016920157010","東八条南十丁目","43.546061","144.987838","0","3"
"01","北海道","01692","標津郡中標津町","016920157011","東八条南十一丁目","43.545530","144.988560","0","3"
"01","北海道","01692","標津郡中標津町","016920157001","東八条南一丁目","43.552494","144.980797","0","3"
"01","北海道","01692","標津郡中標津町","016920157002","東八条南二丁目","43.551759","144.981277","0","3"
"01","北海道","01692","標津郡中標津町","016920157003","東八条南三丁目","43.551241","144.982166","0","3"
"01","北海道","01692","標津郡中標津町","016920157004","東八条南四丁目","43.550611","144.982874","0","3"
"01","北海道","01692","標津郡中標津町","016920157005","東八条南五丁目","43.550261","144.983313","0","3"
"01","北海道","01692","標津郡中標津町","016920157006","東八条南六丁目","43.549625","144.984121","0","3"
"01","北海道","01692","標津郡中標津町","016920157009","東八条南九丁目","43.546651","144.987048","0","3"
"01","北海道","01692","標津郡中標津町","016920158010","東九条北十丁目","43.559746","144.972457","0","3"
"01","北海道","01692","標津郡中標津町","016920158011","東九条北十一丁目","43.560304","144.971597","0","3"
"01","北海道","01692","標津郡中標津町","016920158001","東九条北一丁目","43.553560","144.981097","0","3"
"01","北海道","01692","標津郡中標津町","016920158002","東九条北二丁目","43.553943","144.979914","0","3"
"01","北海道","01692","標津郡中標津町","016920158003","東九条北三丁目","43.554765","144.980249","0","3"
"01","北海道","01692","標津郡中標津町","016920158004","東九条北四丁目","43.555569","144.977381","0","3"
"01","北海道","01692","標津郡中標津町","016920158005","東九条北五丁目","43.556310","144.976856","0","3"
"01","北海道","01692","標津郡中標津町","016920158006","東九条北六丁目","43.556902","144.976322","0","3"
"01","北海道","01692","標津郡中標津町","016920158007","東九条北七丁目","43.557295","144.975395","0","3"
"01","北海道","01692","標津郡中標津町","016920158008","東九条北八丁目","43.558014","144.974405","0","3"
"01","北海道","01692","標津郡中標津町","016920158009","東九条北九丁目","43.558810","144.973610","0","3"
"01","北海道","01692","標津郡中標津町","016920159010","東九条南十丁目","43.546693","144.988778","0","3"
"01","北海道","01692","標津郡中標津町","016920159011","東九条南十一丁目","43.546137","144.989483","0","3"
"01","北海道","01692","標津郡中標津町","016920159001","東九条南一丁目","43.552462","144.982179","0","3"
"01","北海道","01692","標津郡中標津町","016920159003","東九条南三丁目","43.551836","144.982942","0","3"
"01","北海道","01692","標津郡中標津町","016920159004","東九条南四丁目","43.551146","144.983683","0","3"
"01","北海道","01692","標津郡中標津町","016920159005","東九条南五丁目","43.550669","144.984277","0","3"
"01","北海道","01692","標津郡中標津町","016920159006","東九条南六丁目","43.550032","144.985078","0","3"
"01","北海道","01692","標津郡中標津町","016920159007","東九条南七丁目","43.548924","144.985570","0","3"
"01","北海道","01692","標津郡中標津町","016920159008","東九条南八丁目","43.547879","144.986807","0","3"
"01","北海道","01692","標津郡中標津町","016920159009","東九条南九丁目","43.547358","144.987904","0","3"
"01","北海道","01692","標津郡中標津町","016920160000","東当幌","43.512342","144.933822","0","1"
"01","北海道","01692","標津郡中標津町","016920161000","東中","43.572068","144.980305","0","1"
"01","北海道","01692","標津郡中標津町","016920162000","俵中","43.550938","145.017306","0","1"
"01","北海道","01692","標津郡中標津町","016920163001","丸山一丁目","43.552811","144.965851","0","3"
"01","北海道","01692","標津郡中標津町","016920163002","丸山二丁目","43.555854","144.968288","0","3"
"01","北海道","01692","標津郡中標津町","016920163003","丸山三丁目","43.561025","144.966008","0","3"
"01","北海道","01692","標津郡中標津町","016920163004","丸山四丁目","43.559058","144.962007","0","3"
"01","北海道","01692","標津郡中標津町","016920164000","緑ヶ丘","43.539180","144.945552","0","1"
"01","北海道","01692","標津郡中標津町","016920165001","緑町北一丁目","43.535891","144.956909","0","3"
"01","北海道","01692","標津郡中標津町","016920165002","緑町北二丁目","43.533398","144.951613","0","3"
"01","北海道","01692","標津郡中標津町","016920165003","緑町北三丁目","43.531141","144.947378","0","3"
"01","北海道","01692","標津郡中標津町","016920165004","緑町北四丁目","43.536697","144.953791","0","3"
"01","北海道","01692","標津郡中標津町","016920165005","緑町北五丁目","43.534553","144.951853","0","3"
"01","北海道","01692","標津郡中標津町","016920166001","緑町南一丁目","43.533627","144.958705","0","3"
"01","北海道","01692","標津郡中標津町","016920166002","緑町南二丁目","43.532415","144.955765","0","3"
"01","北海道","01692","標津郡中標津町","016920166003","緑町南三丁目","43.529470","144.946172","0","3"
"01","北海道","01692","標津郡中標津町","016920167000","南中","43.518314","144.967183","0","1"
"01","北海道","01692","標津郡中標津町","016920168000","南町","43.533436","144.976341","0","1"
"01","北海道","01692","標津郡中標津町","016920169000","りんどう町","43.555080","144.926838","0","1"
