"PrefCode","PrefName","MuniCode","MuniName","DistCode","DistName","lat","lon","SrcCode","CatCode"
"02","青森県","02412","上北郡おいらせ町","024120001010","青葉十丁目","40.649433","141.367222","0","3"
"02","青森県","02412","上北郡おいらせ町","024120001001","青葉一丁目","40.658651","141.368781","0","3"
"02","青森県","02412","上北郡おいらせ町","024120001002","青葉二丁目","40.657818","141.372097","0","3"
"02","青森県","02412","上北郡おいらせ町","024120001003","青葉三丁目","40.655733","141.374692","0","3"
"02","青森県","02412","上北郡おいらせ町","024120001004","青葉四丁目","40.656317","141.368950","0","3"
"02","青森県","02412","上北郡おいらせ町","024120001005","青葉五丁目","40.651875","141.372654","0","3"
"02","青森県","02412","上北郡おいらせ町","024120001006","青葉六丁目","40.650219","141.369949","0","3"
"02","青森県","02412","上北郡おいらせ町","024120001007","青葉七丁目","40.658168","141.362981","0","3"
"02","青森県","02412","上北郡おいらせ町","024120001008","青葉八丁目","40.655044","141.363466","0","3"
"02","青森県","02412","上北郡おいらせ町","024120001009","青葉九丁目","40.652013","141.364640","0","3"
"02","青森県","02412","上北郡おいらせ町","024120002000","赤田前","40.596212","141.363595","0","1"
"02","青森県","02412","上北郡おいらせ町","024120003000","秋堂","40.595636","141.422238","0","1"
"02","青森県","02412","上北郡おいらせ町","024120004000","明土","40.594855","141.384607","0","1"
"02","青森県","02412","上北郡おいらせ町","024120005000","阿光坊","40.607210","141.378456","0","1"
"02","青森県","02412","上北郡おいらせ町","024120006000","洗平","40.603850","141.348695","0","1"
"02","青森県","02412","上北郡おいらせ町","024120007000","犬毛谷地","40.603599","141.420590","0","1"
"02","青森県","02412","上北郡おいらせ町","024120008000","牛込平","40.600833","141.438087","0","1"
"02","青森県","02412","上北郡おいらせ町","024120009000","後田","40.598725","141.437955","0","1"
"02","青森県","02412","上北郡おいらせ町","024120010000","鶉久保","40.660903","141.375655","0","1"
"02","青森県","02412","上北郡おいらせ町","024120011000","鶉久保山","40.659716","141.395324","0","1"
"02","青森県","02412","上北郡おいらせ町","024120012000","獺野","40.600449","141.425832","0","1"
"02","青森県","02412","上北郡おいらせ町","024120013000","風嵐","40.604481","141.450010","0","1"
"02","青森県","02412","上北郡おいらせ町","024120014000","上明堂","40.594781","141.427814","0","1"
"02","青森県","02412","上北郡おいらせ町","024120015000","上川原","40.596752","141.390403","0","1"
"02","青森県","02412","上北郡おいらせ町","024120016000","上久保","40.647529","141.377306","0","1"
"02","青森県","02412","上北郡おいらせ町","024120017000","上前田","40.602918","141.430235","0","1"
"02","青森県","02412","上北郡おいらせ町","024120018000","上谷地","40.590907","141.364166","0","1"
"02","青森県","02412","上北郡おいらせ町","024120019000","萱の前","40.588881","141.376965","0","1"
"02","青森県","02412","上北郡おいらせ町","024120020000","川端","40.593230","141.424620","0","1"
"02","青森県","02412","上北郡おいらせ町","024120021000","木崎","40.599372","141.414252","0","1"
"02","青森県","02412","上北郡おいらせ町","024120022000","北下田","40.652670","141.385759","0","1"
"02","青森県","02412","上北郡おいらせ町","024120023000","木ノ下西","40.642377","141.372079","0","1"
"02","青森県","02412","上北郡おいらせ町","024120024000","木ノ下東","40.641358","141.394440","0","1"
"02","青森県","02412","上北郡おいらせ町","024120025000","木ノ下南","40.640905","141.382108","0","1"
"02","青森県","02412","上北郡おいらせ町","024120026000","小前谷地","40.589502","141.386350","0","1"
"02","青森県","02412","上北郡おいらせ町","024120027000","境田","40.589935","141.412697","0","1"
"02","青森県","02412","上北郡おいらせ町","024120028000","三九郎","40.590251","141.382520","0","1"
"02","青森県","02412","上北郡おいらせ町","024120029000","三本木","40.593448","141.404932","0","1"
"02","青森県","02412","上北郡おいらせ町","024120030000","下明堂","40.595862","141.432359","0","1"
"02","青森県","02412","上北郡おいらせ町","024120031000","下境","40.588668","141.422625","0","1"
"02","青森県","02412","上北郡おいらせ町","024120032000","下前田","40.602929","141.433630","0","1"
"02","青森県","02412","上北郡おいらせ町","024120033000","下屋敷","40.600314","141.444992","0","1"
"02","青森県","02412","上北郡おいらせ町","024120034000","上水下","40.588062","141.373567","0","1"
"02","青森県","02412","上北郡おいらせ町","024120035000","新助川原","40.595191","141.435776","0","1"
"02","青森県","02412","上北郡おいらせ町","024120036000","新田","40.603840","141.458487","0","1"
"02","青森県","02412","上北郡おいらせ町","024120037000","神明前","40.606640","141.368424","0","1"
"02","青森県","02412","上北郡おいらせ町","024120038001","住吉一丁目","40.672361","141.364960","0","3"
"02","青森県","02412","上北郡おいらせ町","024120038002","住吉二丁目","40.670609","141.365966","0","3"
"02","青森県","02412","上北郡おいらせ町","024120038003","住吉三丁目","40.668462","141.366734","0","3"
"02","青森県","02412","上北郡おいらせ町","024120038004","住吉四丁目","40.669208","141.364999","0","3"
"02","青森県","02412","上北郡おいらせ町","024120039000","千刈田","40.606160","141.428982","0","1"
"02","青森県","02412","上北郡おいらせ町","024120040000","外小橋","40.625814","141.374480","0","1"
"02","青森県","02412","上北郡おいらせ町","024120041000","染屋","40.600925","141.407014","0","1"
"02","青森県","02412","上北郡おいらせ町","024120042000","高田","40.601446","141.422479","0","1"
"02","青森県","02412","上北郡おいらせ町","024120043000","丈の端","40.594088","141.379604","0","1"
"02","青森県","02412","上北郡おいらせ町","024120044000","立蛇","40.601651","141.389164","0","1"
"02","青森県","02412","上北郡おいらせ町","024120045000","舘越","40.598391","141.373510","0","1"
"02","青森県","02412","上北郡おいらせ町","024120046000","土取","40.602664","141.426090","0","1"
"02","青森県","02412","上北郡おいらせ町","024120047000","堤田","40.606087","141.438296","0","1"
"02","青森県","02412","上北郡おいらせ町","024120048000","豊","40.632661","141.401745","0","1"
"02","青森県","02412","上北郡おいらせ町","024120049001","豊栄一丁目","40.637328","141.409848","0","3"
"02","青森県","02412","上北郡おいらせ町","024120049002","豊栄二丁目","40.643211","141.412457","0","3"
"02","青森県","02412","上北郡おいらせ町","024120050001","豊原一丁目","40.635019","141.378022","0","3"
"02","青森県","02412","上北郡おいらせ町","024120050002","豊原二丁目","40.639490","141.369033","0","3"
"02","青森県","02412","上北郡おいらせ町","024120051000","苗平谷地","40.599899","141.433457","0","1"
"02","青森県","02412","上北郡おいらせ町","024120052000","苗振谷地","40.598727","141.427599","0","1"
"02","青森県","02412","上北郡おいらせ町","024120053000","中下田","40.601787","141.396926","0","1"
"02","青森県","02412","上北郡おいらせ町","024120054000","中平下長根山","40.606678","141.397711","0","1"
"02","青森県","02412","上北郡おいらせ町","024120055000","中野平","40.605274","141.419008","0","1"
"02","青森県","02412","上北郡おいらせ町","024120056000","中谷地","40.595667","141.370895","0","1"
"02","青森県","02412","上北郡おいらせ町","024120057000","菜飯","40.600113","141.417966","0","1"
"02","青森県","02412","上北郡おいらせ町","024120058000","西後谷地","40.612849","141.405709","0","1"
"02","青森県","02412","上北郡おいらせ町","024120059000","新敷","40.604139","141.357977","0","1"
"02","青森県","02412","上北郡おいらせ町","024120060000","西下川原","40.598728","141.382650","0","1"
"02","青森県","02412","上北郡おいらせ町","024120061000","西下谷地","40.586227","141.398605","0","1"
"02","青森県","02412","上北郡おいらせ町","024120062000","西前川原","40.596287","141.395670","0","1"
"02","青森県","02412","上北郡おいらせ町","024120063000","沼小屋","40.585292","141.410706","0","1"
"02","青森県","02412","上北郡おいらせ町","024120064000","沼端","40.607153","141.450756","0","1"
"02","青森県","02412","上北郡おいらせ町","024120065000","馳下り","40.596907","141.398802","0","1"
"02","青森県","02412","上北郡おいらせ町","024120066000","浜道","40.647982","141.404574","0","1"
"02","青森県","02412","上北郡おいらせ町","024120067000","東後谷地","40.608069","141.447790","0","1"
"02","青森県","02412","上北郡おいらせ町","024120068000","東下川原","40.603683","141.462042","0","1"
"02","青森県","02412","上北郡おいらせ町","024120069000","東下谷地","40.613061","141.447933","0","1"
"02","青森県","02412","上北郡おいらせ町","024120070000","東前川原","40.598940","141.448748","0","1"
"02","青森県","02412","上北郡おいらせ町","024120071000","彦七川原","40.591300","141.419348","0","1"
"02","青森県","02412","上北郡おいらせ町","024120072000","一川目","40.644190","141.445387","0","1"
"02","青森県","02412","上北郡おいらせ町","024120073001","一川目一丁目","40.634831","141.445741","0","3"
"02","青森県","02412","上北郡おいらせ町","024120073002","一川目二丁目","40.633426","141.440236","0","3"
"02","青森県","02412","上北郡おいらせ町","024120073003","一川目三丁目","40.642152","141.443136","0","3"
"02","青森県","02412","上北郡おいらせ町","024120073004","一川目四丁目","40.641810","141.436038","0","3"
"02","青森県","02412","上北郡おいらせ町","024120074001","深沢一丁目","40.623343","141.448578","0","3"
"02","青森県","02412","上北郡おいらせ町","024120074002","深沢二丁目","40.628448","141.445563","0","3"
"02","青森県","02412","上北郡おいらせ町","024120075000","深沢平","40.625604","141.437685","0","1"
"02","青森県","02412","上北郡おいらせ町","024120076000","瓢","40.616197","141.354682","0","1"
"02","青森県","02412","上北郡おいらせ町","024120077001","二川目一丁目","40.649513","141.435275","0","3"
"02","青森県","02412","上北郡おいらせ町","024120077002","二川目二丁目","40.652916","141.435527","0","3"
"02","青森県","02412","上北郡おいらせ町","024120077003","二川目三丁目","40.656654","141.435855","0","3"
"02","青森県","02412","上北郡おいらせ町","024120077004","二川目四丁目","40.665004","141.431945","0","3"
"02","青森県","02412","上北郡おいらせ町","024120078000","古間木山","40.647785","141.364191","0","1"
"02","青森県","02412","上北郡おいらせ町","024120079000","堀ノ内","40.602910","141.451954","0","1"
"02","青森県","02412","上北郡おいらせ町","024120080000","前谷地","40.591067","141.376857","0","1"
"02","青森県","02412","上北郡おいらせ町","024120081000","間木","40.597590","141.408846","0","1"
"02","青森県","02412","上北郡おいらせ町","024120082001","松原一丁目","40.614228","141.454217","0","3"
"02","青森県","02412","上北郡おいらせ町","024120082002","松原二丁目","40.612637","141.458068","0","3"
"02","青森県","02412","上北郡おいらせ町","024120083010","緑ヶ丘十丁目","40.665267","141.372163","0","3"
"02","青森県","02412","上北郡おいらせ町","024120083001","緑ヶ丘一丁目","40.665263","141.365924","0","3"
"02","青森県","02412","上北郡おいらせ町","024120083002","緑ヶ丘二丁目","40.662295","141.366527","0","3"
"02","青森県","02412","上北郡おいらせ町","024120083003","緑ヶ丘三丁目","40.660608","141.366901","0","3"
"02","青森県","02412","上北郡おいらせ町","024120083004","緑ヶ丘四丁目","40.660682","141.370374","0","3"
"02","青森県","02412","上北郡おいらせ町","024120083005","緑ヶ丘五丁目","40.662320","141.369516","0","3"
"02","青森県","02412","上北郡おいらせ町","024120083006","緑ヶ丘六丁目","40.664087","141.368734","0","3"
"02","青森県","02412","上北郡おいらせ町","024120083007","緑ヶ丘七丁目","40.665997","141.367728","0","3"
"02","青森県","02412","上北郡おいらせ町","024120083008","緑ヶ丘八丁目","40.665384","141.370096","0","3"
"02","青森県","02412","上北郡おいらせ町","024120083009","緑ヶ丘九丁目","40.662838","141.372190","0","3"
"02","青森県","02412","上北郡おいらせ町","024120084000","南下田","40.598215","141.376076","0","1"
"02","青森県","02412","上北郡おいらせ町","024120085000","向川原","40.596858","141.403728","0","1"
"02","青森県","02412","上北郡おいらせ町","024120086000","向平","40.653021","141.426494","0","1"
"02","青森県","02412","上北郡おいらせ町","024120087001","向山一丁目","40.620656","141.372211","0","3"
"02","青森県","02412","上北郡おいらせ町","024120087002","向山二丁目","40.625637","141.364603","0","3"
"02","青森県","02412","上北郡おいらせ町","024120087003","向山三丁目","40.634863","141.362192","0","3"
"02","青森県","02412","上北郡おいらせ町","024120087004","向山四丁目","40.621840","141.377569","0","3"
"02","青森県","02412","上北郡おいらせ町","024120087005","向山五丁目","40.627882","141.377569","0","3"
"02","青森県","02412","上北郡おいらせ町","024120088001","向山東一丁目","40.625136","141.386875","0","3"
"02","青森県","02412","上北郡おいらせ町","024120088002","向山東二丁目","40.634624","141.391869","0","3"
"02","青森県","02412","上北郡おいらせ町","024120088003","向山東三丁目","40.623806","141.394603","0","3"
"02","青森県","02412","上北郡おいらせ町","024120089000","山崎","40.619248","141.405074","0","1"
"02","青森県","02412","上北郡おいらせ町","024120090001","洋光台一丁目","40.610746","141.441085","0","3"
"02","青森県","02412","上北郡おいらせ町","024120090002","洋光台二丁目","40.612642","141.440927","0","3"
"02","青森県","02412","上北郡おいらせ町","024120090003","洋光台三丁目","40.611796","141.438022","0","3"
"02","青森県","02412","上北郡おいらせ町","024120090004","洋光台四丁目","40.614043","141.439800","0","3"
"02","青森県","02412","上北郡おいらせ町","024120090005","洋光台五丁目","40.612850","141.437260","0","3"
"02","青森県","02412","上北郡おいらせ町","024120090006","洋光台六丁目","40.613288","141.435604","0","3"
"02","青森県","02412","上北郡おいらせ町","024120091010","若葉十丁目","40.666450","141.364057","0","3"
"02","青森県","02412","上北郡おいらせ町","024120091001","若葉一丁目","40.662310","141.359454","0","3"
"02","青森県","02412","上北郡おいらせ町","024120091002","若葉二丁目","40.661440","141.357304","0","3"
"02","青森県","02412","上北郡おいらせ町","024120091003","若葉三丁目","40.660458","141.362808","0","3"
"02","青森県","02412","上北郡おいらせ町","024120091004","若葉四丁目","40.660701","141.365067","0","3"
"02","青森県","02412","上北郡おいらせ町","024120091005","若葉五丁目","40.662477","141.362754","0","3"
"02","青森県","02412","上北郡おいらせ町","024120091006","若葉六丁目","40.662646","141.364723","0","3"
"02","青森県","02412","上北郡おいらせ町","024120091007","若葉七丁目","40.664146","141.362533","0","3"
"02","青森県","02412","上北郡おいらせ町","024120091008","若葉八丁目","40.664316","141.364449","0","3"
"02","青森県","02412","上北郡おいらせ町","024120091009","若葉九丁目","40.666520","141.362710","0","3"
"02","青森県","02412","上北郡おいらせ町","024120092000","内山平","40.628545","141.423777","0","1"
"02","青森県","02412","上北郡おいらせ町","024120093000","黒坂谷地","40.610460","141.421929","0","1"
"02","青森県","02412","上北郡おいらせ町","024120094000","向坂","40.618270","141.423702","0","1"
"02","青森県","02412","上北郡おいらせ町","024120088004","向山東四丁目","40.622477","141.414548","0","3"
"02","青森県","02412","上北郡おいらせ町","024120095000","向山南","40.615322","141.393606","0","1"
