"PrefCode","PrefName","MuniCode","MuniName","DistCode","DistName","lat","lon","SrcCode","CatCode"
"04","宮城県","04202","石巻市","042020001001","雄勝町伊勢畑一丁目","38.521624","141.469946","0","3"
"04","宮城県","04202","石巻市","042020002000","鹿妻本町","38.425222","141.342484","0","1"
"04","宮城県","04202","石巻市","042020003000","鮎川大町","38.298143","141.50872","0","1"
"04","宮城県","04202","石巻市","042020004002","雄勝町下雄勝二丁目","38.520002","141.468018","0","3"
"04","宮城県","04202","石巻市","042020005000","字深淵","38.441593","141.287778","0","1"
"04","宮城県","04202","石巻市","042020006000","字南谷地","38.437731","141.281801","0","1"
"04","宮城県","04202","石巻市","042020004003","雄勝町下雄勝三丁目","38.518451","141.466514","0","3"
"04","宮城県","04202","石巻市","042020007001","雄勝町上雄勝一丁目","38.515672","141.464319","0","3"
"04","宮城県","04202","石巻市","042020008001","垂水町一丁目","38.425957","141.36825","0","3"
"04","宮城県","04202","石巻市","042020007003","雄勝町上雄勝三丁目","38.513293","141.461853","0","3"
"04","宮城県","04202","石巻市","042020009001","新境町一丁目","38.445644","141.287483","0","3"
"04","宮城県","04202","石巻市","042020009002","新境町二丁目","38.446115","141.288366","0","3"
"04","宮城県","04202","石巻市","042020010003","茜平三丁目","38.449325","141.264204","0","3"
"04","宮城県","04202","石巻市","042020008002","垂水町二丁目","38.427803","141.368818","0","3"
"04","宮城県","04202","石巻市","042020004001","雄勝町下雄勝一丁目","38.520187","141.465204","0","3"
"04","宮城県","04202","石巻市","042020011002","元倉二丁目","38.441999","141.30998","0","3"
"04","宮城県","04202","石巻市","042020010001","茜平一丁目","38.450003","141.268762","0","3"
"04","宮城県","04202","石巻市","042020012004","駅前北通り四丁目","38.437118","141.299228","0","3"
"04","宮城県","04202","石巻市","042020013002","貞山二丁目","38.436368","141.286802","0","3"
"04","宮城県","04202","石巻市","042020014003","吉野町三丁目","38.422804","141.321201","0","3"
"04","宮城県","04202","石巻市","042020015001","水押一丁目","38.444889","141.301576","0","3"
"04","宮城県","04202","石巻市","042020016003","東中里三丁目","38.442187","141.306509","0","3"
"04","宮城県","04202","石巻市","042020017001","立町一丁目","38.432144","141.307457","0","3"
"04","宮城県","04202","石巻市","042020012003","駅前北通り三丁目","38.436994","141.301273","0","3"
"04","宮城県","04202","石巻市","042020018003","湊町三丁目","38.422664","141.31818","0","3"
"04","宮城県","04202","石巻市","042020019004","南中里四丁目","38.43928","141.295789","0","3"
"04","宮城県","04202","石巻市","042020020002","緑町二丁目","38.417267","141.341791","0","3"
"04","宮城県","04202","石巻市","042020021004","築山四丁目","38.424174","141.274602","0","3"
"04","宮城県","04202","石巻市","042020014002","吉野町二丁目","38.424109","141.320067","0","3"
"04","宮城県","04202","石巻市","042020019001","南中里一丁目","38.439835","141.303732","0","3"
"04","宮城県","04202","石巻市","042020022000","後生橋","38.421846","141.367166","0","1"
"04","宮城県","04202","石巻市","042020023001","美園一丁目","38.453476","141.300202","0","3"
"04","宮城県","04202","石巻市","042020016002","東中里二丁目","38.440727","141.306816","0","3"
"04","宮城県","04202","石巻市","042020024001","田道町一丁目","38.436141","141.295672","0","3"
"04","宮城県","04202","石巻市","042020007002","雄勝町上雄勝二丁目","38.515399","141.465286","0","3"
"04","宮城県","04202","石巻市","042020017002","立町二丁目","38.432106","141.305862","0","3"
"04","宮城県","04202","石巻市","042020010002","茜平二丁目","38.450978","141.26533","0","3"
"04","宮城県","04202","石巻市","042020025004","鹿妻南四丁目","38.418514","141.34583","0","3"
"04","宮城県","04202","石巻市","042020026000","旭町","38.437501","141.309143","0","1"
"04","宮城県","04202","石巻市","042020027003","中央三丁目","38.432626","141.310078","0","3"
"04","宮城県","04202","石巻市","042020028001","鹿妻北一丁目","38.422803","141.343213","0","3"
"04","宮城県","04202","石巻市","042020029002","中浦二丁目","38.423963","141.268828","0","3"
"04","宮城県","04202","石巻市","042020018004","湊町四丁目","38.421406","141.319737","0","3"
"04","宮城県","04202","石巻市","042020030004","大門町四丁目","38.418335","141.322949","0","3"
"04","宮城県","04202","石巻市","042020031001","中里一丁目","38.44231","141.303767","0","3"
"04","宮城県","04202","石巻市","042020021002","築山二丁目","38.426913","141.276187","0","3"
"04","宮城県","04202","石巻市","042020032001","丸井戸一丁目","38.444573","141.284364","0","3"
"04","宮城県","04202","石巻市","042020025005","鹿妻南五丁目","38.42113","141.346004","0","3"
"04","宮城県","04202","石巻市","042020012002","駅前北通り二丁目","38.437182","141.303222","0","3"
"04","宮城県","04202","石巻市","042020032002","丸井戸二丁目","38.44605","141.281292","0","3"
"04","宮城県","04202","石巻市","042020013004","貞山四丁目","38.436469","141.283128","0","3"
"04","宮城県","04202","石巻市","042020033003","日和が丘三丁目","38.424149","141.302656","0","3"
"04","宮城県","04202","石巻市","042020028003","鹿妻北三丁目","38.425631","141.344003","0","3"
"04","宮城県","04202","石巻市","042020018002","湊町二丁目","38.424358","141.316678","0","3"
"04","宮城県","04202","石巻市","042020034000","三和町","38.419633","141.367945","0","1"
"04","宮城県","04202","石巻市","042020035001","三ツ股一丁目","38.429174","141.271589","0","3"
"04","宮城県","04202","石巻市","042020035004","三ツ股四丁目","38.423589","141.270183","0","3"
"04","宮城県","04202","石巻市","042020030003","大門町三丁目","38.420087","141.323043","0","3"
"04","宮城県","04202","石巻市","042020010005","茜平五丁目","38.445409","141.264554","0","3"
"04","宮城県","04202","石巻市","042020025003","鹿妻南三丁目","38.418774","141.343008","0","3"
"04","宮城県","04202","石巻市","042020036003","わかば三丁目","38.455049","141.279244","0","3"
"04","宮城県","04202","石巻市","042020008003","垂水町三丁目","38.42861","141.370946","0","3"
"04","宮城県","04202","石巻市","042020020001","緑町一丁目","38.417268","141.337223","0","3"
"04","宮城県","04202","石巻市","042020030002","大門町二丁目","38.418959","141.319994","0","3"
"04","宮城県","04202","石巻市","042020037000","宇田川町","38.421807","141.36905","0","1"
"04","宮城県","04202","石巻市","042020036001","わかば一丁目","38.453521","141.282159","0","3"
"04","宮城県","04202","石巻市","042020016001","東中里一丁目","38.439358","141.307233","0","3"
"04","宮城県","04202","石巻市","042020038000","浜松町","38.417116","141.358693","0","1"
"04","宮城県","04202","石巻市","042020033004","日和が丘四丁目","38.422163","141.301719","0","3"
"04","宮城県","04202","石巻市","042020039001","新館一丁目","38.427745","141.266961","0","3"
"04","宮城県","04202","石巻市","042020040000","伊勢町","38.418443","141.360135","0","1"
"04","宮城県","04202","石巻市","042020029001","中浦一丁目","38.428489","141.268592","0","3"
"04","宮城県","04202","石巻市","042020041000","幸町","38.413943","141.367003","0","1"
"04","宮城県","04202","石巻市","042020042001","あけぼの一丁目","38.451275","141.274512","0","3"
"04","宮城県","04202","石巻市","042020043002","明神町二丁目","38.416859","141.324009","0","3"
"04","宮城県","04202","石巻市","042020043001","明神町一丁目","38.416449","141.318921","0","3"
"04","宮城県","04202","石巻市","042020019002","南中里二丁目","38.439636","141.301419","0","3"
"04","宮城県","04202","石巻市","042020044000","末広町","38.431813","141.290173","0","1"
"04","宮城県","04202","石巻市","042020045002","水明北二丁目","38.444561","141.317315","0","3"
"04","宮城県","04202","石巻市","042020046003","南浜町三丁目","38.417775","141.301119","0","3"
"04","宮城県","04202","石巻市","042020031002","中里二丁目","38.442396","141.301064","0","3"
"04","宮城県","04202","石巻市","042020027001","中央一丁目","38.429242","141.307746","0","3"
"04","宮城県","04202","石巻市","042020027002","中央二丁目","38.430805","141.308919","0","3"
"04","宮城県","04202","石巻市","042020047000","鋳銭場","38.434909","141.305368","0","1"
"04","宮城県","04202","石巻市","042020048004","大街道東四丁目","38.428311","141.284479","0","3"
"04","宮城県","04202","石巻市","042020049003","渡波町三丁目","38.416186","141.368773","0","3"
"04","宮城県","04202","石巻市","042020025001","鹿妻南一丁目","38.420683","141.340335","0","3"
"04","宮城県","04202","石巻市","042020030001","大門町一丁目","38.418936","141.317893","0","3"
"04","宮城県","04202","石巻市","042020050003","大街道西三丁目","38.431699","141.27183","0","3"
"04","宮城県","04202","石巻市","042020025002","鹿妻南二丁目","38.421147","141.343382","0","3"
"04","宮城県","04202","石巻市","042020051002","門脇町二丁目","38.422976","141.309945","0","3"
"04","宮城県","04202","石巻市","042020021003","築山三丁目","38.424266","141.276263","0","3"
"04","宮城県","04202","石巻市","042020024002","田道町二丁目","38.437243","141.292802","0","3"
"04","宮城県","04202","石巻市","042020052003","開北三丁目","38.447548","141.303793","0","3"
"04","宮城県","04202","石巻市","042020031004","中里四丁目","38.441905","141.294211","0","3"
"04","宮城県","04202","石巻市","042020053001","中屋敷一丁目","38.426544","141.263166","0","3"
"04","宮城県","04202","石巻市","042020054000","千石町","38.434968","141.308559","0","1"
"04","宮城県","04202","石巻市","042020055001","大街道北一丁目","38.431066","141.287303","0","3"
"04","宮城県","04202","石巻市","042020023002","美園二丁目","38.454928","141.299602","0","3"
"04","宮城県","04202","石巻市","042020049001","渡波町一丁目","38.41872","141.364078","0","3"
"04","宮城県","04202","石巻市","042020018001","湊町一丁目","38.426228","141.314312","0","3"
"04","宮城県","04202","石巻市","042020056002","泉町二丁目","38.42918","141.301761","0","3"
"04","宮城県","04202","石巻市","042020045001","水明北一丁目","38.443256","141.318073","0","3"
"04","宮城県","04202","石巻市","042020057003","大街道南三丁目","38.423683","141.281668","0","3"
"04","宮城県","04202","石巻市","042020057002","大街道南二丁目","38.425678","141.281403","0","3"
"04","宮城県","04202","石巻市","042020058001","清水町一丁目","38.437041","141.296914","0","3"
"04","宮城県","04202","石巻市","042020057004","大街道南四丁目","38.424641","141.278531","0","3"
"04","宮城県","04202","石巻市","042020045003","水明北三丁目","38.44467","141.322376","0","3"
"04","宮城県","04202","石巻市","042020039003","新館三丁目","38.427285","141.265125","0","3"
"04","宮城県","04202","石巻市","042020014001","吉野町一丁目","38.426111","141.317701","0","3"
"04","宮城県","04202","石巻市","042020057001","大街道南一丁目","38.42849","141.281538","0","3"
"04","宮城県","04202","石巻市","042020011001","元倉一丁目","38.440296","141.311172","0","3"
"04","宮城県","04202","石巻市","042020055002","大街道北二丁目","38.431709","141.284198","0","3"
"04","宮城県","04202","石巻市","042020031007","中里七丁目","38.445062","141.292294","0","3"
"04","宮城県","04202","石巻市","042020053002","中屋敷二丁目","38.422718","141.264681","0","3"
"04","宮城県","04202","石巻市","042020059002","川口町二丁目","38.420109","141.316274","0","3"
"04","宮城県","04202","石巻市","042020052001","開北一丁目","38.444712","141.306796","0","3"
"04","宮城県","04202","石巻市","042020046002","南浜町二丁目","38.417569","141.303733","0","3"
"04","宮城県","04202","石巻市","042020055004","大街道北四丁目","38.434087","141.279893","0","3"
"04","宮城県","04202","石巻市","042020060003","大橋三丁目","38.442766","141.310668","0","3"
"04","宮城県","04202","石巻市","042020019003","南中里三丁目","38.439403","141.298401","0","3"
"04","宮城県","04202","石巻市","042020061001","伊原津一丁目","38.421764","141.336169","0","3"
"04","宮城県","04202","石巻市","042020062001","塩富町一丁目","38.419748","141.372363","0","3"
"04","宮城県","04202","石巻市","042020031003","中里三丁目","38.442513","141.29838","0","3"
"04","宮城県","04202","石巻市","042020031006","中里六丁目","38.443014","141.290939","0","3"
"04","宮城県","04202","石巻市","042020063000","宜山町","38.424835","141.295238","0","1"
"04","宮城県","04202","石巻市","042020031005","中里五丁目","38.443695","141.295721","0","3"
"04","宮城県","04202","石巻市","042020049002","渡波町二丁目","38.417368","141.365917","0","3"
"04","宮城県","04202","石巻市","042020064001","八幡町一丁目","38.429075","141.313548","0","3"
"04","宮城県","04202","石巻市","042020065000","大宮町","38.415526","141.363891","0","1"
"04","宮城県","04202","石巻市","042020028002","鹿妻北二丁目","38.424831","141.346133","0","3"
"04","宮城県","04202","石巻市","042020051004","門脇町四丁目","38.420501","141.305751","0","3"
"04","宮城県","04202","石巻市","042020012001","駅前北通り一丁目","38.437184","141.306066","0","3"
"04","宮城県","04202","石巻市","042020062002","塩富町二丁目","38.422717","141.371886","0","3"
"04","宮城県","04202","石巻市","042020057005","大街道南五丁目","38.4284","141.278541","0","3"
"04","宮城県","04202","石巻市","042020066001","向陽町一丁目","38.447474","141.282258","0","3"
"04","宮城県","04202","石巻市","042020067000","万石町","38.418226","141.370853","0","1"
"04","宮城県","04202","石巻市","042020068001","住吉町一丁目","38.434672","141.311699","0","3"
"04","宮城県","04202","石巻市","042020066003","向陽町三丁目","38.449293","141.278424","0","3"
"04","宮城県","04202","石巻市","042020069000","長浜町","38.412415","141.363282","0","1"
"04","宮城県","04202","石巻市","042020059003","川口町三丁目","38.417233","141.314689","0","3"
"04","宮城県","04202","石巻市","042020032003","丸井戸三丁目","38.447483","141.277085","0","3"
"04","宮城県","04202","石巻市","042020056001","泉町一丁目","38.427393","141.30202","0","3"
"04","宮城県","04202","石巻市","042020046004","南浜町四丁目","38.418094","141.298331","0","3"
"04","宮城県","04202","石巻市","042020070000","錦町","38.435936","141.29017","0","1"
"04","宮城県","04202","石巻市","042020066004","向陽町四丁目","38.452242","141.27876","0","3"
"04","宮城県","04202","石巻市","042020071002","松並二丁目","38.417395","141.332989","0","3"
"04","宮城県","04202","石巻市","042020072002","山下町二丁目","38.430976","141.292716","0","3"
"04","宮城県","04202","石巻市","042020023003","美園三丁目","38.457687","141.30274","0","3"
"04","宮城県","04202","石巻市","042020039002","新館二丁目","38.42329","141.267201","0","3"
"04","宮城県","04202","石巻市","042020035002","三ツ股二丁目","38.427575","141.271251","0","3"
"04","宮城県","04202","石巻市","042020058002","清水町二丁目","38.440725","141.291193","0","3"
"04","宮城県","04202","石巻市","042020064002","八幡町二丁目","38.432322","141.314031","0","3"
"04","宮城県","04202","石巻市","042020073000","松原町","38.414423","141.359976","0","1"
"04","宮城県","04202","石巻市","042020066005","向陽町五丁目","38.452229","141.276297","0","3"
"04","宮城県","04202","石巻市","042020033002","日和が丘二丁目","38.423233","141.306666","0","3"
"04","宮城県","04202","石巻市","042020035003","三ツ股三丁目","38.423541","141.272552","0","3"
"04","宮城県","04202","石巻市","042020048001","大街道東一丁目","38.428185","141.287783","0","3"
"04","宮城県","04202","石巻市","042020050002","大街道西二丁目","38.432309","141.274678","0","3"
"04","宮城県","04202","石巻市","042020061002","伊原津二丁目","38.419705","141.337285","0","3"
"04","宮城県","04202","石巻市","042020055003","大街道北三丁目","38.431286","141.280746","0","3"
"04","宮城県","04202","石巻市","042020015002","水押二丁目","38.446771","141.299807","0","3"
"04","宮城県","04202","石巻市","042020013001","貞山一丁目","38.433535","141.286912","0","3"
"04","宮城県","04202","石巻市","042020052002","開北二丁目","38.44507","141.303914","0","3"
"04","宮城県","04202","石巻市","042020074000","西山町","38.434453","141.292179","0","1"
"04","宮城県","04202","石巻市","042020075001","不動町一丁目","38.434861","141.315446","0","3"
"04","宮城県","04202","石巻市","042020021001","築山一丁目","38.427999","141.275153","0","3"
"04","宮城県","04202","石巻市","042020051005","門脇町五丁目","38.420246","141.300304","0","3"
"04","宮城県","04202","石巻市","042020059001","川口町一丁目","38.422072","141.314737","0","3"
"04","宮城県","04202","石巻市","042020076002","新栄二丁目","38.448317","141.336896","0","3"
"04","宮城県","04202","石巻市","042020046001","南浜町一丁目","38.417171","141.307158","0","3"
"04","宮城県","04202","石巻市","042020050001","大街道西一丁目","38.432908","141.277313","0","3"
"04","宮城県","04202","石巻市","042020010004","茜平四丁目","38.447889","141.265755","0","3"
"04","宮城県","04202","石巻市","042020077000","大手町","38.424509","141.299382","0","1"
"04","宮城県","04202","石巻市","042020056003","泉町三丁目","38.429679","141.296779","0","3"
"04","宮城県","04202","石巻市","042020071001","松並一丁目","38.417493","141.328569","0","3"
"04","宮城県","04202","石巻市","042020013005","貞山五丁目","38.438419","141.285551","0","3"
"04","宮城県","04202","石巻市","042020078000","穀町","38.434257","141.301374","0","1"
"04","宮城県","04202","石巻市","042020042002","あけぼの二丁目","38.450619","141.272243","0","3"
"04","宮城県","04202","石巻市","042020013003","貞山三丁目","38.434774","141.282834","0","3"
"04","宮城県","04202","石巻市","042020048003","大街道東三丁目","38.425091","141.284866","0","3"
"04","宮城県","04202","石巻市","042020060002","大橋二丁目","38.439547","141.315461","0","3"
"04","宮城県","04202","石巻市","042020079000","新橋","38.439537","141.289342","0","1"
"04","宮城県","04202","石巻市","042020051003","門脇町三丁目","38.420021","141.309097","0","3"
"04","宮城県","04202","石巻市","042020080001","羽黒町一丁目","38.430825","141.303383","0","3"
"04","宮城県","04202","石巻市","042020081001","南光町一丁目","38.42188","141.29751","0","3"
"04","宮城県","04202","石巻市","042020048002","大街道東二丁目","38.424971","141.288275","0","3"
"04","宮城県","04202","石巻市","042020015003","水押三丁目","38.445721","141.296015","0","3"
"04","宮城県","04202","石巻市","042020033001","日和が丘一丁目","38.425865","141.304977","0","3"
"04","宮城県","04202","石巻市","042020082000","中瀬","38.428148","141.310815","0","1"
"04","宮城県","04202","石巻市","042020066002","向陽町二丁目","38.450733","141.281895","0","3"
"04","宮城県","04202","石巻市","042020076001","新栄一丁目","38.44638","141.332434","0","3"
"04","宮城県","04202","石巻市","042020080002","羽黒町二丁目","38.431881","141.298678","0","3"
"04","宮城県","04202","石巻市","042020068002","住吉町二丁目","38.437857","141.312577","0","3"
"04","宮城県","04202","石巻市","042020072001","山下町一丁目","38.433299","141.295482","0","3"
"04","宮城県","04202","石巻市","042020083001","水明南一丁目","38.441109","141.319084","0","3"
"04","宮城県","04202","石巻市","042020060001","大橋一丁目","38.444358","141.311542","0","3"
"04","宮城県","04202","石巻市","042020084000","双葉町","38.426547","141.29138","0","1"
"04","宮城県","04202","石巻市","042020052004","開北四丁目","38.44835","141.306937","0","3"
"04","宮城県","04202","石巻市","042020075002","不動町二丁目","38.436856","141.318145","0","3"
"04","宮城県","04202","石巻市","042020056004","泉町四丁目","38.42695","141.296363","0","3"
"04","宮城県","04202","石巻市","042020083002","水明南二丁目","38.442557","141.324586","0","3"
"04","宮城県","04202","石巻市","042020085000","石巻","38.446315","141.317367","0","1"
"04","宮城県","04202","石巻市","042020086001","雲雀野町一丁目","38.414913","141.303944","0","3"
"04","宮城県","04202","石巻市","042020087000","中島町","38.418492","141.274028","0","1"
"04","宮城県","04202","石巻市","042020088000","開成","38.462027","141.307466","0","1"
"04","宮城県","04202","石巻市","042020089002","魚町二丁目","38.411492","141.326919","0","3"
"04","宮城県","04202","石巻市","042020089003","魚町三丁目","38.414965","141.340945","0","3"
"04","宮城県","04202","石巻市","042020090000","三河町","38.419636","141.280187","0","1"
"04","宮城県","04202","石巻市","042020091000","雄勝町明神","38.521584","141.48147","0","1"
"04","宮城県","04202","石巻市","042020092000","雄勝町小島","38.515467","141.488875","0","1"
"04","宮城県","04202","石巻市","042020093000","根岸","38.443117","141.351654","0","1"
"04","宮城県","04202","石巻市","042020089001","魚町一丁目","38.411726","141.317839","0","3"
"04","宮城県","04202","石巻市","042020086002","雲雀野町二丁目","38.40997","141.290594","0","3"
"04","宮城県","04202","石巻市","042020094000","月浦","38.385712","141.427408","0","1"
"04","宮城県","04202","石巻市","042020081002","南光町二丁目","38.420358","141.29115","0","3"
"04","宮城県","04202","石巻市","042020095000","潮見町","38.414275","141.280849","0","1"
"04","宮城県","04202","石巻市","042020096000","雄勝町熊沢","38.505853","141.536362","0","1"
"04","宮城県","04202","石巻市","042020097000","西浜町","38.408963","141.257172","0","1"
"04","宮城県","04202","石巻市","042020098000","雄勝町大浜","38.518127","141.515117","0","1"
"04","宮城県","04202","石巻市","042020099000","雄勝町桑浜","38.493995","141.532216","0","1"
"04","宮城県","04202","石巻市","042020100000","桃生町脇谷","38.598436","141.285663","0","1"
"04","宮城県","04202","石巻市","042020101000","雄勝町立浜","38.504858","141.520078","0","1"
"04","宮城県","04202","石巻市","042020102000","竹浜","38.359479","141.431446","0","1"
"04","宮城県","04202","石巻市","042020103000","重吉町","38.417323","141.257619","0","1"
"04","宮城県","04202","石巻市","042020104000","侍浜","38.385626","141.436977","0","1"
"04","宮城県","04202","石巻市","042020105000","牧浜","38.364129","141.441033","0","1"
"04","宮城県","04202","石巻市","042020106000","桃生町牛田","38.581176","141.264898","0","1"
"04","宮城県","04202","石巻市","042020107000","大谷川浜","38.370491","141.478127","0","1"
"04","宮城県","04202","石巻市","042020108000","清水田浜","38.345884","141.46677","0","1"
"04","宮城県","04202","石巻市","042020109000","前網浜","38.391584","141.508593","0","1"
"04","宮城県","04202","石巻市","042020110000","新山浜","38.331412","141.525532","0","1"
"04","宮城県","04202","石巻市","042020111000","井内","38.445783","141.341121","0","1"
"04","宮城県","04202","石巻市","042020112000","流留","38.428287","141.379412","0","1"
"04","宮城県","04202","石巻市","042020113000","小網倉浜","38.351528","141.456232","0","1"
"04","宮城県","04202","石巻市","042020114000","雄勝町大須","38.52238","141.53883","0","1"
"04","宮城県","04202","石巻市","042020115000","福貴浦","38.352243","141.450228","0","1"
"04","宮城県","04202","石巻市","042020116000","北境","38.474166","141.30882","0","1"
"04","宮城県","04202","石巻市","042020117000","小竹浜","38.392951","141.385282","0","1"
"04","宮城県","04202","石巻市","042020118000","桃生町城内","38.560883","141.25906","0","1"
"04","宮城県","04202","石巻市","042020119000","門脇","38.428009","141.260131","0","1"
"04","宮城県","04202","石巻市","042020120000","寄磯浜","38.391825","141.527923","0","1"
"04","宮城県","04202","石巻市","042020121000","雄勝町分浜","38.494537","141.488031","0","1"
"04","宮城県","04202","石巻市","042020122000","桃生町中津山","38.561138","141.241543","0","1"
"04","宮城県","04202","石巻市","042020123000","泊浜","38.353573","141.517558","0","1"
"04","宮城県","04202","石巻市","042020124000","桃生町新田","38.548289","141.242429","0","1"
"04","宮城県","04202","石巻市","042020125000","桃生町倉埣","38.595859","141.274322","0","1"
"04","宮城県","04202","石巻市","042020126000","鮫浦","38.385541","141.488156","0","1"
"04","宮城県","04202","石巻市","042020127000","谷川浜","38.362791","141.48881","0","1"
"04","宮城県","04202","石巻市","042020128000","桃生町寺崎","38.572038","141.25257","0","1"
"04","宮城県","04202","石巻市","042020129000","北上町長尾","38.558058","141.394561","0","1"
"04","宮城県","04202","石巻市","042020130000","桃生町給人町","38.535526","141.253856","0","1"
"04","宮城県","04202","石巻市","042020131000","荻浜","38.382295","141.449925","0","1"
"04","宮城県","04202","石巻市","042020132000","雄勝町水浜","38.500995","141.4777","0","1"
"04","宮城県","04202","石巻市","042020133000","田代浜","38.298565","141.417588","0","1"
"04","宮城県","04202","石巻市","042020134000","網地浜","38.273056","141.471298","0","1"
"04","宮城県","04202","石巻市","042020135000","沼津","38.451887","141.383503","0","1"
"04","宮城県","04202","石巻市","042020136000","相野谷","38.525949","141.320102","0","1"
"04","宮城県","04202","石巻市","042020137000","折浜","38.401011","141.397115","0","1"
"04","宮城県","04202","石巻市","042020138000","桃生町永井","38.579848","141.278188","0","1"
"04","宮城県","04202","石巻市","042020139000","十八成浜","38.310532","141.49379","0","1"
"04","宮城県","04202","石巻市","042020140000","長渡浜","38.259218","141.481513","0","1"
"04","宮城県","04202","石巻市","042020141000","大原浜","38.34007","141.481746","0","1"
"04","宮城県","04202","石巻市","042020142000","桃生町神取","38.53022","141.240429","0","1"
"04","宮城県","04202","石巻市","042020143000","雄勝町船越","38.537126","141.519868","0","1"
"04","宮城県","04202","石巻市","042020144000","小積浜","38.374138","141.465914","0","1"
"04","宮城県","04202","石巻市","042020145000","雄勝町名振","38.531271","141.491685","0","1"
"04","宮城県","04202","石巻市","042020146000","桃生町高須賀","38.514148","141.244008","0","1"
"04","宮城県","04202","石巻市","042020147000","中野","38.53382","141.358796","0","1"
"04","宮城県","04202","石巻市","042020148000","飯野","38.534062","141.287262","0","1"
"04","宮城県","04202","石巻市","042020149000","東福田","38.483004","141.321688","0","1"
"04","宮城県","04202","石巻市","042020150000","湊","38.43056","141.330647","0","1"
"04","宮城県","04202","石巻市","042020151000","高木","38.476481","141.349749","0","1"
"04","宮城県","04202","石巻市","042020152000","南境","38.463492","141.313069","0","1"
"04","宮城県","04202","石巻市","042020153000","中島","38.53287","141.329732","0","1"
"04","宮城県","04202","石巻市","042020154000","馬鞍","38.556118","141.368453","0","1"
"04","宮城県","04202","石巻市","042020155000","釜谷","38.543698","141.436819","0","1"
"04","宮城県","04202","石巻市","042020156000","桃浦","38.401945","141.435182","0","1"
"04","宮城県","04202","石巻市","042020157000","大森","38.498883","141.314888","0","1"
"04","宮城県","04202","石巻市","042020158000","桃生町樫崎","38.569094","141.290074","0","1"
"04","宮城県","04202","石巻市","042020159000","大瓜","38.458745","141.332047","0","1"
"04","宮城県","04202","石巻市","042020160000","北上町橋浦","38.550803","141.386313","0","1"
"04","宮城県","04202","石巻市","042020161000","沢田","38.442688","141.380291","0","1"
"04","宮城県","04202","石巻市","042020162000","成田","38.538044","141.306495","0","1"
"04","宮城県","04202","石巻市","042020163000","須江","38.470968","141.243436","0","1"
"04","宮城県","04202","石巻市","042020164000","桃生町太田","38.547043","141.274559","0","1"
"04","宮城県","04202","石巻市","042020165000","長面","38.551157","141.456181","0","1"
"04","宮城県","04202","石巻市","042020166000","皿貝","38.560692","141.344761","0","1"
"04","宮城県","04202","石巻市","042020167000","渡波","38.407631","141.386859","0","1"
"04","宮城県","04202","石巻市","042020168000","和渕","38.518164","141.220892","0","1"
"04","宮城県","04202","石巻市","042020169000","前谷地","38.52169","141.191042","0","1"
"04","宮城県","04202","石巻市","042020170000","水沼","38.483993","141.376465","0","1"
"04","宮城県","04202","石巻市","042020171000","雄勝町雄勝","38.50544","141.43922","0","1"
"04","宮城県","04202","石巻市","042020172000","三輪田","38.511875","141.341216","0","1"
"04","宮城県","04202","石巻市","042020173000","広渕","38.475787","141.216446","0","1"
"04","宮城県","04202","石巻市","042020174000","福地","38.520797","141.379208","0","1"
"04","宮城県","04202","石巻市","042020175000","真野","38.468592","141.389997","0","1"
"04","宮城県","04202","石巻市","042020176000","鹿又","38.481515","141.27546","0","1"
"04","宮城県","04202","石巻市","042020177000","針岡","38.514815","141.414809","0","1"
"04","宮城県","04202","石巻市","042020178000","北上町女川","38.579635","141.382342","0","1"
"04","宮城県","04202","石巻市","042020179000","北村","38.48341","141.186186","0","1"
"04","宮城県","04202","石巻市","042020180000","北上町十三浜","38.597574","141.470205","0","1"
"04","宮城県","04202","石巻市","042020181001","あけぼの北一丁目","38.456775","141.277043","0","3"
"04","宮城県","04202","石巻市","042020042003","あけぼの三丁目","38.454468","141.274634","0","3"
"04","宮城県","04202","石巻市","042020036002","わかば二丁目","38.456183","141.280942","0","3"
"04","宮城県","04202","石巻市","042020181002","あけぼの北二丁目","38.457415","141.278659","0","3"
"04","宮城県","04202","石巻市","042020182000","尾崎","38.547695","141.474357","0","1"
"04","宮城県","04202","石巻市","042020051001","門脇町一丁目","38.42619","141.308466","0","3"
"04","宮城県","04202","石巻市","042020183002","恵み野二丁目","38.443342","141.271628","0","3"
"04","宮城県","04202","石巻市","042020183003","恵み野三丁目","38.445319","141.269514","0","3"
"04","宮城県","04202","石巻市","042020183004","恵み野四丁目","38.442055","141.266958","0","3"
"04","宮城県","04202","石巻市","042020183005","恵み野五丁目","38.442706","141.264947","0","3"
"04","宮城県","04202","石巻市","042020183006","恵み野六丁目","38.440446","141.268085","0","3"
"04","宮城県","04202","石巻市","042020184000","鮎川浜丁","38.297393","141.508661","0","1"
"04","宮城県","04202","石巻市","042020185000","蛇田","38.454244","141.267604","0","1"
"04","宮城県","04202","石巻市","042020183001","恵み野一丁目","38.447414","141.272","0","3"
"04","宮城県","04202","石巻市","042020186000","狐崎浜","38.350312","141.43096","0","1"
"04","宮城県","04202","石巻市","042020187000","小渕浜","38.315619","141.45889","0","1"
"04","宮城県","04202","石巻市","042020188000","給分浜","38.32277","141.478492","0","1"
"04","宮城県","04202","石巻市","042020189000","小船越","38.509848","141.280871","0","1"
"04","宮城県","04202","石巻市","042020190003","二子三丁目","38.499051","141.2975","0","3"
"04","宮城県","04202","石巻市","042020190002","二子二丁目","38.498024","141.293976","0","3"
"04","宮城県","04202","石巻市","042020190001","二子一丁目","38.496813","141.295251","0","3"
"04","宮城県","04202","石巻市","042020200002","のぞみ野二丁目","38.447232","141.261003","0","3"
"04","宮城県","04202","石巻市","042020200003","のぞみ野三丁目","38.448611","141.258348","0","3"
"04","宮城県","04202","石巻市","042020200004","のぞみ野四丁目","38.446532","141.25834","0","3"
"04","宮城県","04202","石巻市","042020200005","のぞみ野五丁目","38.443565","141.257687","0","3"
"04","宮城県","04202","石巻市","042020200001","のぞみ野一丁目","38.444076","141.261673","0","3"
