"PrefCode","PrefName","MuniCode","MuniName","DistCode","DistName","lat","lon","SrcCode","CatCode"
"04","宮城県","04215","大崎市","042150001000","古川宮袋","38.586634","140.949843","0","1"
"04","宮城県","04215","大崎市","042150002000","古川蓑口沼","38.564835","140.969953","0","1"
"04","宮城県","04215","大崎市","042150003000","古川中里","38.564601","140.969000","0","1"
"04","宮城県","04215","大崎市","042150004000","古川川端","38.574752","140.957890","0","1"
"04","宮城県","04215","大崎市","042150005004","古川駅前大通四丁目","38.575447","140.965973","0","3"
"04","宮城県","04215","大崎市","042150006001","古川三日町一丁目","38.574622","140.955783","0","3"
"04","宮城県","04215","大崎市","042150005005","古川駅前大通五丁目","38.576994","140.966463","0","3"
"04","宮城県","04215","大崎市","042150007000","古川荒川小金町","38.572926","140.958754","0","1"
"04","宮城県","04215","大崎市","042150008000","古川浦町","38.577380","140.959153","0","1"
"04","宮城県","04215","大崎市","042150005003","古川駅前大通三丁目","38.573836","140.966829","0","3"
"04","宮城県","04215","大崎市","042150009000","古川東町","38.575878","140.963338","0","1"
"04","宮城県","04215","大崎市","042150010002","古川江合寿町二丁目","38.587691","140.965228","0","3"
"04","宮城県","04215","大崎市","042150005006","古川駅前大通六丁目","38.579020","140.967092","0","3"
"04","宮城県","04215","大崎市","042150011001","古川西館一丁目","38.574620","140.953738","0","3"
"04","宮城県","04215","大崎市","042150012003","古川江合錦町三丁目","38.584909","140.971230","0","3"
"04","宮城県","04215","大崎市","042150013006","古川旭六丁目","38.566214","140.978826","0","3"
"04","宮城県","04215","大崎市","042150014002","古川駅南二丁目","38.567730","140.968981","0","3"
"04","宮城県","04215","大崎市","042150014001","古川駅南一丁目","38.569313","140.969521","0","3"
"04","宮城県","04215","大崎市","042150015000","古川十日町","38.575640","140.960509","0","1"
"04","宮城県","04215","大崎市","042150016005","古川大宮五丁目","38.582739","140.959676","0","3"
"04","宮城県","04215","大崎市","042150005002","古川駅前大通二丁目","38.572777","140.966078","0","3"
"04","宮城県","04215","大崎市","042150006002","古川三日町二丁目","38.573000","140.955473","0","3"
"04","宮城県","04215","大崎市","042150017002","古川南町二丁目","38.570650","140.956863","0","3"
"04","宮城県","04215","大崎市","042150018004","古川駅東四丁目","38.570450","140.978644","0","3"
"04","宮城県","04215","大崎市","042150019002","古川幸町二丁目","38.578898","140.969207","0","3"
"04","宮城県","04215","大崎市","042150014003","古川駅南三丁目","38.566183","140.968650","0","3"
"04","宮城県","04215","大崎市","042150010003","古川江合寿町三丁目","38.586649","140.967337","0","3"
"04","宮城県","04215","大崎市","042150020002","古川福浦二丁目","38.590417","140.963488","0","3"
"04","宮城県","04215","大崎市","042150021002","古川城西二丁目","38.578378","140.947340","0","3"
"04","宮城県","04215","大崎市","042150022000","古川台町","38.574418","140.962926","0","1"
"04","宮城県","04215","大崎市","042150023002","古川北町二丁目","38.579167","140.963575","0","3"
"04","宮城県","04215","大崎市","042150017001","古川南町一丁目","38.571924","140.955932","0","3"
"04","宮城県","04215","大崎市","042150012002","古川江合錦町二丁目","38.585899","140.969667","0","3"
"04","宮城県","04215","大崎市","042150013003","古川旭三丁目","38.568635","140.975776","0","3"
"04","宮城県","04215","大崎市","042150019001","古川幸町一丁目","38.575872","140.968348","0","3"
"04","宮城県","04215","大崎市","042150024001","古川若葉町一丁目","38.588491","140.951293","0","3"
"04","宮城県","04215","大崎市","042150012001","古川江合錦町一丁目","38.583191","140.969470","0","3"
"04","宮城県","04215","大崎市","042150011002","古川西館二丁目","38.574147","140.951946","0","3"
"04","宮城県","04215","大崎市","042150025000","古川七日町","38.576291","140.957063","0","1"
"04","宮城県","04215","大崎市","042150016007","古川大宮七丁目","38.586838","140.958553","0","3"
"04","宮城県","04215","大崎市","042150016004","古川大宮四丁目","38.584667","140.957871","0","3"
"04","宮城県","04215","大崎市","042150013005","古川旭五丁目","38.567699","140.978160","0","3"
"04","宮城県","04215","大崎市","042150026002","古川稲葉二丁目","38.556072","140.952012","0","3"
"04","宮城県","04215","大崎市","042150027003","古川李埣三丁目","38.572918","140.980156","0","3"
"04","宮城県","04215","大崎市","042150028003","古川諏訪三丁目","38.584340","140.950050","0","3"
"04","宮城県","04215","大崎市","042150026003","古川稲葉三丁目","38.557088","140.954162","0","3"
"04","宮城県","04215","大崎市","042150023003","古川北町三丁目","38.581342","140.964065","0","3"
"04","宮城県","04215","大崎市","042150029002","古川千手寺町二丁目","38.579925","140.956839","0","3"
"04","宮城県","04215","大崎市","042150023001","古川北町一丁目","38.577646","140.962734","0","3"
"04","宮城県","04215","大崎市","042150029001","古川千手寺町一丁目","38.579778","140.954254","0","3"
"04","宮城県","04215","大崎市","042150010001","古川江合寿町一丁目","38.585515","140.965187","0","3"
"04","宮城県","04215","大崎市","042150030000","古川南新町","38.567576","140.957459","0","1"
"04","宮城県","04215","大崎市","042150017004","古川南町四丁目","38.571027","140.950261","0","3"
"04","宮城県","04215","大崎市","042150013001","古川旭一丁目","38.568996","140.972563","0","3"
"04","宮城県","04215","大崎市","042150031000","古川前田町","38.579627","140.959885","0","1"
"04","宮城県","04215","大崎市","042150027002","古川李埣二丁目","38.575183","140.976290","0","3"
"04","宮城県","04215","大崎市","042150013002","古川旭二丁目","38.566129","140.972097","0","3"
"04","宮城県","04215","大崎市","042150016001","古川大宮一丁目","38.582798","140.956647","0","3"
"04","宮城県","04215","大崎市","042150005001","古川駅前大通一丁目","38.571710","140.965664","0","3"
"04","宮城県","04215","大崎市","042150016002","古川大宮二丁目","38.584699","140.953125","0","3"
"04","宮城県","04215","大崎市","042150018003","古川駅東三丁目","38.572903","140.976269","0","3"
"04","宮城県","04215","大崎市","042150032002","古川金五輪二丁目","38.558107","140.960036","0","3"
"04","宮城県","04215","大崎市","042150016008","古川大宮八丁目","38.588431","140.956544","0","3"
"04","宮城県","04215","大崎市","042150033001","古川穂波一丁目","38.570959","140.944503","0","3"
"04","宮城県","04215","大崎市","042150016006","古川大宮六丁目","38.585608","140.961467","0","3"
"04","宮城県","04215","大崎市","042150034001","古川江合本町一丁目","38.588807","140.968175","0","3"
"04","宮城県","04215","大崎市","042150016003","古川大宮三丁目","38.587039","140.953863","0","3"
"04","宮城県","04215","大崎市","042150035001","古川中里一丁目","38.572865","140.961469","0","3"
"04","宮城県","04215","大崎市","042150033008","古川穂波八丁目","38.570849","140.940056","0","3"
"04","宮城県","04215","大崎市","042150028001","古川諏訪一丁目","38.580313","140.951486","0","3"
"04","宮城県","04215","大崎市","042150021001","古川城西一丁目","38.576211","140.948184","0","3"
"04","宮城県","04215","大崎市","042150033007","古川穂波七丁目","38.568034","140.940479","0","3"
"04","宮城県","04215","大崎市","042150036002","古川北稲葉二丁目","38.561692","140.953783","0","3"
"04","宮城県","04215","大崎市","042150024002","古川若葉町二丁目","38.590754","140.953963","0","3"
"04","宮城県","04215","大崎市","042150026001","古川稲葉一丁目","38.558548","140.951244","0","3"
"04","宮城県","04215","大崎市","042150035002","古川中里二丁目","38.569192","140.960658","0","3"
"04","宮城県","04215","大崎市","042150023004","古川北町四丁目","38.582852","140.962713","0","3"
"04","宮城県","04215","大崎市","042150036001","古川北稲葉一丁目","38.564533","140.953701","0","3"
"04","宮城県","04215","大崎市","042150017003","古川南町三丁目","38.568215","140.954955","0","3"
"04","宮城県","04215","大崎市","042150023005","古川北町五丁目","38.581876","140.967634","0","3"
"04","宮城県","04215","大崎市","042150011003","古川西館三丁目","38.573207","140.948910","0","3"
"04","宮城県","04215","大崎市","042150035003","古川中里三丁目","38.565354","140.961004","0","3"
"04","宮城県","04215","大崎市","042150033005","古川穂波五丁目","38.561838","140.939808","0","3"
"04","宮城県","04215","大崎市","042150037000","古川小稲葉町","38.568349","140.952173","0","1"
"04","宮城県","04215","大崎市","042150038000","古川二ノ構","38.577311","140.952192","0","1"
"04","宮城県","04215","大崎市","042150013004","古川旭四丁目","38.565058","140.974129","0","3"
"04","宮城県","04215","大崎市","042150027001","古川李埣一丁目","38.577567","140.971402","0","3"
"04","宮城県","04215","大崎市","042150039000","古川中島町","38.563366","140.957445","0","1"
"04","宮城県","04215","大崎市","042150033002","古川穂波二丁目","38.568335","140.944978","0","3"
"04","宮城県","04215","大崎市","042150032001","古川金五輪一丁目","38.560133","140.958423","0","3"
"04","宮城県","04215","大崎市","042150040002","三本木新町二丁目","38.516083","140.933888","0","3"
"04","宮城県","04215","大崎市","042150018001","古川駅東一丁目","38.571524","140.972008","0","3"
"04","宮城県","04215","大崎市","042150041000","古川栄町","38.567838","140.949096","0","1"
"04","宮城県","04215","大崎市","042150040001","三本木新町一丁目","38.519336","140.933092","0","3"
"04","宮城県","04215","大崎市","042150018002","古川駅東二丁目","38.573626","140.971668","0","3"
"04","宮城県","04215","大崎市","042150020001","古川福浦一丁目","38.588736","140.962045","0","3"
"04","宮城県","04215","大崎市","042150033004","古川穂波四丁目","38.559428","140.942476","0","3"
"04","宮城県","04215","大崎市","042150035004","古川中里四丁目","38.561118","140.961520","0","3"
"04","宮城県","04215","大崎市","042150020003","古川福浦三丁目","38.592456","140.965956","0","3"
"04","宮城県","04215","大崎市","042150026004","古川稲葉四丁目","38.554625","140.955955","0","3"
"04","宮城県","04215","大崎市","042150042003","古川福沼三丁目","38.577869","140.975113","0","3"
"04","宮城県","04215","大崎市","042150036003","古川北稲葉三丁目","38.562808","140.949933","0","3"
"04","宮城県","04215","大崎市","042150033006","古川穂波六丁目","38.565199","140.940567","0","3"
"04","宮城県","04215","大崎市","042150035006","古川中里六丁目","38.568560","140.964835","0","3"
"04","宮城県","04215","大崎市","042150043000","田尻北高城","38.592487","141.044581","0","1"
"04","宮城県","04215","大崎市","042150028002","古川諏訪二丁目","38.581656","140.949430","0","3"
"04","宮城県","04215","大崎市","042150035005","古川中里五丁目","38.563473","140.963902","0","3"
"04","宮城県","04215","大崎市","042150033003","古川穂波三丁目","38.563948","140.945767","0","3"
"04","宮城県","04215","大崎市","042150042002","古川福沼二丁目","38.578765","140.979119","0","3"
"04","宮城県","04215","大崎市","042150044000","古川米倉","38.567980","140.936954","0","1"
"04","宮城県","04215","大崎市","042150045000","田尻桜田高野","38.592085","141.051775","0","1"
"04","宮城県","04215","大崎市","042150046000","古川稲葉","38.554193","140.950212","0","1"
"04","宮城県","04215","大崎市","042150047000","古川福浦","38.592944","140.958594","0","1"
"04","宮城県","04215","大崎市","042150048000","古川李埣","38.571798","140.983874","0","1"
"04","宮城県","04215","大崎市","042150049000","古川上中目","38.572428","140.901855","0","1"
"04","宮城県","04215","大崎市","042150050000","古川境野宮","38.552634","140.959533","0","1"
"04","宮城県","04215","大崎市","042150051000","古川米袋","38.547105","140.952598","0","1"
"04","宮城県","04215","大崎市","042150052000","田尻諏訪峠","38.617180","140.995096","0","1"
"04","宮城県","04215","大崎市","042150053000","古川下谷地","38.571916","141.009839","0","1"
"04","宮城県","04215","大崎市","042150054000","古川大幡","38.560149","140.969705","0","1"
"04","宮城県","04215","大崎市","042150055000","古川耳取","38.582127","140.879949","0","1"
"04","宮城県","04215","大崎市","042150056000","古川南沢","38.598717","140.886091","0","1"
"04","宮城県","04215","大崎市","042150057000","古川新堀","38.577810","140.892021","0","1"
"04","宮城県","04215","大崎市","042150058000","田尻沼木","38.613618","140.992833","0","1"
"04","宮城県","04215","大崎市","042150059000","三本木南谷地","38.532257","140.938364","0","1"
"04","宮城県","04215","大崎市","042150060000","古川斎下","38.598727","140.892233","0","1"
"04","宮城県","04215","大崎市","042150061000","田尻北牧目","38.595634","141.042153","0","1"
"04","宮城県","04215","大崎市","042150062000","古川馬櫛","38.580078","141.010122","0","1"
"04","宮城県","04215","大崎市","042150063000","古川長岡","38.618564","140.962185","0","1"
"04","宮城県","04215","大崎市","042150064000","三本木上伊場野","38.532762","140.978661","0","1"
"04","宮城県","04215","大崎市","042150065000","古川宮内","38.551670","140.968576","0","1"
"04","宮城県","04215","大崎市","042150066000","古川荒田目","38.584950","140.903386","0","1"
"04","宮城県","04215","大崎市","042150067000","古川長岡針","38.593892","141.005077","0","1"
"04","宮城県","04215","大崎市","042150068000","古川深沼","38.560520","140.993518","0","1"
"04","宮城県","04215","大崎市","042150069000","古川狐塚","38.606359","140.986921","0","1"
"04","宮城県","04215","大崎市","042150070000","三本木高柳","38.545548","140.939845","0","1"
"04","宮城県","04215","大崎市","042150071000","古川渕尻","38.585590","140.981296","0","1"
"04","宮城県","04215","大崎市","042150072000","古川新沼","38.548303","140.924708","0","1"
"04","宮城県","04215","大崎市","042150073000","古川馬放","38.601995","140.997863","0","1"
"04","宮城県","04215","大崎市","042150074000","田尻通木","38.605843","141.027739","0","1"
"04","宮城県","04215","大崎市","042150075000","古川馬寄","38.560997","140.982100","0","1"
"04","宮城県","04215","大崎市","042150076000","古川小泉","38.595709","140.942518","0","1"
"04","宮城県","04215","大崎市","042150077000","古川楡木","38.555195","140.979836","0","1"
"04","宮城県","04215","大崎市","042150078000","古川休塚","38.596160","140.982787","0","1"
"04","宮城県","04215","大崎市","042150079000","古川上埣","38.579883","140.997076","0","1"
"04","宮城県","04215","大崎市","042150080000","古川","38.583095","140.943366","0","1"
"04","宮城県","04215","大崎市","042150081000","古川鶴ケ埣","38.572846","140.991504","0","1"
"04","宮城県","04215","大崎市","042150082000","古川桑針","38.552876","141.010279","0","1"
"04","宮城県","04215","大崎市","042150083000","古川渋井","38.580555","140.915893","0","1"
"04","宮城県","04215","大崎市","042150084000","古川堤根","38.538824","140.903221","0","1"
"04","宮城県","04215","大崎市","042150085000","田尻中目","38.604118","141.010579","0","1"
"04","宮城県","04215","大崎市","042150086000","古川石森","38.547644","140.994492","0","1"
"04","宮城県","04215","大崎市","042150087000","古川保柳","38.581790","140.899057","0","1"
"04","宮城県","04215","大崎市","042150088000","古川荒谷","38.612295","140.977462","0","1"
"04","宮城県","04215","大崎市","042150089000","古川柏崎","38.587009","140.887701","0","1"
"04","宮城県","04215","大崎市","042150090000","古川富長","38.590068","140.993135","0","1"
"04","宮城県","04215","大崎市","042150091000","古川矢目","38.556666","140.909417","0","1"
"04","宮城県","04215","大崎市","042150092000","田尻八幡","38.619865","141.014709","0","1"
"04","宮城県","04215","大崎市","042150093000","三本木蒜袋","38.535923","140.966122","0","1"
"04","宮城県","04215","大崎市","042150094000","古川引田","38.541941","140.899444","0","1"
"04","宮城県","04215","大崎市","042150095000","古川西荒井","38.554187","140.943000","0","1"
"04","宮城県","04215","大崎市","042150096000","古川中沢","38.534747","140.912102","0","1"
"04","宮城県","04215","大崎市","042150097000","三本木坂本","38.516660","140.912636","0","1"
"04","宮城県","04215","大崎市","042150098000","田尻小松","38.617727","141.005909","0","1"
"04","宮城県","04215","大崎市","042150099000","田尻","38.595210","141.024260","0","1"
"04","宮城県","04215","大崎市","042150100000","三本木斉田","38.523163","140.897458","0","1"
"04","宮城県","04215","大崎市","042150101000","古川川熊","38.622594","140.957135","0","1"
"04","宮城県","04215","大崎市","042150102000","古川沢田","38.602659","140.970059","0","1"
"04","宮城県","04215","大崎市","042150103000","三本木蟻ケ袋","38.510893","140.925726","0","1"
"04","宮城県","04215","大崎市","042150104000","三本木秋田","38.511972","140.975561","0","1"
"04","宮城県","04215","大崎市","042150105000","古川小林","38.611655","140.937857","0","1"
"04","宮城県","04215","大崎市","042150106000","古川塚目","38.578673","140.933024","0","1"
"04","宮城県","04215","大崎市","042150107000","鹿島台平渡","38.481116","141.095708","0","1"
"04","宮城県","04215","大崎市","042150108000","松山須摩屋","38.519461","141.082808","0","1"
"04","宮城県","04215","大崎市","042150109000","古川桜ノ目","38.605697","140.950790","0","1"
"04","宮城県","04215","大崎市","042150110000","鹿島台船越","38.506551","141.103138","0","1"
"04","宮城県","04215","大崎市","042150111000","松山金谷","38.505577","141.062478","0","1"
"04","宮城県","04215","大崎市","042150112000","田尻小塩","38.595929","141.073673","0","1"
"04","宮城県","04215","大崎市","042150113000","田尻大嶺","38.618142","141.024238","0","1"
"04","宮城県","04215","大崎市","042150114000","古川師山","38.540832","140.979282","0","1"
"04","宮城県","04215","大崎市","042150115000","古川下中目","38.541721","141.008412","0","1"
"04","宮城県","04215","大崎市","042150116000","田尻北小牛田","38.563911","141.068287","0","1"
"04","宮城県","04215","大崎市","042150117000","三本木音無","38.504930","140.906113","0","1"
"04","宮城県","04215","大崎市","042150118000","松山長尾","38.505159","141.082647","0","1"
"04","宮城県","04215","大崎市","042150119000","古川飯川","38.562441","140.919919","0","1"
"04","宮城県","04215","大崎市","042150120000","三本木新沼","38.533408","140.927653","0","1"
"04","宮城県","04215","大崎市","042150121000","三本木","38.523744","140.941885","0","1"
"04","宮城県","04215","大崎市","042150122000","鹿島台深谷","38.469234","141.065455","0","1"
"04","宮城県","04215","大崎市","042150123000","古川清滝","38.670625","140.947591","0","1"
"04","宮城県","04215","大崎市","042150124000","古川新田","38.592746","140.927485","0","1"
"04","宮城県","04215","大崎市","042150125000","三本木伊賀","38.496914","140.929834","0","1"
"04","宮城県","04215","大崎市","042150126000","古川大崎","38.603060","140.904001","0","1"
"04","宮城県","04215","大崎市","042150127000","古川清水","38.618708","140.909583","0","1"
"04","宮城県","04215","大崎市","042150128000","古川雨生沢","38.644948","140.932800","0","1"
"04","宮城県","04215","大崎市","042150129000","松山次橋","38.512284","141.027118","0","1"
"04","宮城県","04215","大崎市","042150130000","古川宮沢","38.628963","140.937802","0","1"
"04","宮城県","04215","大崎市","042150131000","岩出山下一栗","38.687700","140.859595","0","1"
"04","宮城県","04215","大崎市","042150132000","三本木桑折","38.513176","140.952101","0","1"
"04","宮城県","04215","大崎市","042150133000","松山千石","38.515075","141.049508","0","1"
"04","宮城県","04215","大崎市","042150134000","古川清水沢","38.651744","140.977076","0","1"
"04","宮城県","04215","大崎市","042150135000","古川小野","38.629370","140.985080","0","1"
"04","宮城県","04215","大崎市","042150136000","松山下伊場野","38.511147","141.010337","0","1"
"04","宮城県","04215","大崎市","042150137000","三本木伊場野","38.516228","140.991522","0","1"
"04","宮城県","04215","大崎市","042150138000","田尻大沢","38.581521","141.069262","0","1"
"04","宮城県","04215","大崎市","042150139000","古川北宮沢","38.658254","140.933774","0","1"
"04","宮城県","04215","大崎市","042150140000","田尻沼部","38.607699","141.054757","0","1"
"04","宮城県","04215","大崎市","042150141000","鹿島台木間塚","38.470874","141.111612","0","1"
"04","宮城県","04215","大崎市","042150142000","岩出山上野目","38.671730","140.884257","0","1"
"04","宮城県","04215","大崎市","042150143000","田尻蕪栗","38.620804","141.097288","0","1"
"04","宮城県","04215","大崎市","042150144000","鹿島台広長","38.473159","141.080946","0","1"
"04","宮城県","04215","大崎市","042150145000","田尻大貫","38.601330","141.113287","0","1"
"04","宮城県","04215","大崎市","042150146000","岩出山下野目","38.639316","140.899970","0","1"
"04","宮城県","04215","大崎市","042150147000","鹿島台大迫","38.472543","141.036714","0","1"
"04","宮城県","04215","大崎市","042150148000","岩出山南沢","38.655425","140.821658","0","1"
"04","宮城県","04215","大崎市","042150149000","岩出山池月","38.712534","140.838088","0","1"
"04","宮城県","04215","大崎市","042150150000","岩出山","38.701878","140.924155","0","1"
"04","宮城県","04215","大崎市","042150151000","鳴子温泉鬼首","38.827177","140.635762","0","1"
"04","宮城県","04215","大崎市","042150152000","鳴子温泉","38.736730","140.748460","0","1"
"04","宮城県","04215","大崎市","042150034003","古川江合本町三丁目","38.591896","140.970058","0","3"
"04","宮城県","04215","大崎市","042150042001","古川福沼一丁目","38.583642","140.974274","0","3"
"04","宮城県","04215","大崎市","042150034002","古川江合本町二丁目","38.588186","140.971949","0","3"
"04","宮城県","04215","大崎市","042150153000","古川江合","38.588210","140.972944","0","1"
