"PrefCode","PrefName","MuniCode","MuniName","DistCode","DistName","lat","lon","SrcCode","CatCode"
"04","宮城県","04445","加美郡加美町","044450001000","字大門四番","38.574983","140.850804","0","1"
"04","宮城県","04445","加美郡加美町","044450002000","字町浦十番","38.571512","140.862555","0","1"
"04","宮城県","04445","加美郡加美町","044450003000","字芋沢家ノ下","38.591533","140.713895","0","1"
"04","宮城県","04445","加美郡加美町","044450004000","字味ケ袋弥助前","38.587633","140.733998","0","1"
"04","宮城県","04445","加美郡加美町","044450005000","字北町一番","38.572369","140.863697","0","1"
"04","宮城県","04445","加美郡加美町","044450006000","字下野目東田南","38.576892","140.832199","0","1"
"04","宮城県","04445","加美郡加美町","044450007000","字大門一番","38.575924","140.850475","0","1"
"04","宮城県","04445","加美郡加美町","044450008000","字赤塚一番","38.565147","140.858248","0","1"
"04","宮城県","04445","加美郡加美町","044450009000","字下野目蓬田西","38.577628","140.827782","0","1"
"04","宮城県","04445","加美郡加美町","044450010000","字下野目堰端","38.577683","140.812367","0","1"
"04","宮城県","04445","加美郡加美町","044450011000","字焼橋","38.574898","140.848592","0","1"
"04","宮城県","04445","加美郡加美町","044450012000","字原檀原西","38.601550","140.754491","0","1"
"04","宮城県","04445","加美郡加美町","044450013000","字上野目堰下","38.594298","140.720151","0","1"
"04","宮城県","04445","加美郡加美町","044450014000","字城下","38.568405","140.779371","0","1"
"04","宮城県","04445","加美郡加美町","044450015000","字味ケ袋蟹沢浦","38.585667","140.733799","0","1"
"04","宮城県","04445","加美郡加美町","044450016000","字芋沢西柏原","38.594042","140.705057","0","1"
"04","宮城県","04445","加美郡加美町","044450017000","字長清水二ツ塚","38.596208","140.745507","0","1"
"04","宮城県","04445","加美郡加美町","044450018000","字原宮崎道下","38.598718","140.752050","0","1"
"04","宮城県","04445","加美郡加美町","044450019000","字鹿原東向","38.573220","140.755245","0","1"
"04","宮城県","04445","加美郡加美町","044450020000","字原東","38.602947","140.729356","0","1"
"04","宮城県","04445","加美郡加美町","044450021000","字原南江端","38.582694","140.771070","0","1"
"04","宮城県","04445","加美郡加美町","044450022000","字原表芳谷地","38.583525","140.773713","0","1"
"04","宮城県","04445","加美郡加美町","044450023000","字上野目新堀","38.592322","140.725492","0","1"
"04","宮城県","04445","加美郡加美町","044450024000","字原台崎西北","38.606967","140.744807","0","1"
"04","宮城県","04445","加美郡加美町","044450025000","字上野目水沼","38.581938","140.741931","0","1"
"04","宮城県","04445","加美郡加美町","044450026000","字上野目舟橋","38.590633","140.721342","0","1"
"04","宮城県","04445","加美郡加美町","044450027000","字原空沼前","38.600405","140.754147","0","1"
"04","宮城県","04445","加美郡加美町","044450028000","字長清水土手ノ内一番","38.597889","140.735333","0","1"
"04","宮城県","04445","加美郡加美町","044450029000","字芋沢関場","38.598459","140.702339","0","1"
"04","宮城県","04445","加美郡加美町","044450030000","字上川原二番","38.574801","140.844752","0","1"
"04","宮城県","04445","加美郡加美町","044450031000","字原赤堀","38.603937","140.752035","0","1"
"04","宮城県","04445","加美郡加美町","044450032000","字長清水大西","38.596249","140.730167","0","1"
"04","宮城県","04445","加美郡加美町","044450033000","字五百刈","38.580434","140.797501","0","1"
"04","宮城県","04445","加美郡加美町","044450034000","字原台崎西中","38.606325","140.742949","0","1"
"04","宮城県","04445","加美郡加美町","044450035000","字原仁平屋敷","38.601557","140.728020","0","1"
"04","宮城県","04445","加美郡加美町","044450036000","字上野目梶賀沢","38.591045","140.724594","0","1"
"04","宮城県","04445","加美郡加美町","044450037000","字赤塚八番","38.555469","140.866562","0","1"
"04","宮城県","04445","加美郡加美町","044450038000","字上野目皆伝寺一番","38.584970","140.741894","0","1"
"04","宮城県","04445","加美郡加美町","044450039000","字新明膳","38.570054","140.819351","0","1"
"04","宮城県","04445","加美郡加美町","044450040000","字味ケ袋蟹沢","38.584813","140.734550","0","1"
"04","宮城県","04445","加美郡加美町","044450041000","字原街道端","38.595162","140.719051","0","1"
"04","宮城県","04445","加美郡加美町","044450042000","字中嶋内田","38.567697","140.824003","0","1"
"04","宮城県","04445","加美郡加美町","044450043000","字中嶋川原田","38.569223","140.825061","0","1"
"04","宮城県","04445","加美郡加美町","044450044000","字中嶋南田一番","38.567639","140.823353","0","1"
"04","宮城県","04445","加美郡加美町","044450045000","字中嶋大下一番","38.569605","140.831192","0","1"
"04","宮城県","04445","加美郡加美町","044450046000","字下野目品沢","38.575903","140.806666","0","1"
"04","宮城県","04445","加美郡加美町","044450047000","字百目木二番","38.567741","140.855179","0","1"
"04","宮城県","04445","加美郡加美町","044450048000","字上野目大宮下","38.579813","140.753837","0","1"
"04","宮城県","04445","加美郡加美町","044450049000","字原木舟","38.594702","140.780212","0","1"
"04","宮城県","04445","加美郡加美町","044450050000","字町裏九番","38.570826","140.858551","0","1"
"04","宮城県","04445","加美郡加美町","044450051000","字南川原","38.553438","140.857687","0","1"
"04","宮城県","04445","加美郡加美町","044450052000","字鹿原小田","38.570126","140.755205","0","1"
"04","宮城県","04445","加美郡加美町","044450053000","字上野目宮ノ前","38.590495","140.717038","0","1"
"04","宮城県","04445","加美郡加美町","044450054000","字芋沢柳沢浦","38.600123","140.698262","0","1"
"04","宮城県","04445","加美郡加美町","044450055000","字上野目下新堀","38.593054","140.727632","0","1"
"04","宮城県","04445","加美郡加美町","044450056000","字新原木舟","38.594217","140.780725","0","1"
"04","宮城県","04445","加美郡加美町","044450057000","字芋沢伊上","38.597502","140.704321","0","1"
"04","宮城県","04445","加美郡加美町","044450058000","字味ケ袋田中前","38.588084","140.732692","0","1"
"04","宮城県","04445","加美郡加美町","044450059000","字下北浦一番","38.580149","140.767109","0","1"
"04","宮城県","04445","加美郡加美町","044450060000","字原町御伊勢前","38.587790","140.748029","0","1"
"04","宮城県","04445","加美郡加美町","044450061000","字上野目上野々","38.586228","140.725572","0","1"
"04","宮城県","04445","加美郡加美町","044450062000","字芋沢岩城","38.591710","140.716330","0","1"
"04","宮城県","04445","加美郡加美町","044450063000","字漆沢野岸","38.575128","140.646900","0","1"
"04","宮城県","04445","加美郡加美町","044450064000","字小瀬岩城下","38.593998","140.714389","0","1"
"04","宮城県","04445","加美郡加美町","044450065000","字鹿原熊野堂","38.577257","140.753879","0","1"
"04","宮城県","04445","加美郡加美町","044450066000","字門沢宿一番","38.604480","140.681329","0","1"
"04","宮城県","04445","加美郡加美町","044450067000","字西田六番","38.573451","140.851557","0","1"
"04","宮城県","04445","加美郡加美町","044450068000","字北ノ口","38.580142","140.799042","0","1"
"04","宮城県","04445","加美郡加美町","044450069000","字漆沢岳山","38.587956","140.634849","0","1"
"04","宮城県","04445","加美郡加美町","044450070000","字鹿原山岸","38.548774","140.724823","0","1"
"04","宮城県","04445","加美郡加美町","044450071000","字原八幡堂","38.605136","140.723074","0","1"
"04","宮城県","04445","加美郡加美町","044450072000","字長清水浦田","38.594429","140.763980","0","1"
"04","宮城県","04445","加美郡加美町","044450073000","字原鶯沢","38.594290","140.781528","0","1"
"04","宮城県","04445","加美郡加美町","044450074000","字南野口","38.573721","140.792767","0","1"
"04","宮城県","04445","加美郡加美町","044450075000","字門沢二ツ檀一番","38.604965","140.689044","0","1"
"04","宮城県","04445","加美郡加美町","044450076000","字鹿原家北","38.575766","140.741012","0","1"
"04","宮城県","04445","加美郡加美町","044450077000","字下野目穴田","38.581258","140.825819","0","1"
"04","宮城県","04445","加美郡加美町","044450078000","字上野目穴沢","38.586601","140.719186","0","1"
"04","宮城県","04445","加美郡加美町","044450079000","字鹿島越","38.553963","140.866990","0","1"
"04","宮城県","04445","加美郡加美町","044450080000","字下川原一番","38.570749","140.853160","0","1"
"04","宮城県","04445","加美郡加美町","044450081000","字上野目保室","38.582792","140.738440","0","1"
"04","宮城県","04445","加美郡加美町","044450082000","字西田二番","38.574257","140.852998","0","1"
"04","宮城県","04445","加美郡加美町","044450083000","字鹿原御伊勢宮","38.571651","140.746707","0","1"
"04","宮城県","04445","加美郡加美町","044450084000","字内谷地","38.579001","140.781498","0","1"
"04","宮城県","04445","加美郡加美町","044450085000","字小瀬下田","38.594881","140.713402","0","1"
"04","宮城県","04445","加美郡加美町","044450086000","字下北浦","38.579787","140.771987","0","1"
"04","宮城県","04445","加美郡加美町","044450087000","字新南田一番","38.567649","140.822484","0","1"
"04","宮城県","04445","加美郡加美町","044450088000","字下野目清水田北","38.575442","140.812133","0","1"
"04","宮城県","04445","加美郡加美町","044450089000","字原八幡堂西","38.605056","140.718975","0","1"
"04","宮城県","04445","加美郡加美町","044450090000","字長清水上内田","38.597634","140.733729","0","1"
"04","宮城県","04445","加美郡加美町","044450091000","字赤塚五番","38.558092","140.861030","0","1"
"04","宮城県","04445","加美郡加美町","044450092000","字芋沢谷地田","38.589185","140.714085","0","1"
"04","宮城県","04445","加美郡加美町","044450093000","字上野目皆伝寺東","38.586292","140.742456","0","1"
"04","宮城県","04445","加美郡加美町","044450094000","字鹿原新堰ノ沢","38.566819","140.754819","0","1"
"04","宮城県","04445","加美郡加美町","044450095000","字小瀬新坂","38.595367","140.711900","0","1"
"04","宮城県","04445","加美郡加美町","044450096000","字原町大橋","38.584557","140.754844","0","1"
"04","宮城県","04445","加美郡加美町","044450097000","字原大橋","38.599715","140.706571","0","1"
"04","宮城県","04445","加美郡加美町","044450098000","字上野目宮ノ上","38.592163","140.717701","0","1"
"04","宮城県","04445","加美郡加美町","044450099000","字二ノ坪","38.580442","140.800026","0","1"
"04","宮城県","04445","加美郡加美町","044450100000","字上野目長清水南","38.594885","140.734254","0","1"
"04","宮城県","04445","加美郡加美町","044450101000","字原矢倉東","38.606292","140.732086","0","1"
"04","宮城県","04445","加美郡加美町","044450102000","字下野目前川原北","38.576808","140.821074","0","1"
"04","宮城県","04445","加美郡加美町","044450103000","字原台崎屋敷","38.606056","140.747085","0","1"
"04","宮城県","04445","加美郡加美町","044450104000","字芋沢向田","38.589362","140.718260","0","1"
"04","宮城県","04445","加美郡加美町","044450105000","字町西","38.570500","140.855610","0","1"
"04","宮城県","04445","加美郡加美町","044450106000","字町裏七番","38.571180","140.861616","0","1"
"04","宮城県","04445","加美郡加美町","044450107000","字西田四番","38.570274","140.854874","0","1"
"04","宮城県","04445","加美郡加美町","044450108000","字旧舘二番","38.560563","140.857172","0","1"
"04","宮城県","04445","加美郡加美町","044450109000","字漆沢渡戸","38.594601","140.667298","0","1"
"04","宮城県","04445","加美郡加美町","044450110000","字中嶋堂屋敷一番","38.569485","140.823811","0","1"
"04","宮城県","04445","加美郡加美町","044450111000","字原反目南","38.599223","140.707742","0","1"
"04","宮城県","04445","加美郡加美町","044450112000","字千刈田","38.577831","140.813452","0","1"
"04","宮城県","04445","加美郡加美町","044450113000","字下川原向","38.571307","140.853880","0","1"
"04","宮城県","04445","加美郡加美町","044450114000","字一本柳","38.572907","140.850908","0","1"
"04","宮城県","04445","加美郡加美町","044450115000","字神山西","38.571821","140.787157","0","1"
"04","宮城県","04445","加美郡加美町","044450116000","字西田三番","38.571751","140.854869","0","1"
"04","宮城県","04445","加美郡加美町","044450117000","字外谷地","38.582030","140.778507","0","1"
"04","宮城県","04445","加美郡加美町","044450118000","字長清水小泉谷地田","38.593293","140.767314","0","1"
"04","宮城県","04445","加美郡加美町","044450119000","字中嶋中里南","38.569390","140.827998","0","1"
"04","宮城県","04445","加美郡加美町","044450120000","字原矢倉前","38.605712","140.730370","0","1"
"04","宮城県","04445","加美郡加美町","044450121000","字薬師堂三番","38.555502","140.865172","0","1"
"04","宮城県","04445","加美郡加美町","044450122000","字中ノ内","38.594163","140.729913","0","1"
"04","宮城県","04445","加美郡加美町","044450123000","字下野目久保田","38.575209","140.813844","0","1"
"04","宮城県","04445","加美郡加美町","044450124000","字鹿原首戸","38.566641","140.708720","0","1"
"04","宮城県","04445","加美郡加美町","044450125000","字原堤田","38.596453","140.729564","0","1"
"04","宮城県","04445","加美郡加美町","044450126000","字下野目東田北","38.578219","140.831526","0","1"
"04","宮城県","04445","加美郡加美町","044450127000","字味ケ袋新坂","38.580299","140.734660","0","1"
"04","宮城県","04445","加美郡加美町","044450128000","字上野目指橋一番","38.592777","140.720822","0","1"
"04","宮城県","04445","加美郡加美町","044450129000","字鹿原一ノ沢","38.545864","140.704827","0","1"
"04","宮城県","04445","加美郡加美町","044450130000","字上野目指橋","38.592901","140.722475","0","1"
"04","宮城県","04445","加美郡加美町","044450131000","字城下西","38.568909","140.778593","0","1"
"04","宮城県","04445","加美郡加美町","044450132000","字下タ川原","38.575443","140.776626","0","1"
"04","宮城県","04445","加美郡加美町","044450133000","字原大曲浦","38.601053","140.729184","0","1"
"04","宮城県","04445","加美郡加美町","044450134000","字上野目中ノ内","38.593758","140.729420","0","1"
"04","宮城県","04445","加美郡加美町","044450135000","字下野目久保田南","38.575357","140.817038","0","1"
"04","宮城県","04445","加美郡加美町","044450136000","字下野目川端下","38.577119","140.827463","0","1"
"04","宮城県","04445","加美郡加美町","044450137000","字原三本松","38.599746","140.701007","0","1"
"04","宮城県","04445","加美郡加美町","044450138000","字小瀬川坂","38.594643","140.711990","0","1"
"04","宮城県","04445","加美郡加美町","044450139000","字田中","38.570947","140.787494","0","1"
"04","宮城県","04445","加美郡加美町","044450140000","字味ケ袋堰ノ内","38.588566","140.733264","0","1"
"04","宮城県","04445","加美郡加美町","044450141000","字鹿原大切","38.565322","140.730701","0","1"
"04","宮城県","04445","加美郡加美町","044450142000","字上野目薬師堂","38.589523","140.730545","0","1"
"04","宮城県","04445","加美郡加美町","044450143000","字小瀬清水田","38.596016","140.710755","0","1"
"04","宮城県","04445","加美郡加美町","044450144000","字鹿原新田","38.566880","140.739764","0","1"
"04","宮城県","04445","加美郡加美町","044450145000","字門沢裏一番","38.605112","140.681363","0","1"
"04","宮城県","04445","加美郡加美町","044450146000","字上野目大道端","38.591714","140.724456","0","1"
"04","宮城県","04445","加美郡加美町","044450147000","字下野目前川原中","38.574489","140.817659","0","1"
"04","宮城県","04445","加美郡加美町","044450148000","字西八石","38.576636","140.767168","0","1"
"04","宮城県","04445","加美郡加美町","044450149000","字八石下一番","38.575309","140.768289","0","1"
"04","宮城県","04445","加美郡加美町","044450150000","字片貝川原二番","38.552954","140.856406","0","1"
"04","宮城県","04445","加美郡加美町","044450151000","字芋沢遅沢","38.587499","140.718407","0","1"
"04","宮城県","04445","加美郡加美町","044450152000","字原高谷地屋敷","38.581692","140.766930","0","1"
"04","宮城県","04445","加美郡加美町","044450153000","字下野目雷北","38.577954","140.814559","0","1"
"04","宮城県","04445","加美郡加美町","044450154000","字小瀬中野","38.597593","140.706678","0","1"
"04","宮城県","04445","加美郡加美町","044450155000","字上野目谷地田","38.589644","140.727005","0","1"
"04","宮城県","04445","加美郡加美町","044450156000","字北原","38.579408","140.788499","0","1"
"04","宮城県","04445","加美郡加美町","044450157000","字門沢渡ノ沢","38.605898","140.692060","0","1"
"04","宮城県","04445","加美郡加美町","044450158000","字小瀬上河原","38.596944","140.707028","0","1"
"04","宮城県","04445","加美郡加美町","044450159000","字一本柳南","38.569439","140.853569","0","1"
"04","宮城県","04445","加美郡加美町","044450160000","字鹿原向田","38.564405","140.731674","0","1"
"04","宮城県","04445","加美郡加美町","044450161000","字前欠下川原","38.572731","140.771057","0","1"
"04","宮城県","04445","加美郡加美町","044450162000","字漆沢沢口","38.576018","140.647112","0","1"
"04","宮城県","04445","加美郡加美町","044450163000","字原庄右衛門","38.604009","140.716461","0","1"
"04","宮城県","04445","加美郡加美町","044450164000","字下野目雷南","38.576876","140.814732","0","1"
"04","宮城県","04445","加美郡加美町","044450165000","字水芋山岸","38.600073","140.684951","0","1"
"04","宮城県","04445","加美郡加美町","044450166000","字八王子","38.571030","140.782717","0","1"
"04","宮城県","04445","加美郡加美町","044450167000","字上野目桑畑一番","38.589430","140.720568","0","1"
"04","宮城県","04445","加美郡加美町","044450168000","字味ケ袋大善檀","38.586893","140.735754","0","1"
"04","宮城県","04445","加美郡加美町","044450169000","字原町北東屋敷","38.586459","140.749751","0","1"
"04","宮城県","04445","加美郡加美町","044450170000","字長清水北二番","38.596336","140.743355","0","1"
"04","宮城県","04445","加美郡加美町","044450171000","字原町南東屋敷","38.585282","140.749587","0","1"
"04","宮城県","04445","加美郡加美町","044450172000","字片貝川原外","38.552116","140.860502","0","1"
"04","宮城県","04445","加美郡加美町","044450173000","字小瀬下原東","38.594082","140.719062","0","1"
"04","宮城県","04445","加美郡加美町","044450174000","字下野目久保田北","38.576582","140.815959","0","1"
"04","宮城県","04445","加美郡加美町","044450175000","字上野目大宮","38.580043","140.745686","0","1"
"04","宮城県","04445","加美郡加美町","044450176000","字上野目高畑","38.588614","140.730781","0","1"
"04","宮城県","04445","加美郡加美町","044450177000","字原上野屋敷","38.599707","140.703303","0","1"
"04","宮城県","04445","加美郡加美町","044450178000","字原長谷地","38.608277","140.716576","0","1"
"04","宮城県","04445","加美郡加美町","044450179000","字鹿原新小田","38.569530","140.755917","0","1"
"04","宮城県","04445","加美郡加美町","044450180000","字原町南百ケ清水","38.585596","140.751556","0","1"
"04","宮城県","04445","加美郡加美町","044450181000","字上野目河原","38.579966","140.742950","0","1"
"04","宮城県","04445","加美郡加美町","044450182000","字下野目下久保中","38.577572","140.820070","0","1"
"04","宮城県","04445","加美郡加美町","044450183000","字門沢浦","38.604436","140.679862","0","1"
"04","宮城県","04445","加美郡加美町","044450184000","字鹿原松下","38.568159","140.742005","0","1"
"04","宮城県","04445","加美郡加美町","044450185000","字鹿原源治郎","38.570936","140.741243","0","1"
"04","宮城県","04445","加美郡加美町","044450186000","字鹿島西","38.556385","140.863883","0","1"
"04","宮城県","04445","加美郡加美町","044450187000","字鹿原広見","38.567489","140.737757","0","1"
"04","宮城県","04445","加美郡加美町","044450188000","字上野目久保","38.586239","140.729557","0","1"
"04","宮城県","04445","加美郡加美町","044450189000","字味ケ袋栗木檀","38.587257","140.736216","0","1"
"04","宮城県","04445","加美郡加美町","044450190000","字原道端屋敷","38.579111","140.775112","0","1"
"04","宮城県","04445","加美郡加美町","044450191000","字木伏川原三番","38.560320","140.850964","0","1"
"04","宮城県","04445","加美郡加美町","044450192000","字水芋山岸一番","38.600417","140.689580","0","1"
"04","宮城県","04445","加美郡加美町","044450193000","字町裏八番","38.567731","140.858454","0","1"
"04","宮城県","04445","加美郡加美町","044450194000","字中川原","38.572039","140.778418","0","1"
"04","宮城県","04445","加美郡加美町","044450195000","字下野目北田南","38.578172","140.810947","0","1"
"04","宮城県","04445","加美郡加美町","044450196000","字芋沢楜畑","38.588545","140.698511","0","1"
"04","宮城県","04445","加美郡加美町","044450197000","字上野目皆伝寺","38.586698","140.740021","0","1"
"04","宮城県","04445","加美郡加美町","044450198000","字味ケ袋神明下一番","38.582640","140.732989","0","1"
"04","宮城県","04445","加美郡加美町","044450199000","字原瀞清水","38.597057","140.728487","0","1"
"04","宮城県","04445","加美郡加美町","044450200000","字門沢谷地田","38.605450","140.687628","0","1"
"04","宮城県","04445","加美郡加美町","044450201000","字小瀬川原","38.596950","140.705996","0","1"
"04","宮城県","04445","加美郡加美町","044450202000","字原町町頭","38.583888","140.741482","0","1"
"04","宮城県","04445","加美郡加美町","044450203000","字芋沢久保田","38.591946","140.706116","0","1"
"04","宮城県","04445","加美郡加美町","044450204000","字鹿原堰端","38.564907","140.731209","0","1"
"04","宮城県","04445","加美郡加美町","044450205000","字上野目小林","38.587370","140.744278","0","1"
"04","宮城県","04445","加美郡加美町","044450206000","字小瀬下原前","38.595051","140.716042","0","1"
"04","宮城県","04445","加美郡加美町","044450207000","字大門三番","38.574401","140.854282","0","1"
"04","宮城県","04445","加美郡加美町","044450208000","字下野目下久保南","38.576586","140.823812","0","1"
"04","宮城県","04445","加美郡加美町","044450209000","字穴畑","38.574053","140.850181","0","1"
"04","宮城県","04445","加美郡加美町","044450210000","字芋沢北平一番","38.593184","140.700883","0","1"
"04","宮城県","04445","加美郡加美町","044450211000","字門沢梨子沢","38.605347","140.674626","0","1"
"04","宮城県","04445","加美郡加美町","044450212000","字鹿原北村","38.567189","140.737909","0","1"
"04","宮城県","04445","加美郡加美町","044450213000","字漆沢浦","38.577417","140.645916","0","1"
"04","宮城県","04445","加美郡加美町","044450214000","字中嶋大柳","38.570155","140.815305","0","1"
"04","宮城県","04445","加美郡加美町","044450215000","字鹿原峰崎","38.565043","140.735586","0","1"
"04","宮城県","04445","加美郡加美町","044450216000","字原北谷地","38.610568","140.700095","0","1"
"04","宮城県","04445","加美郡加美町","044450217000","字北町三番","38.573706","140.860323","0","1"
"04","宮城県","04445","加美郡加美町","044450218000","字鹿原四枚田","38.565893","140.734813","0","1"
"04","宮城県","04445","加美郡加美町","044450219000","字藤兵衛前","38.603375","140.711510","0","1"
"04","宮城県","04445","加美郡加美町","044450220000","字北寺宿","38.579391","140.783818","0","1"
"04","宮城県","04445","加美郡加美町","044450221000","字岡町","38.571646","140.859593","0","1"
"04","宮城県","04445","加美郡加美町","044450222000","字上野目石名坂","38.585546","140.726713","0","1"
"04","宮城県","04445","加美郡加美町","044450223000","字北田","38.578435","140.814705","0","1"
"04","宮城県","04445","加美郡加美町","044450224000","字小瀬坂下","38.597628","140.708754","0","1"
"04","宮城県","04445","加美郡加美町","044450225000","字百目木一番","38.563424","140.857368","0","1"
"04","宮城県","04445","加美郡加美町","044450226000","字芋沢羽場田","38.594896","140.707248","0","1"
"04","宮城県","04445","加美郡加美町","044450227000","字原町北西屋敷","38.586976","140.746989","0","1"
"04","宮城県","04445","加美郡加美町","044450228000","字芋沢川原","38.593795","140.710835","0","1"
"04","宮城県","04445","加美郡加美町","044450229000","字上野目畑中","38.592754","140.731405","0","1"
"04","宮城県","04445","加美郡加美町","044450230000","字鹿原前田","38.571227","140.738275","0","1"
"04","宮城県","04445","加美郡加美町","044450231000","字味ケ袋志田","38.579186","140.730800","0","1"
"04","宮城県","04445","加美郡加美町","044450232000","字上野目西野々","38.592892","140.717127","0","1"
"04","宮城県","04445","加美郡加美町","044450233000","字町屋敷二番","38.575313","140.779177","0","1"
"04","宮城県","04445","加美郡加美町","044450234000","字門沢羽場","38.605587","140.684605","0","1"
"04","宮城県","04445","加美郡加美町","044450235000","字鹿原久保田","38.571144","140.753635","0","1"
"04","宮城県","04445","加美郡加美町","044450236000","字鹿原森合","38.566025","140.740689","0","1"
"04","宮城県","04445","加美郡加美町","044450237000","字原町六角","38.585298","140.740230","0","1"
"04","宮城県","04445","加美郡加美町","044450238000","字長清水南一番","38.595306","140.737459","0","1"
"04","宮城県","04445","加美郡加美町","044450239000","字味ケ袋坂下","38.584189","140.733559","0","1"
"04","宮城県","04445","加美郡加美町","044450240000","字漆沢宿","38.576960","140.647520","0","1"
"04","宮城県","04445","加美郡加美町","044450241000","字原町桜檀","38.584542","140.752364","0","1"
"04","宮城県","04445","加美郡加美町","044450242000","字藤兵衛","38.603814","140.708325","0","1"
"04","宮城県","04445","加美郡加美町","044450243000","字中嶋大柳一番","38.572236","140.826183","0","1"
"04","宮城県","04445","加美郡加美町","044450244000","字町屋敷一番","38.573546","140.781513","0","1"
"04","宮城県","04445","加美郡加美町","044450245000","字門沢下窪","38.604077","140.683094","0","1"
"04","宮城県","04445","加美郡加美町","044450246000","字下野目藤沢","38.577651","140.833167","0","1"
"04","宮城県","04445","加美郡加美町","044450247000","字門沢二ツ檀","38.603181","140.690196","0","1"
"04","宮城県","04445","加美郡加美町","044450248000","字鹿原新東向","38.572616","140.755906","0","1"
"04","宮城県","04445","加美郡加美町","044450249000","字芋沢矢坪","38.591958","140.708545","0","1"
"04","宮城県","04445","加美郡加美町","044450250000","字下野目清水田東","38.573990","140.813149","0","1"
"04","宮城県","04445","加美郡加美町","044450251000","字鹿原照井","38.578915","140.751091","0","1"
"04","宮城県","04445","加美郡加美町","044450252000","字原沢目田一番","38.608011","140.729264","0","1"
"04","宮城県","04445","加美郡加美町","044450253000","字原大谷地","38.608176","140.691334","0","1"
"04","宮城県","04445","加美郡加美町","044450254000","字一里塚","38.572541","140.789806","0","1"
"04","宮城県","04445","加美郡加美町","044450255000","字上野目桑畑二番","38.588091","140.721424","0","1"
"04","宮城県","04445","加美郡加美町","044450256000","字片貝川原別","38.553169","140.860093","0","1"
"04","宮城県","04445","加美郡加美町","044450257000","字照井","38.579802","140.757249","0","1"
"04","宮城県","04445","加美郡加美町","044450258000","字南町","38.568618","140.857817","0","1"
"04","宮城県","04445","加美郡加美町","044450259000","字小瀬蟹沢","38.599285","140.700852","0","1"
"04","宮城県","04445","加美郡加美町","044450260000","字中原","38.582969","140.779743","0","1"
"04","宮城県","04445","加美郡加美町","044450261000","字北下原","38.576713","140.786764","0","1"
"04","宮城県","04445","加美郡加美町","044450262000","字芋沢上清水川","38.592941","140.713830","0","1"
"04","宮城県","04445","加美郡加美町","044450263000","字田中一番","38.570626","140.791454","0","1"
"04","宮城県","04445","加美郡加美町","044450264000","字木伏川原外","38.559522","140.854063","0","1"
"04","宮城県","04445","加美郡加美町","044450265000","字鹿原西野","38.574285","140.751498","0","1"
"04","宮城県","04445","加美郡加美町","044450266000","字八石下","38.575462","140.770831","0","1"
"04","宮城県","04445","加美郡加美町","044450267000","字鹿原川底下","38.552645","140.739493","0","1"
"04","宮城県","04445","加美郡加美町","044450268000","字芋沢柳沢","38.598539","140.695746","0","1"
"04","宮城県","04445","加美郡加美町","044450269000","字法昌寺前","38.595608","140.731449","0","1"
"04","宮城県","04445","加美郡加美町","044450270000","字鹿原中村","38.566476","140.731843","0","1"
"04","宮城県","04445","加美郡加美町","044450271000","字味ケ袋孫屋敷","38.571117","140.721541","0","1"
"04","宮城県","04445","加美郡加美町","044450272000","字味ケ袋荒立","38.582460","140.727222","0","1"
"04","宮城県","04445","加美郡加美町","044450273000","字薬師堂一番","38.559558","140.858959","0","1"
"04","宮城県","04445","加美郡加美町","044450274000","字味ケ袋川原","38.584421","140.730770","0","1"
"04","宮城県","04445","加美郡加美町","044450275000","字深草","38.594350","140.732892","0","1"
"04","宮城県","04445","加美郡加美町","044450276000","字樋田","38.579820","140.829614","0","1"
"04","宮城県","04445","加美郡加美町","044450277000","字芋沢楜畑一番","38.587765","140.691398","0","1"
"04","宮城県","04445","加美郡加美町","044450278000","字味ケ袋新水沢","38.581686","140.730986","0","1"
"04","宮城県","04445","加美郡加美町","044450279000","字中嶋堂屋敷","38.570167","140.825320","0","1"
"04","宮城県","04445","加美郡加美町","044450280000","字鹿原東田","38.568207","140.704334","0","1"
"04","宮城県","04445","加美郡加美町","044450281000","字長清水北","38.596771","140.733420","0","1"
"04","宮城県","04445","加美郡加美町","044450282000","字芋沢下馬坂","38.588471","140.690610","0","1"
"04","宮城県","04445","加美郡加美町","044450283000","字水芋西野","38.599852","140.680552","0","1"
"04","宮城県","04445","加美郡加美町","044450284000","字鹿原家ノ下","38.557603","140.722095","0","1"
"04","宮城県","04445","加美郡加美町","044450285000","字鹿原林際","38.551425","140.728531","0","1"
"04","宮城県","04445","加美郡加美町","044450286000","字鹿原川袋","38.568989","140.741205","0","1"
"04","宮城県","04445","加美郡加美町","044450287000","字町屋敷","38.571684","140.783938","0","1"
"04","宮城県","04445","加美郡加美町","044450288000","字味ケ袋新志田","38.580402","140.732590","0","1"
"04","宮城県","04445","加美郡加美町","044450289000","字鹿原下北村","38.574266","140.753917","0","1"
"04","宮城県","04445","加美郡加美町","044450290000","字中嶋南原畑","38.566183","140.823717","0","1"
"04","宮城県","04445","加美郡加美町","044450291000","字矢倉","38.605076","140.728883","0","1"
"04","宮城県","04445","加美郡加美町","044450292000","字原鯨橋","38.609909","140.697431","0","1"
"04","宮城県","04445","加美郡加美町","044450293000","字小瀬岩城上","38.595192","140.714451","0","1"
"04","宮城県","04445","加美郡加美町","044450294000","字久保田","38.575394","140.815397","0","1"
"04","宮城県","04445","加美郡加美町","044450295000","字下野目前川原南","38.572696","140.817587","0","1"
"04","宮城県","04445","加美郡加美町","044450296000","字鹿原小田刈","38.560497","140.734273","0","1"
"04","宮城県","04445","加美郡加美町","044450297000","字鹿原柏木林","38.565067","140.721733","0","1"
"04","宮城県","04445","加美郡加美町","044450298000","字芋沢植村","38.592193","140.711458","0","1"
"04","宮城県","04445","加美郡加美町","044450299000","字西田一番","38.572967","140.854096","0","1"
"04","宮城県","04445","加美郡加美町","044450300000","字長町","38.578808","140.817749","0","1"
"04","宮城県","04445","加美郡加美町","044450301000","字上野目向","38.581492","140.737630","0","1"
"04","宮城県","04445","加美郡加美町","044450302000","字蓬田","38.578712","140.829092","0","1"
"04","宮城県","04445","加美郡加美町","044450303000","字新木伏","38.555690","140.852916","0","1"
"04","宮城県","04445","加美郡加美町","044450304000","字南寺宿","38.576161","140.782788","0","1"
"04","宮城県","04445","加美郡加美町","044450305000","字寺西","38.570544","140.779862","0","1"
"04","宮城県","04445","加美郡加美町","044450306000","字鹿原中畑","38.558859","140.739329","0","1"
"04","宮城県","04445","加美郡加美町","044450307000","字芋沢馬ケ峰","38.587984","140.716586","0","1"
"04","宮城県","04445","加美郡加美町","044450308000","字門沢宿","38.603459","140.678741","0","1"
"04","宮城県","04445","加美郡加美町","044450309000","字新木ノ下","38.569401","140.833663","0","1"
"04","宮城県","04445","加美郡加美町","044450310000","字原町南西屋敷","38.585852","140.745690","0","1"
"04","宮城県","04445","加美郡加美町","044450311000","字漆沢野中","38.573834","140.647406","0","1"
"04","宮城県","04445","加美郡加美町","044450312000","字鹿原互原","38.570320","140.746026","0","1"
"04","宮城県","04445","加美郡加美町","044450313000","字鹿原中小田刈","38.560117","140.731240","0","1"
"04","宮城県","04445","加美郡加美町","044450314000","字鹿原堰ノ沢","38.564913","140.753791","0","1"
"04","宮城県","04445","加美郡加美町","044450315000","字長清水北雷屋敷","38.594199","140.757796","0","1"
"04","宮城県","04445","加美郡加美町","044450316000","字掃留","38.574262","140.767763","0","1"
"04","宮城県","04445","加美郡加美町","044450317000","字北町二番","38.572975","140.862045","0","1"
"04","宮城県","04445","加美郡加美町","044450318000","字鹿原三五屋敷","38.578950","140.748218","0","1"
"04","宮城県","04445","加美郡加美町","044450319000","字味ケ袋水沢","38.581603","140.728647","0","1"
"04","宮城県","04445","加美郡加美町","044450320000","字鹿原川端","38.567514","140.698867","0","1"
"04","宮城県","04445","加美郡加美町","044450321000","字上野原","38.573129","140.786303","0","1"
"04","宮城県","04445","加美郡加美町","044450322000","字天王","38.579264","140.820417","0","1"
"04","宮城県","04445","加美郡加美町","044450323000","字蟹沢","38.585467","140.735422","0","1"
"04","宮城県","04445","加美郡加美町","044450324000","字鹿原坂下","38.573553","140.737645","0","1"
"04","宮城県","04445","加美郡加美町","044450325000","字原南原","38.598226","140.713513","0","1"
"04","宮城県","04445","加美郡加美町","044450326000","字八王子前","38.569894","140.788099","0","1"
"04","宮城県","04445","加美郡加美町","044450327000","字久保","38.578943","140.826023","0","1"
"04","宮城県","04445","加美郡加美町","044450328000","字味ケ袋上清水","38.584164","140.727621","0","1"
"04","宮城県","04445","加美郡加美町","044450329000","字鹿原永沢一番","38.567930","140.734584","0","1"
"04","宮城県","04445","加美郡加美町","044450330000","字上中川原","38.573625","140.773339","0","1"
"04","宮城県","04445","加美郡加美町","044450331000","字鹿原山下","38.568462","140.693244","0","1"
"04","宮城県","04445","加美郡加美町","044450332000","字水芋下窪","38.602705","140.689014","0","1"
"04","宮城県","04445","加美郡加美町","044450333000","字鹿原西野西","38.574279","140.747691","0","1"
"04","宮城県","04445","加美郡加美町","044450334000","字石原","38.575333","140.790182","0","1"
"04","宮城県","04445","加美郡加美町","044450335000","字西町","38.573358","140.856942","0","1"
"04","宮城県","04445","加美郡加美町","044450336000","字権現","38.594720","140.722174","0","1"
"04","宮城県","04445","加美郡加美町","044450337000","字長清水北一番","38.597010","140.737832","0","1"
"04","宮城県","04445","加美郡加美町","044450338000","字鹿原西原","38.572198","140.744272","0","1"
"04","宮城県","04445","加美郡加美町","044450339000","字桑畑西","38.590865","140.719130","0","1"
"04","宮城県","04445","加美郡加美町","044450340000","字上野目水沼向","38.578792","140.743648","0","1"
"04","宮城県","04445","加美郡加美町","044450341000","字漆沢宇津野","38.587088","140.652762","0","1"
"04","宮城県","04445","加美郡加美町","044450342000","字北ノ口東","38.579595","140.802210","0","1"
"04","宮城県","04445","加美郡加美町","044450343000","字中畑","38.575644","140.784319","0","1"
"04","宮城県","04445","加美郡加美町","044450344000","字上川原一番","38.576796","140.843867","0","1"
"04","宮城県","04445","加美郡加美町","044450345000","字品沢","38.576861","140.809863","0","1"
"04","宮城県","04445","加美郡加美町","044450346000","字芋沢二番","38.590377","140.714849","0","1"
"04","宮城県","04445","加美郡加美町","044450347000","字鹿原中村西田","38.573104","140.749637","0","1"
"04","宮城県","04445","加美郡加美町","044450348000","字原芳谷地","38.588307","140.769270","0","1"
"04","宮城県","04445","加美郡加美町","044450349000","字新堂屋敷","38.567975","140.826988","0","1"
"04","宮城県","04445","加美郡加美町","044450350000","字原諸畑","38.596409","140.776524","0","1"
"04","宮城県","04445","加美郡加美町","044450351000","字鹿原長畑","38.566683","140.687984","0","1"
"04","宮城県","04445","加美郡加美町","044450352000","字城内","38.578845","140.769271","0","1"
"04","宮城県","04445","加美郡加美町","044450353000","字味ケ袋志田前","38.579295","140.727181","0","1"
"04","宮城県","04445","加美郡加美町","044450354000","字百目木三番","38.567006","140.855934","0","1"
"04","宮城県","04445","加美郡加美町","044450355000","字芋沢松阪","38.595119","140.699281","0","1"
"04","宮城県","04445","加美郡加美町","044450356000","字漆沢森下","38.573218","140.644895","0","1"
"04","宮城県","04445","加美郡加美町","044450357000","字漆沢宿尻","38.580992","140.649633","0","1"
"04","宮城県","04445","加美郡加美町","044450358000","字芋沢勝山","38.589904","140.711327","0","1"
"04","宮城県","04445","加美郡加美町","044450359000","字漆沢柏木","38.590632","140.659542","0","1"
"04","宮城県","04445","加美郡加美町","044450360000","字鹿原水堀","38.567705","140.744238","0","1"
"04","宮城県","04445","加美郡加美町","044450361000","字鹿原大畑","38.560012","140.741852","0","1"
"04","宮城県","04445","加美郡加美町","044450362000","字鹿原鹿原","38.571213","140.750633","0","1"
"04","宮城県","04445","加美郡加美町","044450363000","字南小路一番","38.577979","140.766513","0","1"
"04","宮城県","04445","加美郡加美町","044450364000","字鹿原西畑","38.559629","140.737055","0","1"
"04","宮城県","04445","加美郡加美町","044450365000","字押登目","38.554081","140.852647","0","1"
"04","宮城県","04445","加美郡加美町","044450366000","字味ケ袋輪野","38.578689","140.737426","0","1"
"04","宮城県","04445","加美郡加美町","044450367000","字前欠","38.571188","140.772027","0","1"
"04","宮城県","04445","加美郡加美町","044450368000","字板橋北","38.598855","140.727767","0","1"
"04","宮城県","04445","加美郡加美町","044450369000","字板橋南","38.595824","140.726534","0","1"
"04","宮城県","04445","加美郡加美町","044450370000","字新諸畑一番","38.596554","140.772186","0","1"
"04","宮城県","04445","加美郡加美町","044450371000","字宮田","38.579357","140.823235","0","1"
"04","宮城県","04445","加美郡加美町","044450372000","字川原田","38.574562","140.819638","0","1"
"04","宮城県","04445","加美郡加美町","044450373000","字原反目北","38.602164","140.709519","0","1"
"04","宮城県","04445","加美郡加美町","044450374000","字漆沢休ヶ原","38.570588","140.641909","0","1"
"04","宮城県","04445","加美郡加美町","044450375000","字新照井下","38.578509","140.756201","0","1"
"04","宮城県","04445","加美郡加美町","044450376000","字鹿原坂下一番","38.576582","140.739014","0","1"
"04","宮城県","04445","加美郡加美町","044450377000","字原反目","38.601162","140.703643","0","1"
"04","宮城県","04445","加美郡加美町","044450378000","字田中前","38.587591","140.730027","0","1"
"04","宮城県","04445","加美郡加美町","044450379000","字雷南","38.590165","140.759415","0","1"
"04","宮城県","04445","加美郡加美町","044450380000","字鹿原掃出","38.575207","140.760043","0","1"
"04","宮城県","04445","加美郡加美町","044450381000","字鹿原岩下","38.566455","140.703710","0","1"
"04","宮城県","04445","加美郡加美町","044450382000","字漆沢宇ト沢","38.594286","140.665774","0","1"
"04","宮城県","04445","加美郡加美町","044450383000","字小瀬屋敷","38.597199","140.712328","0","1"
"04","宮城県","04445","加美郡加美町","044450384000","字鹿原南田","38.568241","140.753472","0","1"
"04","宮城県","04445","加美郡加美町","044450385000","字味ケ袋打越","38.581017","140.735223","0","1"
"04","宮城県","04445","加美郡加美町","044450386000","字仁平屋敷","38.601352","140.724675","0","1"
"04","宮城県","04445","加美郡加美町","044450387000","字中嶋明神下","38.571771","140.821376","0","1"
"04","宮城県","04445","加美郡加美町","044450388000","字鹿原向畑","38.563337","140.747761","0","1"
"04","宮城県","04445","加美郡加美町","044450389000","字中嶋明膳","38.568659","140.821842","0","1"
"04","宮城県","04445","加美郡加美町","044450390000","字上野目穴沢二番","38.586027","140.720431","0","1"
"04","宮城県","04445","加美郡加美町","044450391000","字水芋薬師","38.601485","140.685321","0","1"
"04","宮城県","04445","加美郡加美町","044450392000","字長清水南雷屋敷","38.590493","140.763911","0","1"
"04","宮城県","04445","加美郡加美町","044450393000","字芋沢南平","38.590912","140.701159","0","1"
"04","宮城県","04445","加美郡加美町","044450394000","字水芋屋敷","38.602442","140.681943","0","1"
"04","宮城県","04445","加美郡加美町","044450395000","字鹿原小山","38.572515","140.758578","0","1"
"04","宮城県","04445","加美郡加美町","044450396000","字旧舘一番","38.564912","140.854991","0","1"
"04","宮城県","04445","加美郡加美町","044450397000","字鹿原北浦","38.576752","140.752763","0","1"
"04","宮城県","04445","加美郡加美町","044450398000","字長檀","38.576933","140.779476","0","1"
"04","宮城県","04445","加美郡加美町","044450399000","字田中二番","38.569639","140.782974","0","1"
"04","宮城県","04445","加美郡加美町","044450400000","字板橋","38.577026","140.803557","0","1"
"04","宮城県","04445","加美郡加美町","044450401000","字鹿原三杉川原","38.558156","140.716744","0","1"
"04","宮城県","04445","加美郡加美町","044450402000","字田中浦","38.591008","140.730602","0","1"
"04","宮城県","04445","加美郡加美町","044450403000","字下原","38.575830","140.787832","0","1"
"04","宮城県","04445","加美郡加美町","044450404000","字矢倉西","38.607634","140.724912","0","1"
"04","宮城県","04445","加美郡加美町","044450405000","字鹿原長畑一番","38.565625","140.690374","0","1"
"04","宮城県","04445","加美郡加美町","044450406000","字町下","38.573657","140.778458","0","1"
"04","宮城県","04445","加美郡加美町","044450407000","字鹿原下原","38.575455","140.746902","0","1"
"04","宮城県","04445","加美郡加美町","044450408000","字上野目穴沢一番","38.585046","140.723978","0","1"
"04","宮城県","04445","加美郡加美町","044450409000","字南小路","38.577472","140.763457","0","1"
"04","宮城県","04445","加美郡加美町","044450410000","字鹿原南原","38.564032","140.740667","0","1"
"04","宮城県","04445","加美郡加美町","044450411000","字滝下","38.602942","140.702243","0","1"
"04","宮城県","04445","加美郡加美町","044450412000","字鹿原堰下","38.563552","140.736724","0","1"
"04","宮城県","04445","加美郡加美町","044450413000","字中嶋大下","38.571421","140.833413","0","1"
"04","宮城県","04445","加美郡加美町","044450414000","字原小長坂","38.606025","140.698251","0","1"
"04","宮城県","04445","加美郡加美町","044450415000","字清水田","38.573912","140.809286","0","1"
"04","宮城県","04445","加美郡加美町","044450416000","字台崎東","38.603126","140.751217","0","1"
"04","宮城県","04445","加美郡加美町","044450417000","字新堀","38.592530","140.727832","0","1"
"04","宮城県","04445","加美郡加美町","044450418000","字舘下","38.571099","140.775250","0","1"
"04","宮城県","04445","加美郡加美町","044450419000","字芋沢小土山","38.589656","140.704561","0","1"
"04","宮城県","04445","加美郡加美町","044450420000","字味ケ袋田野沢","38.576602","140.732857","0","1"
"04","宮城県","04445","加美郡加美町","044450421000","字中原北","38.587190","140.775097","0","1"
"04","宮城県","04445","加美郡加美町","044450422000","字鹿原札場","38.573030","140.754655","0","1"
"04","宮城県","04445","加美郡加美町","044450423000","字鹿原川底","38.550545","140.731822","0","1"
"04","宮城県","04445","加美郡加美町","044450424000","字伯治","38.604411","140.694273","0","1"
"04","宮城県","04445","加美郡加美町","044450425000","字新小路","38.577750","140.773584","0","1"
"04","宮城県","04445","加美郡加美町","044450426000","字松田","38.602188","140.695756","0","1"
"04","宮城県","04445","加美郡加美町","044450427000","字鹿原日陰","38.564627","140.713893","0","1"
"04","宮城県","04445","加美郡加美町","044450428000","字中嶋中里","38.570816","140.829331","0","1"
"04","宮城県","04445","加美郡加美町","044450429000","字桑畑東","38.589590","140.723928","0","1"
"04","宮城県","04445","加美郡加美町","044450430000","字木伏","38.558276","140.853568","0","1"
"04","宮城県","04445","加美郡加美町","044450431000","字大曲","38.602308","140.729054","0","1"
"04","宮城県","04445","加美郡加美町","044450432000","字鹿原田羅目記","38.570626","140.694695","0","1"
"04","宮城県","04445","加美郡加美町","044450433000","字矢倉東","38.604932","140.735713","0","1"
"04","宮城県","04445","加美郡加美町","044450434000","字薬師堂","38.555263","140.863710","0","1"
"04","宮城県","04445","加美郡加美町","044450435000","字新空沼","38.599628","140.751052","0","1"
"04","宮城県","04445","加美郡加美町","044450436000","字小瀬裏東","38.597567","140.722004","0","1"
"04","宮城県","04445","加美郡加美町","044450437000","字鹿原川前一番","38.560572","140.710065","0","1"
"04","宮城県","04445","加美郡加美町","044450438000","字長清水東","38.595583","140.748600","0","1"
"04","宮城県","04445","加美郡加美町","044450439000","字門沢間坂","38.599128","140.675799","0","1"
"04","宮城県","04445","加美郡加美町","044450440000","字鹿原滝ノ原","38.560248","140.691693","0","1"
"04","宮城県","04445","加美郡加美町","044450441000","字鹿原川前","38.561533","140.712965","0","1"
"04","宮城県","04445","加美郡加美町","044450442000","字皆伝寺","38.588529","140.741137","0","1"
"04","宮城県","04445","加美郡加美町","044450443000","字鹿原赤坂原","38.560286","140.723319","0","1"
"04","宮城県","04445","加美郡加美町","044450444000","字味ケ袋浦","38.590065","140.735884","0","1"
"04","宮城県","04445","加美郡加美町","044450445000","字鹿原谷地袋","38.563618","140.743574","0","1"
"04","宮城県","04445","加美郡加美町","044450446000","字八幡堂","38.605543","140.725422","0","1"
"04","宮城県","04445","加美郡加美町","044450447000","字雷東","38.591498","140.769620","0","1"
"04","宮城県","04445","加美郡加美町","044450448000","字原大谷地北浦","38.609447","140.703601","0","1"
"04","宮城県","04445","加美郡加美町","044450449000","字鹿原北向","38.566793","140.725765","0","1"
"04","宮城県","04445","加美郡加美町","044450450000","字保室","38.583031","140.740748","0","1"
"04","宮城県","04445","加美郡加美町","044450451000","字漆沢蕨野","38.587360","140.648218","0","1"
"04","宮城県","04445","加美郡加美町","044450452000","字水芋小石沢","38.596950","140.679633","0","1"
"04","宮城県","04445","加美郡加美町","044450453000","字鹿原永沢","38.570388","140.734922","0","1"
"04","宮城県","04445","加美郡加美町","044450454000","字鹿原鹿原一番","38.567614","140.748607","0","1"
"04","宮城県","04445","加美郡加美町","044450455000","字大門","38.576668","140.853225","0","1"
"04","宮城県","04445","加美郡加美町","044450456000","字台崎西","38.604496","140.741598","0","1"
"04","宮城県","04445","加美郡加美町","044450457000","字原焼橋浦","38.598151","140.765861","0","1"
"04","宮城県","04445","加美郡加美町","044450458000","字新雷北","38.598796","140.756407","0","1"
"04","宮城県","04445","加美郡加美町","044450459000","字前田上","38.571368","140.811821","0","1"
"04","宮城県","04445","加美郡加美町","044450460000","字鹿原新源城","38.572898","140.740983","0","1"
"04","宮城県","04445","加美郡加美町","044450461000","字原焼橋東","38.595995","140.764606","0","1"
"04","宮城県","04445","加美郡加美町","044450462000","字鹿原栗木平","38.540806","140.672499","0","1"
"04","宮城県","04445","加美郡加美町","044450463000","字長清水中","38.599321","140.739618","0","1"
"04","宮城県","04445","加美郡加美町","044450464000","字鹿原茨谷地","38.558307","140.691421","0","1"
"04","宮城県","04445","加美郡加美町","044450465000","字水芋焼野","38.597297","140.684489","0","1"
"04","宮城県","04445","加美郡加美町","044450466000","字長清水裏","38.598033","140.744797","0","1"
"04","宮城県","04445","加美郡加美町","044450467000","字鹿原下川底山","38.556818","140.749171","0","1"
"04","宮城県","04445","加美郡加美町","044450468000","字漆沢平","38.586224","140.655731","0","1"
"04","宮城県","04445","加美郡加美町","044450469000","字鹿原南向","38.563439","140.725865","0","1"
"04","宮城県","04445","加美郡加美町","044450470000","字新川原","38.555933","140.858214","0","1"
"04","宮城県","04445","加美郡加美町","044450471000","字鹿原堰山","38.564295","140.755597","0","1"
"04","宮城県","04445","加美郡加美町","044450472000","字原中谷地","38.607276","140.697843","0","1"
"04","宮城県","04445","加美郡加美町","044450473000","字台崎","38.603727","140.747011","0","1"
"04","宮城県","04445","加美郡加美町","044450474000","字照井浦","38.581526","140.756735","0","1"
"04","宮城県","04445","加美郡加美町","044450475000","字鹿原昼ケ坂","38.566300","140.715764","0","1"
"04","宮城県","04445","加美郡加美町","044450476000","字門沢大堤","38.598579","140.661620","0","1"
"04","宮城県","04445","加美郡加美町","044450477000","字門沢山岸","38.607495","140.688819","0","1"
"04","宮城県","04445","加美郡加美町","044450478000","字北ノ口前","38.577527","140.797386","0","1"
"04","宮城県","04445","加美郡加美町","044450479000","字漆沢赤坂","38.580485","140.652962","0","1"
"04","宮城県","04445","加美郡加美町","044450480000","字町東","38.573102","140.796240","0","1"
"04","宮城県","04445","加美郡加美町","044450481000","字庄右衛門","38.602160","140.718570","0","1"
"04","宮城県","04445","加美郡加美町","044450482000","字長清水西","38.600785","140.734128","0","1"
"04","宮城県","04445","加美郡加美町","044450483000","字矢越","38.574897","140.862311","0","1"
"04","宮城県","04445","加美郡加美町","044450484000","字小瀬裏","38.599574","140.715190","0","1"
"04","宮城県","04445","加美郡加美町","044450485000","字西佳原","38.572042","140.848870","0","1"
"04","宮城県","04445","加美郡加美町","044450486000","字鹿原岳山","38.544972","140.624380","0","1"
"04","宮城県","04445","加美郡加美町","044450487000","字芋沢柳沢山","38.598123","140.691645","0","1"
"04","宮城県","04445","加美郡加美町","044450488000","字町裏","38.567823","140.861638","0","1"
"04","宮城県","04445","加美郡加美町","044450489000","字鹿原下台野","38.559488","140.675342","0","1"
"04","宮城県","04445","加美郡加美町","044450490000","字鹿原峰山","38.562966","140.714121","0","1"
"04","宮城県","04445","加美郡加美町","044450491000","字芋沢一番","38.596429","140.703757","0","1"
"04","宮城県","04445","加美郡加美町","044450492000","字門沢安寺沢","38.608181","140.668763","0","1"
"04","宮城県","04445","加美郡加美町","044450493000","沼ケ袋","38.583227","140.823143","0","1"
"04","宮城県","04445","加美郡加美町","044450494000","字鹿原立板の原","38.569894","140.727440","0","1"
"04","宮城県","04445","加美郡加美町","044450495000","字大宮","38.582787","140.747983","0","1"
"04","宮城県","04445","加美郡加美町","044450496000","木舟","38.593319","140.780401","0","1"
"04","宮城県","04445","加美郡加美町","044450497000","字前田下","38.574979","140.828777","0","1"
"04","宮城県","04445","加美郡加美町","044450498000","字漆沢長坂","38.592634","140.651731","0","1"
"04","宮城県","04445","加美郡加美町","044450499000","字長清水前","38.593216","140.739922","0","1"
"04","宮城県","04445","加美郡加美町","044450500000","字漆沢筒砂子","38.585628","140.640466","0","1"
"04","宮城県","04445","加美郡加美町","044450501000","字中原南","38.581774","140.783057","0","1"
"04","宮城県","04445","加美郡加美町","044450502000","字鶴羽美","38.578022","140.793560","0","1"
"04","宮城県","04445","加美郡加美町","044450503000","君ケ袋","38.583008","140.810647","0","1"
"04","宮城県","04445","加美郡加美町","044450504000","字鹿原田手沼山","38.533588","140.704379","0","1"
"04","宮城県","04445","加美郡加美町","044450505000","字鹿原上台","38.556176","140.699907","0","1"
"04","宮城県","04445","加美郡加美町","044450506000","字鹿原田手沼","38.532010","140.698448","0","1"
"04","宮城県","04445","加美郡加美町","044450507000","字鹿原下台","38.559805","140.703720","0","1"
"04","宮城県","04445","加美郡加美町","044450508000","字門沢沼頭平","38.600496","140.670914","0","1"
"04","宮城県","04445","加美郡加美町","044450509000","字鹿原田谷地","38.551611","140.677624","0","1"
"04","宮城県","04445","加美郡加美町","044450510000","雑式目","38.555521","140.893483","0","1"
"04","宮城県","04445","加美郡加美町","044450511000","字住吉","38.563655","140.851587","0","1"
"04","宮城県","04445","加美郡加美町","044450512000","字芋沢森合","38.579023","140.704540","0","1"
"04","宮城県","04445","加美郡加美町","044450513000","字雁原","38.569830","140.873091","0","1"
"04","宮城県","04445","加美郡加美町","044450514000","字漆沢曲坂","38.585484","140.662698","0","1"
"04","宮城県","04445","加美郡加美町","044450515000","字鹿原田谷地二ノ","38.556898","140.682484","0","1"
"04","宮城県","04445","加美郡加美町","044450516000","字芋沢寺山","38.594387","140.693746","0","1"
"04","宮城県","04445","加美郡加美町","044450517000","字赤塚","38.561603","140.861620","0","1"
"04","宮城県","04445","加美郡加美町","044450518000","字鹿原上台野","38.554389","140.668608","0","1"
"04","宮城県","04445","加美郡加美町","044450519000","字新南雷屋敷","38.593969","140.753909","0","1"
"04","宮城県","04445","加美郡加美町","044450520000","字原八幡堂西一番","38.607279","140.713282","0","1"
"04","宮城県","04445","加美郡加美町","044450521000","字漆沢石坂山","38.594608","140.659692","0","1"
"04","宮城県","04445","加美郡加美町","044450522000","字漆沢楢実野","38.588601","140.668053","0","1"
"04","宮城県","04445","加美郡加美町","044450523000","字鹿原薬莱山","38.571033","140.703561","0","1"
"04","宮城県","04445","加美郡加美町","044450524000","字門沢内郷","38.603212","140.663700","0","1"
"04","宮城県","04445","加美郡加美町","044450525000","字味ケ袋用水御林","38.578834","140.722964","0","1"
"04","宮城県","04445","加美郡加美町","044450526000","字一本杉","38.566631","140.869369","0","1"
"04","宮城県","04445","加美郡加美町","044450527000","字原町北","38.589957","140.750157","0","1"
"04","宮城県","04445","加美郡加美町","044450528000","字水芋楢実野","38.592431","140.676980","0","1"
"04","宮城県","04445","加美郡加美町","044450529000","字鹿原水花山","38.550609","140.701606","0","1"
"04","宮城県","04445","加美郡加美町","044450530000","字高谷地","38.583572","140.767695","0","1"
"04","宮城県","04445","加美郡加美町","044450531000","字原町東","38.585776","140.760111","0","1"
"04","宮城県","04445","加美郡加美町","044450532000","字鹿原南滝庭","38.562838","140.696340","0","1"
"04","宮城県","04445","加美郡加美町","044450533000","字鹿原長畑二ノ","38.562785","140.676182","0","1"
"04","宮城県","04445","加美郡加美町","044450534000","下狼塚","38.569461","140.881485","0","1"
"04","宮城県","04445","加美郡加美町","044450535000","字門沢狢株","38.609357","140.678113","0","1"
"04","宮城県","04445","加美郡加美町","044450536000","字鹿原糸〆","38.569064","140.683434","0","1"
"04","宮城県","04445","加美郡加美町","044450537000","城生","38.582810","140.852661","0","1"
"04","宮城県","04445","加美郡加美町","044450538000","字原長谷地一番","38.609319","140.718293","0","1"
"04","宮城県","04445","加美郡加美町","044450539000","字鹿原網ノ沢","38.551192","140.693545","0","1"
"04","宮城県","04445","加美郡加美町","044450540000","字芋沢大又","38.580566","140.676547","0","1"
"04","宮城県","04445","加美郡加美町","044450541000","字芋沢山口山","38.585260","140.709970","0","1"
"04","宮城県","04445","加美郡加美町","044450542000","字芋沢峠","38.587678","140.680273","0","1"
"04","宮城県","04445","加美郡加美町","044450543000","字鹿原実沢西向","38.536577","140.714650","0","1"
"04","宮城県","04445","加美郡加美町","044450544000","字鹿原荒沢","38.548749","140.664605","0","1"
"04","宮城県","04445","加美郡加美町","044450545000","羽場","38.588113","140.846188","0","1"
"04","宮城県","04445","加美郡加美町","044450546000","字漆沢宮ケ森","38.576108","140.640746","0","1"
"04","宮城県","04445","加美郡加美町","044450547000","字鹿原蜂森","38.525474","140.708077","0","1"
"04","宮城県","04445","加美郡加美町","044450548000","字芋沢横欠","38.576561","140.664086","0","1"
"04","宮城県","04445","加美郡加美町","044450549000","字鹿原滝西風山","38.543329","140.681379","0","1"
"04","宮城県","04445","加美郡加美町","044450550000","字鹿原大日向","38.536343","140.682404","0","1"
"04","宮城県","04445","加美郡加美町","044450551000","平柳","38.567728","140.896572","0","1"
"04","宮城県","04445","加美郡加美町","044450552000","字麓山","38.567603","140.772410","0","1"
"04","宮城県","04445","加美郡加美町","044450553000","字芋沢柏木平","38.575449","140.682807","0","1"
"04","宮城県","04445","加美郡加美町","044450554000","字芋沢薬莱原","38.580695","140.692422","0","1"
"04","宮城県","04445","加美郡加美町","044450555000","孫沢","38.602163","140.817585","0","1"
"04","宮城県","04445","加美郡加美町","044450556000","字味ケ袋薬莱原","38.576054","140.712007","0","1"
"04","宮城県","04445","加美郡加美町","044450557000","小泉","38.585997","140.789474","0","1"
"04","宮城県","04445","加美郡加美町","044450558000","上狼塚","38.584891","140.870107","0","1"
"04","宮城県","04445","加美郡加美町","044450559000","字漆沢大野","38.565425","140.642122","0","1"
"04","宮城県","04445","加美郡加美町","044450560000","字鹿原川底上ノ原","38.553717","140.751401","0","1"
"04","宮城県","04445","加美郡加美町","044450561000","月崎","38.567380","140.796028","0","1"
"04","宮城県","04445","加美郡加美町","044450562000","鳥嶋","38.605584","140.802204","0","1"
"04","宮城県","04445","加美郡加美町","044450563000","柳沢","38.621380","140.777349","0","1"
"04","宮城県","04445","加美郡加美町","044450564000","字鹿原実沢","38.533463","140.730941","0","1"
"04","宮城県","04445","加美郡加美町","044450565000","四日市場","38.559875","140.875983","0","1"
"04","宮城県","04445","加美郡加美町","044450566000","下新田","38.543842","140.886260","0","1"
"04","宮城県","04445","加美郡加美町","044450567000","鳥屋ケ崎","38.602611","140.810144","0","1"
"04","宮城県","04445","加美郡加美町","044450568000","字鹿原上荒沢","38.536292","140.650176","0","1"
"04","宮城県","04445","加美郡加美町","044450569000","米泉","38.592598","140.831949","0","1"
"04","宮城県","04445","加美郡加美町","044450570000","字漆沢高畑","38.566914","140.626131","0","1"
"04","宮城県","04445","加美郡加美町","044450571000","谷地森","38.616931","140.786647","0","1"
"04","宮城県","04445","加美郡加美町","044450572000","字鹿原葡萄沢","38.553137","140.647367","0","1"
"04","宮城県","04445","加美郡加美町","044450573000","菜切谷","38.603669","140.845437","0","1"
"04","宮城県","04445","加美郡加美町","044450574000","下多田川","38.636769","140.796243","0","1"
"04","宮城県","04445","加美郡加美町","044450575000","上多田川","38.652432","140.802761","0","1"
"04","宮城県","04445","加美郡加美町","044450576000","北川内","38.670363","140.733303","0","1"
"04","宮城県","04445","加美郡加美町","044450577000","宮崎","38.644799","140.685069","0","1"
"04","宮城県","04445","加美郡加美町","044450578000","字鹿原水花","38.552488","140.721158","0","1"
"04","宮城県","04445","加美郡加美町","044450579000","字鹿原欠ノ上","38.553427","140.738435","0","1"
"04","宮城県","04445","加美郡加美町","044450580000","字鹿原下川底","38.556435","140.746267","0","1"
"04","宮城県","04445","加美郡加美町","044450581000","字鹿原中野原","38.558815","140.744588","0","1"
"04","宮城県","04445","加美郡加美町","044450582000","字鹿原新中野","38.557270","140.742652","0","1"
"04","宮城県","04445","加美郡加美町","044450583000","字鹿原三杉北","38.557775","140.732212","0","1"
"04","宮城県","04445","加美郡加美町","044450584000","字鹿原塚ノ沢山","38.538421","140.694975","0","1"
"04","宮城県","04445","加美郡加美町","044450585000","字鹿原宇和野中峰","38.547760","140.705400","0","1"
"04","宮城県","04445","加美郡加美町","044450586000","字鹿原塚ノ沢","38.540165","140.702505","0","1"
"04","宮城県","04445","加美郡加美町","044450587000","字鹿原屋敷","38.542790","140.707262","0","1"
"04","宮城県","04445","加美郡加美町","044450588000","字鹿原青野原中","38.546298","140.718237","0","1"
"04","宮城県","04445","加美郡加美町","044450589000","字鹿原百刈田","38.540849","140.711516","0","1"
"04","宮城県","04445","加美郡加美町","044450590000","字鹿原向山","38.547306","140.729140","0","1"
"04","宮城県","04445","加美郡加美町","044450591000","字鹿原川ノ上","38.549610","140.724172","0","1"
"04","宮城県","04445","加美郡加美町","044450592000","字鹿原青野原南","38.545317","140.718436","0","1"
"04","宮城県","04445","加美郡加美町","044450593000","字鹿原青野欠ノ上","38.544506","140.715806","0","1"
"04","宮城県","04445","加美郡加美町","044450594000","字鹿原内坪","38.552971","140.733714","0","1"
"04","宮城県","04445","加美郡加美町","044450595000","字鹿原東原","38.553660","140.736486","0","1"
"04","宮城県","04445","加美郡加美町","044450596000","字鹿原三杉","38.555974","140.720445","0","1"
"04","宮城県","04445","加美郡加美町","044450597000","字鹿原三杉南","38.554723","140.727535","0","1"
"04","宮城県","04445","加美郡加美町","044450598000","字鹿原三杉中","38.556004","140.731162","0","1"
"04","宮城県","04445","加美郡加美町","044450599000","字鹿原浦山","38.545727","140.709561","0","1"
"04","宮城県","04445","加美郡加美町","044450600000","字鹿原大松","38.545709","140.715689","0","1"
"04","宮城県","04445","加美郡加美町","044450601000","字鹿原青野東田","38.544514","140.712087","0","1"
