"PrefCode","PrefName","MuniCode","MuniName","DistCode","DistName","lat","lon","SrcCode","CatCode"
"05","秋田県","05212","大仙市","052120001000","字刈和野","39.542555","140.371977","0","1"
"05","秋田県","05212","大仙市","052120002000","朝日町","39.468321","140.474663","0","1"
"05","秋田県","05212","大仙市","052120003000","飯田","39.438225","140.483914","0","1"
"05","秋田県","05212","大仙市","052120004000","泉町","39.471836","140.462324","0","1"
"05","秋田県","05212","大仙市","052120005000","板見内","39.482106","140.548481","0","1"
"05","秋田県","05212","大仙市","052120006000","内小友","39.428250","140.417871","0","1"
"05","秋田県","05212","大仙市","052120007000","円行寺","39.477454","140.300793","0","1"
"05","秋田県","05212","大仙市","052120008000","大神成","39.547243","140.641091","0","1"
"05","秋田県","05212","大仙市","052120009000","大沢郷宿","39.502064","140.314451","0","1"
"05","秋田県","05212","大仙市","052120010000","大沢郷寺","39.510334","140.345717","0","1"
"05","秋田県","05212","大仙市","052120011000","太田町永代","39.492820","140.670243","0","1"
"05","秋田県","05212","大仙市","052120012000","太田町太田","39.546854","140.704224","0","1"
"05","秋田県","05212","大仙市","052120013000","太田町川口","39.498604","140.693643","0","1"
"05","秋田県","05212","大仙市","052120014000","太田町国見","39.525656","140.577077","0","1"
"05","秋田県","05212","大仙市","052120015000","太田町小神成","39.525444","140.631728","0","1"
"05","秋田県","05212","大仙市","052120016000","太田町駒場","39.504431","140.567876","0","1"
"05","秋田県","05212","大仙市","052120017000","太田町斉内","39.529245","140.613533","0","1"
"05","秋田県","05212","大仙市","052120018000","太田町中里","39.501385","140.582914","0","1"
"05","秋田県","05212","大仙市","052120019000","太田町東今泉","39.514678","140.627070","0","1"
"05","秋田県","05212","大仙市","052120020000","太田町横沢","39.505687","140.599410","0","1"
"05","秋田県","05212","大仙市","052120021000","大花町","39.465463","140.483653","0","1"
"05","秋田県","05212","大仙市","052120022000","大曲","39.441621","140.494624","0","1"
"05","秋田県","05212","大仙市","052120023000","大曲あけぼの町","39.455225","140.470421","0","1"
"05","秋田県","05212","大仙市","052120024000","大曲飯田町","39.442290","140.478510","0","1"
"05","秋田県","05212","大仙市","052120025000","大曲大町","39.459277","140.479160","0","1"
"05","秋田県","05212","大仙市","052120026000","大曲金谷町","39.450186","140.473513","0","1"
"05","秋田県","05212","大仙市","052120027000","大曲上大町","39.457017","140.478860","0","1"
"05","秋田県","05212","大仙市","052120028000","大曲上栄町","39.451281","140.477756","0","1"
"05","秋田県","05212","大仙市","052120029000","大曲川原町","39.459793","140.472779","0","1"
"05","秋田県","05212","大仙市","052120030000","大曲黒瀬町","39.462370","140.481875","0","1"
"05","秋田県","05212","大仙市","052120031000","大曲栄町","39.453872","140.478606","0","1"
"05","秋田県","05212","大仙市","052120032000","大曲白金町","39.464790","140.471587","0","1"
"05","秋田県","05212","大仙市","052120033000","大曲住吉町","39.448138","140.487702","0","1"
"05","秋田県","05212","大仙市","052120034001","大曲須和町一丁目","39.456211","140.481905","0","3"
"05","秋田県","05212","大仙市","052120034002","大曲須和町二丁目","39.455490","140.485514","0","3"
"05","秋田県","05212","大仙市","052120034003","大曲須和町三丁目","39.459824","140.483293","0","3"
"05","秋田県","05212","大仙市","052120035000","大曲田町","39.452001","140.483380","0","1"
"05","秋田県","05212","大仙市","052120036000","大曲通町","39.465439","140.478292","0","1"
"05","秋田県","05212","大仙市","052120037000","大曲戸巻町","39.458426","140.492891","0","1"
"05","秋田県","05212","大仙市","052120038000","大曲中通町","39.461797","140.479043","0","1"
"05","秋田県","05212","大仙市","052120039000","大曲西根","39.444943","140.442434","0","1"
"05","秋田県","05212","大仙市","052120040000","大曲花園町","39.454320","140.474062","0","1"
"05","秋田県","05212","大仙市","052120041000","大曲浜町","39.458432","140.475883","0","1"
"05","秋田県","05212","大仙市","052120042001","大曲日の出町一丁目","39.446860","140.476689","0","3"
"05","秋田県","05212","大仙市","052120042002","大曲日の出町二丁目","39.446693","140.480276","0","3"
"05","秋田県","05212","大仙市","052120043000","大曲福住町","39.464989","140.475099","0","1"
"05","秋田県","05212","大仙市","052120044000","大曲福見町","39.458591","140.488472","0","1"
"05","秋田県","05212","大仙市","052120045001","大曲船場町一丁目","39.458304","140.469580","0","3"
"05","秋田県","05212","大仙市","052120045002","大曲船場町二丁目","39.462789","140.466409","0","3"
"05","秋田県","05212","大仙市","052120046000","大曲丸子町","39.461476","140.489442","0","1"
"05","秋田県","05212","大仙市","052120047000","大曲丸の内町","39.462431","140.475143","0","1"
"05","秋田県","05212","大仙市","052120048000","大曲緑町","39.462242","140.469467","0","1"
"05","秋田県","05212","大仙市","052120049000","大曲若葉町","39.451867","140.487916","0","1"
"05","秋田県","05212","大仙市","052120050000","大巻","39.555338","140.318703","0","1"
"05","秋田県","05212","大仙市","052120051000","小貫高畑","39.448599","140.466426","0","1"
"05","秋田県","05212","大仙市","052120052000","角間川町","39.388396","140.474441","0","1"
"05","秋田県","05212","大仙市","052120053000","金山沢","39.529300","140.288361","0","1"
"05","秋田県","05212","大仙市","052120054000","上鴬野","39.566121","140.565665","0","1"
"05","秋田県","05212","大仙市","052120055000","刈和野","39.552059","140.378342","0","1"
"05","秋田県","05212","大仙市","052120056000","川目","39.432676","140.480615","0","1"
"05","秋田県","05212","大仙市","052120057000","北長野","39.551322","140.547884","0","1"
"05","秋田県","05212","大仙市","052120058000","北楢岡","39.511064","140.380660","0","1"
"05","秋田県","05212","大仙市","052120059000","北野目","39.540117","140.353458","0","1"
"05","秋田県","05212","大仙市","052120060000","木原田","39.532832","140.281177","0","1"
"05","秋田県","05212","大仙市","052120061000","協和荒川","39.640826","140.397078","0","1"
"05","秋田県","05212","大仙市","052120062000","協和稲沢","39.606139","140.413671","0","1"
"05","秋田県","05212","大仙市","052120063000","協和上淀川","39.617921","140.305234","0","1"
"05","秋田県","05212","大仙市","052120064000","協和小種","39.538201","140.259594","0","1"
"05","秋田県","05212","大仙市","052120065000","協和境","39.617458","140.327303","0","1"
"05","秋田県","05212","大仙市","052120066000","協和下淀川","39.563361","140.263158","0","1"
"05","秋田県","05212","大仙市","052120067000","協和中淀川","39.597065","140.277096","0","1"
"05","秋田県","05212","大仙市","052120068000","協和船岡","39.670597","140.356394","0","1"
"05","秋田県","05212","大仙市","052120069000","協和船沢","39.646556","140.282268","0","1"
"05","秋田県","05212","大仙市","052120070000","協和峰吉川","39.576764","140.327926","0","1"
"05","秋田県","05212","大仙市","052120071000","九升田","39.545205","140.315428","0","1"
"05","秋田県","05212","大仙市","052120072000","栗沢","39.549772","140.615602","0","1"
"05","秋田県","05212","大仙市","052120073000","上野田","39.454124","140.550481","0","1"
"05","秋田県","05212","大仙市","052120074000","強首","39.550455","140.289559","0","1"
"05","秋田県","05212","大仙市","052120075000","幸町","39.470964","140.478348","0","1"
"05","秋田県","05212","大仙市","052120076000","佐野町","39.470490","140.471330","0","1"
"05","秋田県","05212","大仙市","052120077000","清水","39.516338","140.551978","0","1"
"05","秋田県","05212","大仙市","052120078000","下鴬野","39.572354","140.560153","0","1"
"05","秋田県","05212","大仙市","052120079000","下深井","39.421472","140.508119","0","1"
"05","秋田県","05212","大仙市","052120080000","正手沢","39.503683","140.275611","0","1"
"05","秋田県","05212","大仙市","052120081000","神宮寺","39.497857","140.432686","0","1"
"05","秋田県","05212","大仙市","052120082000","杉山田","39.521509","140.282966","0","1"
"05","秋田県","05212","大仙市","052120083000","高城","39.545310","140.331552","0","1"
"05","秋田県","05212","大仙市","052120084000","高関上郷","39.483452","140.501151","0","1"
"05","秋田県","05212","大仙市","052120085000","高梨","39.459732","140.514282","0","1"
"05","秋田県","05212","大仙市","052120086000","土川","39.559768","140.451488","0","1"
"05","秋田県","05212","大仙市","052120087000","寺館","39.552020","140.338122","0","1"
"05","秋田県","05212","大仙市","052120088000","戸地谷","39.471858","140.500425","0","1"
"05","秋田県","05212","大仙市","052120089000","戸蒔","39.454015","140.495861","0","1"
"05","秋田県","05212","大仙市","052120090000","豊岡","39.566781","140.640635","0","1"
"05","秋田県","05212","大仙市","052120091000","豊川","39.557932","140.581902","0","1"
"05","秋田県","05212","大仙市","052120092000","長戸呂","39.509615","140.507703","0","1"
"05","秋田県","05212","大仙市","052120093000","長野","39.538198","140.523403","0","1"
"05","秋田県","05212","大仙市","052120094000","南外","39.446206","140.350231","0","1"
"05","秋田県","05212","大仙市","052120095000","南外外小友","39.424512","140.313230","0","1"
"05","秋田県","05212","大仙市","052120096000","南外南楢岡","39.446744","140.295136","0","1"
"05","秋田県","05212","大仙市","052120097000","新谷地","39.498709","140.488164","0","1"
"05","秋田県","05212","大仙市","052120098000","橋本","39.444867","140.520870","0","1"
"05","秋田県","05212","大仙市","052120099000","花館","39.480904","140.472938","0","1"
"05","秋田県","05212","大仙市","052120100000","花館上町","39.472937","140.468528","0","1"
"05","秋田県","05212","大仙市","052120101000","花館中町","39.474907","140.464943","0","1"
"05","秋田県","05212","大仙市","052120102000","花館柳町","39.477337","140.461343","0","1"
"05","秋田県","05212","大仙市","052120103000","東川","39.447199","140.501096","0","1"
"05","秋田県","05212","大仙市","052120104000","蛭川","39.463451","140.441322","0","1"
"05","秋田県","05212","大仙市","052120105000","福田","39.488217","140.529467","0","1"
"05","秋田県","05212","大仙市","052120106000","福田町","39.469324","140.484984","0","1"
"05","秋田県","05212","大仙市","052120107000","藤木","39.411564","140.492194","0","1"
"05","秋田県","05212","大仙市","052120108000","富士見町","39.472270","140.474461","0","1"
"05","秋田県","05212","大仙市","052120109000","払田","39.466536","140.543580","0","1"
"05","秋田県","05212","大仙市","052120110000","堀見内","39.474879","140.523851","0","1"
"05","秋田県","05212","大仙市","052120111000","松倉","39.517225","140.499164","0","1"
"05","秋田県","05212","大仙市","052120112000","美原町","39.468431","140.464040","0","1"
"05","秋田県","05212","大仙市","052120113000","鑓見内","39.514751","140.526116","0","1"
"05","秋田県","05212","大仙市","052120114000","横堀","39.498329","140.542772","0","1"
"05","秋田県","05212","大仙市","052120115000","四ツ屋","39.503414","140.477089","0","1"
"05","秋田県","05212","大仙市","052120116000","六郷西根","39.425450","140.480051","0","1"
"05","秋田県","05212","大仙市","052120117000","若竹町","39.467167","140.469223","0","1"
"05","秋田県","05212","大仙市","052120118000","和合","39.438367","140.513196","0","1"
"05","秋田県","05212","大仙市","052120119000","太田町三本扇","39.489382","140.586440","0","1"
