"PrefCode","PrefName","MuniCode","MuniName","DistCode","DistName","lat","lon","SrcCode","CatCode"
"06","山形県","06201","山形市","062010001000","相生町","38.259076","140.337672","0","1"
"06","山形県","06201","山形市","062010002001","青田一丁目","38.225470","140.329118","0","3"
"06","山形県","06201","山形市","062010002002","青田二丁目","38.226180","140.334657","0","3"
"06","山形県","06201","山形市","062010002003","青田三丁目","38.223266","140.332035","0","3"
"06","山形県","06201","山形市","062010002004","青田四丁目","38.223710","140.328611","0","3"
"06","山形県","06201","山形市","062010002005","青田五丁目","38.222154","140.329651","0","3"
"06","山形県","06201","山形市","062010003000","青田南","38.220714","140.327070","0","1"
"06","山形県","06201","山形市","062010004000","明石堂","38.228951","140.292897","0","1"
"06","山形県","06201","山形市","062010005001","あかねケ丘一丁目","38.250198","140.311308","0","3"
"06","山形県","06201","山形市","062010005002","あかねケ丘二丁目","38.245721","140.310193","0","3"
"06","山形県","06201","山形市","062010005003","あかねケ丘三丁目","38.242139","140.309268","0","3"
"06","山形県","06201","山形市","062010006001","あけぼの一丁目","38.313451","140.362092","0","3"
"06","山形県","06201","山形市","062010006002","あけぼの二丁目","38.313547","140.359751","0","3"
"06","山形県","06201","山形市","062010007001","あこや町一丁目","38.240038","140.350896","0","3"
"06","山形県","06201","山形市","062010007002","あこや町二丁目","38.242310","140.352468","0","3"
"06","山形県","06201","山形市","062010007003","あこや町三丁目","38.240395","140.354958","0","3"
"06","山形県","06201","山形市","062010008000","旭が丘","38.227021","140.330550","0","1"
"06","山形県","06201","山形市","062010009000","あさひ町","38.243303","140.363634","0","1"
"06","山形県","06201","山形市","062010010000","あずま町","38.238828","140.337376","0","1"
"06","山形県","06201","山形市","062010011000","阿弥陀","38.250965","140.271179","0","1"
"06","山形県","06201","山形市","062010012001","荒楯町一丁目","38.233512","140.333223","0","3"
"06","山形県","06201","山形市","062010012002","荒楯町二丁目","38.231137","140.333144","0","3"
"06","山形県","06201","山形市","062010013000","飯沢","38.240955","140.302226","0","1"
"06","山形県","06201","山形市","062010014001","飯田一丁目","38.216253","140.324533","0","3"
"06","山形県","06201","山形市","062010014002","飯田二丁目","38.216442","140.327945","0","3"
"06","山形県","06201","山形市","062010014003","飯田三丁目","38.213973","140.330905","0","3"
"06","山形県","06201","山形市","062010014004","飯田四丁目","38.213849","140.326862","0","3"
"06","山形県","06201","山形市","062010014005","飯田五丁目","38.211435","140.325220","0","3"
"06","山形県","06201","山形市","062010015001","飯田西一丁目","38.216726","140.322626","0","3"
"06","山形県","06201","山形市","062010015002","飯田西二丁目","38.215582","140.318019","0","3"
"06","山形県","06201","山形市","062010015003","飯田西三丁目","38.212867","140.317382","0","3"
"06","山形県","06201","山形市","062010015004","飯田西四丁目","38.213296","140.320837","0","3"
"06","山形県","06201","山形市","062010015005","飯田西五丁目","38.211747","140.321342","0","3"
"06","山形県","06201","山形市","062010016000","飯塚口","38.257641","140.303537","0","1"
"06","山形県","06201","山形市","062010017000","石関","38.252847","140.305489","0","1"
"06","山形県","06201","山形市","062010018000","石寺","38.228057","140.285808","0","1"
"06","山形県","06201","山形市","062010019001","五十鈴一丁目","38.271661","140.353291","0","3"
"06","山形県","06201","山形市","062010019002","五十鈴二丁目","38.273776","140.354458","0","3"
"06","山形県","06201","山形市","062010019003","五十鈴三丁目","38.276069","140.355874","0","3"
"06","山形県","06201","山形市","062010020000","泉町","38.274231","140.345019","0","1"
"06","山形県","06201","山形市","062010021000","五日町","38.244882","140.323463","0","1"
"06","山形県","06201","山形市","062010022000","鋳物町","38.232243","140.288790","0","1"
"06","山形県","06201","山形市","062010023001","印役町一丁目","38.263459","140.349619","0","3"
"06","山形県","06201","山形市","062010023002","印役町二丁目","38.263595","140.353200","0","3"
"06","山形県","06201","山形市","062010023003","印役町三丁目","38.265184","140.351542","0","3"
"06","山形県","06201","山形市","062010023004","印役町四丁目","38.267624","140.351910","0","3"
"06","山形県","06201","山形市","062010023005","印役町五丁目","38.268321","140.347729","0","3"
"06","山形県","06201","山形市","062010024000","内表東","38.292127","140.305905","0","1"
"06","山形県","06201","山形市","062010025000","内城","38.267400","140.268717","0","1"
"06","山形県","06201","山形市","062010026000","馬洗場","38.310451","140.312794","0","1"
"06","山形県","06201","山形市","062010027000","梅野木前","38.282696","140.312931","0","1"
"06","山形県","06201","山形市","062010028000","上江","38.274457","140.286008","0","1"
"06","山形県","06201","山形市","062010029001","上町一丁目","38.242691","140.320654","0","3"
"06","山形県","06201","山形市","062010029002","上町二丁目","38.245375","140.319388","0","3"
"06","山形県","06201","山形市","062010029003","上町三丁目","38.242070","140.316703","0","3"
"06","山形県","06201","山形市","062010029004","上町四丁目","38.244274","140.314332","0","3"
"06","山形県","06201","山形市","062010029005","上町五丁目","38.241571","140.313334","0","3"
"06","山形県","06201","山形市","062010030001","江俣一丁目","38.274316","140.323403","0","3"
"06","山形県","06201","山形市","062010030002","江俣二丁目","38.278095","140.323108","0","3"
"06","山形県","06201","山形市","062010030003","江俣三丁目","38.275204","140.320199","0","3"
"06","山形県","06201","山形市","062010030004","江俣四丁目","38.276889","140.316847","0","3"
"06","山形県","06201","山形市","062010030005","江俣五丁目","38.278922","140.313606","0","3"
"06","山形県","06201","山形市","062010031000","円応寺町","38.267026","140.344137","0","1"
"06","山形県","06201","山形市","062010032000","追散","38.269749","140.302154","0","1"
"06","山形県","06201","山形市","062010033000","大字青野","38.284609","140.382142","0","1"
"06","山形県","06201","山形市","062010034000","大字青柳","38.299448","140.351406","0","1"
"06","山形県","06201","山形市","062010035000","大字今塚","38.291894","140.323970","0","1"
"06","山形県","06201","山形市","062010036000","大字岩波","38.211356","140.357264","0","1"
"06","山形県","06201","山形市","062010037000","大字内表","38.294926","140.296223","0","1"
"06","山形県","06201","山形市","062010038000","大字江俣","38.288303","140.311736","0","1"
"06","山形県","06201","山形市","062010039000","大字大森","38.308732","140.395661","0","1"
"06","山形県","06201","山形市","062010040000","大字風間","38.295527","140.381874","0","1"
"06","山形県","06201","山形市","062010041000","大字柏倉","38.221614","140.232111","0","1"
"06","山形県","06201","山形市","062010042000","大字片谷地","38.213210","140.304964","0","1"
"06","山形県","06201","山形市","062010043000","大字上椹沢","38.265090","140.296033","0","1"
"06","山形県","06201","山形市","062010044000","大字上桜田","38.216968","140.348279","0","1"
"06","山形県","06201","山形市","062010045000","大字上反田","38.269387","140.256185","0","1"
"06","山形県","06201","山形市","062010046000","大字上東山","38.282926","140.432696","0","1"
"06","山形県","06201","山形市","062010047000","大字上宝沢","38.212072","140.420690","0","1"
"06","山形県","06201","山形市","062010048000","大字神尾","38.191511","140.367854","0","1"
"06","山形県","06201","山形市","062010049000","大字切畑","38.281604","140.400441","0","1"
"06","山形県","06201","山形市","062010050000","大字黒沢","38.191542","140.302004","0","1"
"06","山形県","06201","山形市","062010051000","大字下東山","38.297457","140.412232","0","1"
"06","山形県","06201","山形市","062010052000","大字下宝沢","38.231790","140.401100","0","1"
"06","山形県","06201","山形市","062010053000","大字釈迦堂","38.240127","140.385814","0","1"
"06","山形県","06201","山形市","062010054000","大字十文字","38.309579","140.373946","0","1"
"06","山形県","06201","山形市","062010055000","大字常明寺","38.266185","140.245765","0","1"
"06","山形県","06201","山形市","062010056000","大字陣場","38.282679","140.303854","0","1"
"06","山形県","06201","山形市","062010057000","大字陣場新田","38.282854","140.298328","0","1"
"06","山形県","06201","山形市","062010058000","大字菅沢","38.225443","140.272772","0","1"
"06","山形県","06201","山形市","062010059000","大字鮨洗","38.291153","140.282324","0","1"
"06","山形県","06201","山形市","062010060000","大字関沢","38.219552","140.454969","0","1"
"06","山形県","06201","山形市","062010061000","大字高沢","38.257437","140.441562","0","1"
"06","山形県","06201","山形市","062010062000","大字滝平","38.267906","140.222431","0","1"
"06","山形県","06201","山形市","062010063000","大字津金沢","38.204067","140.290669","0","1"
"06","山形県","06201","山形市","062010064000","大字土坂","38.202836","140.382413","0","1"
"06","山形県","06201","山形市","062010065000","大字中桜田","38.210506","140.342288","0","1"
"06","山形県","06201","山形市","062010066000","大字中里","38.302105","140.383865","0","1"
"06","山形県","06201","山形市","062010067000","大字中野","38.307506","140.306733","0","1"
"06","山形県","06201","山形市","062010068000","大字中野目","38.332889","140.311796","0","1"
"06","山形県","06201","山形市","062010069000","大字七浦","38.303221","140.339276","0","1"
"06","山形県","06201","山形市","062010070000","大字滑川","38.242188","140.407245","0","1"
"06","山形県","06201","山形市","062010071000","大字成安","38.318395","140.316989","0","1"
"06","山形県","06201","山形市","062010072000","大字二位田","38.222092","140.287115","0","1"
"06","山形県","06201","山形市","062010073000","大字新山","38.230241","140.425661","0","1"
"06","山形県","06201","山形市","062010074000","大字西中野","38.300421","140.299268","0","1"
"06","山形県","06201","山形市","062010075000","大字沼木","38.246405","140.290597","0","1"
"06","山形県","06201","山形市","062010076000","大字灰塚","38.329213","140.321558","0","1"
"06","山形県","06201","山形市","062010077000","大字長谷堂","38.197865","140.262624","0","1"
"06","山形県","06201","山形市","062010078000","大字八森","38.212684","140.384187","0","1"
"06","山形県","06201","山形市","062010079000","大字平清水","38.228120","140.371488","0","1"
"06","山形県","06201","山形市","062010080000","大字船町","38.309414","140.290169","0","1"
"06","山形県","06201","山形市","062010081000","大字古館","38.263651","140.261576","0","1"
"06","山形県","06201","山形市","062010082000","大字前明石","38.230900","140.299658","0","1"
"06","山形県","06201","山形市","062010083000","大字松原","38.198056","140.295032","0","1"
"06","山形県","06201","山形市","062010084000","大字見崎","38.299854","140.320545","0","1"
"06","山形県","06201","山形市","062010085000","大字南館","38.234244","140.298705","0","1"
"06","山形県","06201","山形市","062010086000","大字妙見寺","38.236560","140.376621","0","1"
"06","山形県","06201","山形市","062010087000","大字向新田","38.313681","140.290095","0","1"
"06","山形県","06201","山形市","062010088000","大字村木沢","38.248809","140.228903","0","1"
"06","山形県","06201","山形市","062010089000","大字門伝","38.231639","140.216171","0","1"
"06","山形県","06201","山形市","062010090000","大字谷柏","38.217657","140.295434","0","1"
"06","山形県","06201","山形市","062010091000","大字山寺","38.309795","140.456248","0","1"
"06","山形県","06201","山形市","062010092000","大字芳沢","38.260373","140.226524","0","1"
"06","山形県","06201","山形市","062010093000","大字吉野宿","38.286116","140.291759","0","1"
"06","山形県","06201","山形市","062010094000","大字吉原","38.227328","140.303314","0","1"
"06","山形県","06201","山形市","062010095000","大字若木","38.262220","140.254126","0","1"
"06","山形県","06201","山形市","062010096000","大手町","38.256605","140.333623","0","1"
"06","山形県","06201","山形市","062010097000","大道端","38.242988","140.274468","0","1"
"06","山形県","06201","山形市","062010098000","沖町","38.289460","140.328563","0","1"
"06","山形県","06201","山形市","062010099001","小立一丁目","38.228608","140.339998","0","3"
"06","山形県","06201","山形市","062010099002","小立二丁目","38.229786","140.342762","0","3"
"06","山形県","06201","山形市","062010099003","小立三丁目","38.228239","140.344046","0","3"
"06","山形県","06201","山形市","062010099004","小立四丁目","38.226136","140.345912","0","3"
"06","山形県","06201","山形市","062010100000","落合町","38.282211","140.348911","0","1"
"06","山形県","06201","山形市","062010101000","御手作","38.219958","140.277188","0","1"
"06","山形県","06201","山形市","062010102000","表蔵王","38.189240","140.312742","0","1"
"06","山形県","06201","山形市","062010103000","替所","38.263563","140.268320","0","1"
"06","山形県","06201","山形市","062010104001","篭田一丁目","38.240152","140.321344","0","3"
"06","山形県","06201","山形市","062010104002","篭田二丁目","38.237471","140.320116","0","3"
"06","山形県","06201","山形市","062010104003","篭田三丁目","38.237778","140.317742","0","3"
"06","山形県","06201","山形市","062010105000","霞城町","38.255488","140.328125","0","1"
"06","山形県","06201","山形市","062010106000","春日町","38.252708","140.319179","0","1"
"06","山形県","06201","山形市","062010107001","香澄町一丁目","38.249424","140.329646","0","3"
"06","山形県","06201","山形市","062010107002","香澄町二丁目","38.248620","140.332306","0","3"
"06","山形県","06201","山形市","062010107003","香澄町三丁目","38.245563","140.330707","0","3"
"06","山形県","06201","山形市","062010108000","金石田","38.266821","140.292011","0","1"
"06","山形県","06201","山形市","062010109001","上桜田一丁目","38.223190","140.342472","0","3"
"06","山形県","06201","山形市","062010109002","上桜田二丁目","38.222785","140.344670","0","3"
"06","山形県","06201","山形市","062010109003","上桜田三丁目","38.219843","140.345736","0","3"
"06","山形県","06201","山形市","062010109004","上桜田四丁目","38.219061","140.342424","0","3"
"06","山形県","06201","山形市","062010109005","上桜田五丁目","38.219354","140.339780","0","3"
"06","山形県","06201","山形市","062010110000","上柳","38.295318","140.347092","0","1"
"06","山形県","06201","山形市","062010111000","上山家町","38.258505","140.388982","0","1"
"06","山形県","06201","山形市","062010112000","北江俣","38.283815","140.308922","0","1"
"06","山形県","06201","山形市","062010113000","北志戸田","38.283681","140.284755","0","1"
"06","山形県","06201","山形市","062010114000","北田","38.308750","140.305882","0","1"
"06","山形県","06201","山形市","062010115001","北町一丁目","38.268239","140.331471","0","3"
"06","山形県","06201","山形市","062010115002","北町二丁目","38.269411","140.329065","0","3"
"06","山形県","06201","山形市","062010115003","北町三丁目","38.272827","140.327073","0","3"
"06","山形県","06201","山形市","062010115004","北町四丁目","38.272651","140.332697","0","3"
"06","山形県","06201","山形市","062010116001","北山形一丁目","38.263301","140.330788","0","3"
"06","山形県","06201","山形市","062010116002","北山形二丁目","38.265860","140.329484","0","3"
"06","山形県","06201","山形市","062010117000","木の実町","38.252108","140.334211","0","1"
"06","山形県","06201","山形市","062010118000","木ノ目田","38.251230","140.289837","0","1"
"06","山形県","06201","山形市","062010119000","行才","38.288162","140.308184","0","1"
"06","山形県","06201","山形市","062010120000","京旦","38.228328","140.300780","0","1"
"06","山形県","06201","山形市","062010121001","清住町一丁目","38.254848","140.316938","0","3"
"06","山形県","06201","山形市","062010121002","清住町二丁目","38.256309","140.313066","0","3"
"06","山形県","06201","山形市","062010121003","清住町三丁目","38.252824","140.313890","0","3"
"06","山形県","06201","山形市","062010122001","久保田一丁目","38.248700","140.318290","0","3"
"06","山形県","06201","山形市","062010122002","久保田二丁目","38.249628","140.315387","0","3"
"06","山形県","06201","山形市","062010122003","久保田三丁目","38.246350","140.315424","0","3"
"06","山形県","06201","山形市","062010123001","江南一丁目","38.269962","140.321062","0","3"
"06","山形県","06201","山形市","062010123002","江南二丁目","38.271736","140.321403","0","3"
"06","山形県","06201","山形市","062010123003","江南三丁目","38.272484","140.316237","0","3"
"06","山形県","06201","山形市","062010123004","江南四丁目","38.273981","140.312477","0","3"
"06","山形県","06201","山形市","062010124000","黄金","38.265089","140.303517","0","1"
"06","山形県","06201","山形市","062010125000","小姓町","38.247219","140.341309","0","1"
"06","山形県","06201","山形市","062010126000","小白川町","38.249103","140.367713","0","1"
"06","山形県","06201","山形市","062010127001","小白川町一丁目","38.246206","140.350657","0","3"
"06","山形県","06201","山形市","062010127002","小白川町二丁目","38.249212","140.351846","0","3"
"06","山形県","06201","山形市","062010127003","小白川町三丁目","38.247622","140.357991","0","3"
"06","山形県","06201","山形市","062010127004","小白川町四丁目","38.245027","140.357429","0","3"
"06","山形県","06201","山形市","062010127005","小白川町五丁目","38.245088","140.367720","0","3"
"06","山形県","06201","山形市","062010128000","寿町","38.235304","140.338131","0","1"
"06","山形県","06201","山形市","062010129000","小荷駄町","38.239457","140.340888","0","1"
"06","山形県","06201","山形市","062010130000","後明","38.271398","140.256777","0","1"
"06","山形県","06201","山形市","062010131000","こも石","38.296182","140.390534","0","1"
"06","山形県","06201","山形市","062010132000","才津","38.246356","140.270125","0","1"
"06","山形県","06201","山形市","062010133000","幸町","38.245434","140.327414","0","1"
"06","山形県","06201","山形市","062010134000","蔵王飯田","38.209064","140.332877","0","1"
"06","山形県","06201","山形市","062010135000","蔵王上野","38.175729","140.330987","0","1"
"06","山形県","06201","山形市","062010136000","蔵王温泉","38.174319","140.417910","0","1"
"06","山形県","06201","山形市","062010137000","蔵王成沢","38.200878","140.328794","0","1"
"06","山形県","06201","山形市","062010138000","蔵王野際","38.198376","140.327525","0","1"
"06","山形県","06201","山形市","062010139000","蔵王半郷","38.187585","140.325260","0","1"
"06","山形県","06201","山形市","062010140000","蔵王堀田","38.172013","140.353699","0","1"
"06","山形県","06201","山形市","062010141000","蔵王松ケ丘","38.196370","140.309506","0","1"
"06","山形県","06201","山形市","062010142001","蔵王松ケ丘一丁目","38.199430","140.312665","0","3"
"06","山形県","06201","山形市","062010142002","蔵王松ケ丘二丁目","38.191095","140.308800","0","3"
"06","山形県","06201","山形市","062010143000","蔵王南成沢","38.196714","140.315930","0","1"
"06","山形県","06201","山形市","062010144000","蔵王美原","38.198763","140.310476","0","1"
"06","山形県","06201","山形市","062010145000","蔵王山田","38.191007","140.332070","0","1"
"06","山形県","06201","山形市","062010146000","早乙女","38.276835","140.362241","0","1"
"06","山形県","06201","山形市","062010147000","境田町","38.297551","140.329975","0","1"
"06","山形県","06201","山形市","062010148000","栄原","38.289743","140.345511","0","1"
"06","山形県","06201","山形市","062010149000","肴町","38.261749","140.330151","0","1"
"06","山形県","06201","山形市","062010150000","桜ケ丘","38.252559","140.263091","0","1"
"06","山形県","06201","山形市","062010151000","佐倉宿","38.231790","140.278769","0","1"
"06","山形県","06201","山形市","062010152001","桜田西一丁目","38.221296","140.317034","0","3"
"06","山形県","06201","山形市","062010152002","桜田西二丁目","38.219551","140.316966","0","3"
"06","山形県","06201","山形市","062010152003","桜田西三丁目","38.220678","140.313475","0","3"
"06","山形県","06201","山形市","062010152004","桜田西四丁目","38.218057","140.315218","0","3"
"06","山形県","06201","山形市","062010152005","桜田西五丁目","38.222102","140.309588","0","3"
"06","山形県","06201","山形市","062010153001","桜田東一丁目","38.220715","140.320781","0","3"
"06","山形県","06201","山形市","062010153002","桜田東二丁目","38.220821","140.323190","0","3"
"06","山形県","06201","山形市","062010153003","桜田東三丁目","38.217925","140.321652","0","3"
"06","山形県","06201","山形市","062010153004","桜田東四丁目","38.219046","140.325523","0","3"
"06","山形県","06201","山形市","062010154000","桜田南","38.215621","140.312947","0","1"
"06","山形県","06201","山形市","062010155000","桜町","38.252826","140.331422","0","1"
"06","山形県","06201","山形市","062010156000","三社","38.315593","140.303014","0","1"
"06","山形県","06201","山形市","062010157000","島","38.287546","140.314883","0","1"
"06","山形県","06201","山形市","062010158001","嶋北一丁目","38.286195","140.322981","0","3"
"06","山形県","06201","山形市","062010158002","嶋北二丁目","38.286550","140.319665","0","3"
"06","山形県","06201","山形市","062010158003","嶋北三丁目","38.289987","140.321881","0","3"
"06","山形県","06201","山形市","062010158004","嶋北四丁目","38.287421","140.317808","0","3"
"06","山形県","06201","山形市","062010159001","嶋南一丁目","38.280566","140.322586","0","3"
"06","山形県","06201","山形市","062010159002","嶋南二丁目","38.280663","140.319607","0","3"
"06","山形県","06201","山形市","062010159003","嶋南三丁目","38.281244","140.317083","0","3"
"06","山形県","06201","山形市","062010159004","嶋南四丁目","38.281864","140.315077","0","3"
"06","山形県","06201","山形市","062010160001","下条町一丁目","38.263117","140.326888","0","3"
"06","山形県","06201","山形市","062010160002","下条町二丁目","38.262425","140.322957","0","3"
"06","山形県","06201","山形市","062010160003","下条町三丁目","38.267021","140.322720","0","3"
"06","山形県","06201","山形市","062010160004","下条町四丁目","38.266032","140.325989","0","3"
"06","山形県","06201","山形市","062010160005","下条町五丁目","38.269912","140.325916","0","3"
"06","山形県","06201","山形市","062010161000","下田","38.324928","140.307694","0","1"
"06","山形県","06201","山形市","062010162000","下柳","38.291768","140.349570","0","1"
"06","山形県","06201","山形市","062010163001","城南町一丁目","38.250868","140.326111","0","3"
"06","山形県","06201","山形市","062010163002","城南町二丁目","38.252367","140.326661","0","3"
"06","山形県","06201","山形市","062010163003","城南町三丁目","38.251646","140.321894","0","3"
"06","山形県","06201","山形市","062010164001","城北町一丁目","38.258444","140.330236","0","3"
"06","山形県","06201","山形市","062010164002","城北町二丁目","38.259942","140.329530","0","3"
"06","山形県","06201","山形市","062010165000","白川","38.316041","140.309655","0","1"
"06","山形県","06201","山形市","062010166001","城西町一丁目","38.255978","140.324077","0","3"
"06","山形県","06201","山形市","062010166002","城西町二丁目","38.255339","140.321802","0","3"
"06","山形県","06201","山形市","062010166003","城西町三丁目","38.256958","140.318010","0","3"
"06","山形県","06201","山形市","062010166004","城西町四丁目","38.259560","140.321120","0","3"
"06","山形県","06201","山形市","062010166005","城西町五丁目","38.260599","140.314076","0","3"
"06","山形県","06201","山形市","062010167000","城森","38.241588","140.260748","0","1"
"06","山形県","06201","山形市","062010168001","新開一丁目","38.303116","140.360104","0","3"
"06","山形県","06201","山形市","062010168002","新開二丁目","38.305332","140.361643","0","3"
"06","山形県","06201","山形市","062010168003","新開三丁目","38.305766","140.358501","0","3"
"06","山形県","06201","山形市","062010169001","陣場一丁目","38.277246","140.310530","0","3"
"06","山形県","06201","山形市","062010169002","陣場二丁目","38.277256","140.305696","0","3"
"06","山形県","06201","山形市","062010169003","陣場三丁目","38.278696","140.302420","0","3"
"06","山形県","06201","山形市","062010170000","陣場南","38.275084","140.309003","0","1"
"06","山形県","06201","山形市","062010171000","末広町","38.238822","140.323821","0","1"
"06","山形県","06201","山形市","062010172000","菅原","38.271976","140.310365","0","1"
"06","山形県","06201","山形市","062010173000","すげさわの丘","38.223582","140.268615","0","1"
"06","山形県","06201","山形市","062010174001","鈴川町一丁目","38.263651","140.355497","0","3"
"06","山形県","06201","山形市","062010174002","鈴川町二丁目","38.267000","140.355760","0","3"
"06","山形県","06201","山形市","062010174003","鈴川町三丁目","38.270301","140.357426","0","3"
"06","山形県","06201","山形市","062010174004","鈴川町四丁目","38.269985","140.360401","0","3"
"06","山形県","06201","山形市","062010175000","砂田","38.259733","140.291433","0","1"
"06","山形県","06201","山形市","062010176000","砂塚","38.259898","140.307581","0","1"
"06","山形県","06201","山形市","062010177001","諏訪町一丁目","38.245200","140.339655","0","3"
"06","山形県","06201","山形市","062010177002","諏訪町二丁目","38.244006","140.339344","0","3"
"06","山形県","06201","山形市","062010178001","瀬波一丁目","38.280662","140.309167","0","3"
"06","山形県","06201","山形市","062010178002","瀬波二丁目","38.279933","140.306421","0","3"
"06","山形県","06201","山形市","062010178003","瀬波三丁目","38.283440","140.307125","0","3"
"06","山形県","06201","山形市","062010179000","千石","38.293529","140.362716","0","1"
"06","山形県","06201","山形市","062010180000","双月新町","38.256309","140.362054","0","1"
"06","山形県","06201","山形市","062010181000","双月町","38.254023","140.364237","0","1"
"06","山形県","06201","山形市","062010182001","双月町一丁目","38.258885","140.353090","0","3"
"06","山形県","06201","山形市","062010182002","双月町二丁目","38.260993","140.353813","0","3"
"06","山形県","06201","山形市","062010182003","双月町三丁目","38.258162","140.356609","0","3"
"06","山形県","06201","山形市","062010182004","双月町四丁目","38.254958","140.354301","0","3"
"06","山形県","06201","山形市","062010183000","反町","38.246127","140.265796","0","1"
"06","山形県","06201","山形市","062010184000","大師堂","38.218787","140.271733","0","1"
"06","山形県","06201","山形市","062010185001","大野目一丁目","38.274898","140.358730","0","3"
"06","山形県","06201","山形市","062010185002","大野目二丁目","38.278672","140.357475","0","3"
"06","山形県","06201","山形市","062010185003","大野目三丁目","38.281709","140.358860","0","3"
"06","山形県","06201","山形市","062010185004","大野目四丁目","38.280690","140.360293","0","3"
"06","山形県","06201","山形市","062010186000","大野目町","38.286023","140.356814","0","1"
"06","山形県","06201","山形市","062010187000","高木","38.233440","140.284776","0","1"
"06","山形県","06201","山形市","062010188000","高田","38.307174","140.320447","0","1"
"06","山形県","06201","山形市","062010189000","高堂","38.240533","140.310357","0","1"
"06","山形県","06201","山形市","062010190001","高堂一丁目","38.238647","140.310713","0","3"
"06","山形県","06201","山形市","062010190002","高堂二丁目","38.239148","140.307474","0","3"
"06","山形県","06201","山形市","062010191000","高原町","38.275453","140.372357","0","1"
"06","山形県","06201","山形市","062010192001","立谷川一丁目","38.312286","140.384144","0","3"
"06","山形県","06201","山形市","062010192002","立谷川二丁目","38.313150","140.379885","0","3"
"06","山形県","06201","山形市","062010192003","立谷川三丁目","38.313088","140.373478","0","3"
"06","山形県","06201","山形市","062010193001","伊達城一丁目","38.309037","140.362094","0","3"
"06","山形県","06201","山形市","062010193002","伊達城二丁目","38.308289","140.358577","0","3"
"06","山形県","06201","山形市","062010193003","伊達城三丁目","38.310744","140.359352","0","3"
"06","山形県","06201","山形市","062010194000","立道","38.274235","140.304233","0","1"
"06","山形県","06201","山形市","062010195000","田吹","38.235034","140.277319","0","1"
"06","山形県","06201","山形市","062010196000","檀野前","38.296439","140.321960","0","1"
"06","山形県","06201","山形市","062010197000","近田","38.289227","140.365850","0","1"
"06","山形県","06201","山形市","062010198001","千歳一丁目","38.279793","140.338724","0","3"
"06","山形県","06201","山形市","062010198002","千歳二丁目","38.281198","140.341958","0","3"
"06","山形県","06201","山形市","062010199000","千代田","38.262160","140.300622","0","1"
"06","山形県","06201","山形市","062010200000","塚野目","38.312481","140.307600","0","1"
"06","山形県","06201","山形市","062010201000","辻","38.255765","140.270685","0","1"
"06","山形県","06201","山形市","062010202000","土屋倉","38.267735","140.262429","0","1"
"06","山形県","06201","山形市","062010203001","鉄砲町一丁目","38.238667","140.329544","0","3"
"06","山形県","06201","山形市","062010203002","鉄砲町二丁目","38.237824","140.333554","0","3"
"06","山形県","06201","山形市","062010203003","鉄砲町三丁目","38.235200","140.329090","0","3"
"06","山形県","06201","山形市","062010204000","寺西","38.296654","140.363929","0","1"
"06","山形県","06201","山形市","062010205000","天神台","38.269348","140.290654","0","1"
"06","山形県","06201","山形市","062010206000","天神町","38.307593","140.326033","0","1"
"06","山形県","06201","山形市","062010207001","十日町一丁目","38.247795","140.334797","0","3"
"06","山形県","06201","山形市","062010207002","十日町二丁目","38.247022","140.337241","0","3"
"06","山形県","06201","山形市","062010207003","十日町三丁目","38.243905","140.335497","0","3"
"06","山形県","06201","山形市","062010207004","十日町四丁目","38.244364","140.333028","0","3"
"06","山形県","06201","山形市","062010208000","藤治屋敷","38.306198","140.314314","0","1"
"06","山形県","06201","山形市","062010209000","塔の前","38.284139","140.367794","0","1"
"06","山形県","06201","山形市","062010210001","銅町一丁目","38.273645","140.338238","0","3"
"06","山形県","06201","山形市","062010210002","銅町二丁目","38.272225","140.341686","0","3"
"06","山形県","06201","山形市","062010211000","銅谷口","38.295643","140.309365","0","1"
"06","山形県","06201","山形市","062010212000","富神台","38.239068","140.281054","0","1"
"06","山形県","06201","山形市","062010213000","富神前","38.236155","140.262290","0","1"
"06","山形県","06201","山形市","062010214001","富の中一丁目","38.236896","140.303943","0","3"
"06","山形県","06201","山形市","062010214002","富の中二丁目","38.234193","140.303896","0","3"
"06","山形県","06201","山形市","062010214003","富の中三丁目","38.233950","140.307547","0","3"
"06","山形県","06201","山形市","062010214004","富の中四丁目","38.231730","140.307093","0","3"
"06","山形県","06201","山形市","062010215000","百目鬼","38.225247","140.277876","0","1"
"06","山形県","06201","山形市","062010216000","豊風","38.297100","140.373335","0","1"
"06","山形県","06201","山形市","062010217000","樋越","38.287037","140.326371","0","1"
"06","山形県","06201","山形市","062010218000","豊原","38.267788","140.308881","0","1"
"06","山形県","06201","山形市","062010219000","鳥居ケ丘","38.229342","140.333037","0","1"
"06","山形県","06201","山形市","062010220000","中江","38.277280","140.287326","0","1"
"06","山形県","06201","山形市","062010221000","長表","38.294931","140.319843","0","1"
"06","山形県","06201","山形市","062010222001","中桜田一丁目","38.218685","140.330910","0","3"
"06","山形県","06201","山形市","062010222002","中桜田二丁目","38.217816","140.335200","0","3"
"06","山形県","06201","山形市","062010222003","中桜田三丁目","38.215095","140.334403","0","3"
"06","山形県","06201","山形市","062010223000","中田","38.319983","140.311358","0","1"
"06","山形県","06201","山形市","062010224000","長苗代","38.245608","140.303507","0","1"
"06","山形県","06201","山形市","062010225000","中沼","38.250723","140.296587","0","1"
"06","山形県","06201","山形市","062010226000","長町","38.292330","140.332826","0","1"
"06","山形県","06201","山形市","062010227001","長町一丁目","38.286857","140.338407","0","3"
"06","山形県","06201","山形市","062010227002","長町二丁目","38.287869","140.340866","0","3"
"06","山形県","06201","山形市","062010227003","長町三丁目","38.293016","140.340001","0","3"
"06","山形県","06201","山形市","062010227004","長町四丁目","38.294079","140.337026","0","3"
"06","山形県","06201","山形市","062010228000","中道","38.300622","140.323142","0","1"
"06","山形県","06201","山形市","062010229000","中屋敷","38.238323","140.275768","0","1"
"06","山形県","06201","山形市","062010230000","七十刈","38.298104","140.321145","0","1"
"06","山形県","06201","山形市","062010231001","七日町一丁目","38.253090","140.337767","0","3"
"06","山形県","06201","山形市","062010231002","七日町二丁目","38.252397","140.340123","0","3"
"06","山形県","06201","山形市","062010231003","七日町三丁目","38.254591","140.341333","0","3"
"06","山形県","06201","山形市","062010231004","七日町四丁目","38.253138","140.344142","0","3"
"06","山形県","06201","山形市","062010231005","七日町五丁目","38.249966","140.342866","0","3"
"06","山形県","06201","山形市","062010232000","並柳","38.263395","140.257153","0","1"
"06","山形県","06201","山形市","062010233001","成沢西一丁目","38.211176","140.316023","0","3"
"06","山形県","06201","山形市","062010233002","成沢西二丁目","38.210668","140.312784","0","3"
"06","山形県","06201","山形市","062010233003","成沢西三丁目","38.207707","140.313623","0","3"
"06","山形県","06201","山形市","062010233004","成沢西四丁目","38.206465","140.317568","0","3"
"06","山形県","06201","山形市","062010233005","成沢西五丁目","38.208467","140.319462","0","3"
"06","山形県","06201","山形市","062010234001","南栄町一丁目","38.234411","140.321539","0","3"
"06","山形県","06201","山形市","062010234002","南栄町二丁目","38.231864","140.320662","0","3"
"06","山形県","06201","山形市","062010234003","南栄町三丁目","38.229378","140.320889","0","3"
"06","山形県","06201","山形市","062010235000","西江俣","38.276603","140.313216","0","1"
"06","山形県","06201","山形市","062010236000","錦町","38.260132","140.334671","0","1"
"06","山形県","06201","山形市","062010237000","西越","38.289771","140.362428","0","1"
"06","山形県","06201","山形市","062010238000","西崎","38.262542","140.306992","0","1"
"06","山形県","06201","山形市","062010239001","西田一丁目","38.263144","140.318889","0","3"
"06","山形県","06201","山形市","062010239002","西田二丁目","38.264283","140.314331","0","3"
"06","山形県","06201","山形市","062010239003","西田三丁目","38.266691","140.314828","0","3"
"06","山形県","06201","山形市","062010239004","西田四丁目","38.267295","140.319185","0","3"
"06","山形県","06201","山形市","062010239005","西田五丁目","38.269757","140.315423","0","3"
"06","山形県","06201","山形市","062010240000","西二位田","38.223165","140.282901","0","1"
"06","山形県","06201","山形市","062010241000","西前明石","38.225005","140.296761","0","1"
"06","山形県","06201","山形市","062010242000","西見田","38.255298","140.288880","0","1"
"06","山形県","06201","山形市","062010243000","沼の辺町","38.263763","140.363817","0","1"
"06","山形県","06201","山形市","062010244000","馬合","38.309661","140.316803","0","1"
"06","山形県","06201","山形市","062010245001","白山一丁目","38.227774","140.318240","0","3"
"06","山形県","06201","山形市","062010245002","白山二丁目","38.224708","140.316864","0","3"
"06","山形県","06201","山形市","062010245003","白山三丁目","38.226683","140.322056","0","3"
"06","山形県","06201","山形市","062010246000","羽黒堂","38.245908","140.297014","0","1"
"06","山形県","06201","山形市","062010247001","旅篭町一丁目","38.255632","140.336241","0","3"
"06","山形県","06201","山形市","062010247002","旅篭町二丁目","38.255437","140.339126","0","3"
"06","山形県","06201","山形市","062010247003","旅篭町三丁目","38.257205","140.340605","0","3"
"06","山形県","06201","山形市","062010248000","八幡前","38.300659","140.312439","0","1"
"06","山形県","06201","山形市","062010249000","服部","38.301347","140.316335","0","1"
"06","山形県","06201","山形市","062010250000","花岡","38.293301","140.369463","0","1"
"06","山形県","06201","山形市","062010251001","花楯一丁目","38.270268","140.350918","0","3"
"06","山形県","06201","山形市","062010251002","花楯二丁目","38.274535","140.350716","0","3"
"06","山形県","06201","山形市","062010252000","浜崎","38.284782","140.358936","0","1"
"06","山形県","06201","山形市","062010253001","東青田一丁目","38.225489","140.337489","0","3"
"06","山形県","06201","山形市","062010253002","東青田二丁目","38.224441","140.340390","0","3"
"06","山形県","06201","山形市","062010253003","東青田三丁目","38.221393","140.338458","0","3"
"06","山形県","06201","山形市","062010253004","東青田四丁目","38.222787","140.335307","0","3"
"06","山形県","06201","山形市","062010253005","東青田五丁目","38.220511","140.333991","0","3"
"06","山形県","06201","山形市","062010254000","東篭野町","38.298975","140.304798","0","1"
"06","山形県","06201","山形市","062010255000","東黒沢","38.191410","140.305351","0","1"
"06","山形県","06201","山形市","062010256000","東志戸田","38.278483","140.293826","0","1"
"06","山形県","06201","山形市","062010257000","東二位田","38.220522","140.292067","0","1"
"06","山形県","06201","山形市","062010258001","東原町一丁目","38.248122","140.346242","0","3"
"06","山形県","06201","山形市","062010258002","東原町二丁目","38.245016","140.344632","0","3"
"06","山形県","06201","山形市","062010258003","東原町三丁目","38.242196","140.342836","0","3"
"06","山形県","06201","山形市","062010258004","東原町四丁目","38.242059","140.347059","0","3"
"06","山形県","06201","山形市","062010259000","東半郷","38.188761","140.322399","0","1"
"06","山形県","06201","山形市","062010260000","東古館","38.265007","140.274993","0","1"
"06","山形県","06201","山形市","062010261001","東山形一丁目","38.242040","140.372477","0","3"
"06","山形県","06201","山形市","062010261002","東山形二丁目","38.240606","140.374206","0","3"
"06","山形県","06201","山形市","062010262001","桧町一丁目","38.276341","140.336827","0","3"
"06","山形県","06201","山形市","062010262002","桧町二丁目","38.276459","140.332768","0","3"
"06","山形県","06201","山形市","062010262003","桧町三丁目","38.276566","140.329689","0","3"
"06","山形県","06201","山形市","062010262004","桧町四丁目","38.276568","140.326130","0","3"
"06","山形県","06201","山形市","062010263000","平久保","38.286624","140.353463","0","1"
"06","山形県","06201","山形市","062010264001","平清水一丁目","38.230946","140.346241","0","3"
"06","山形県","06201","山形市","062010264002","平清水二丁目","38.228726","140.348718","0","3"
"06","山形県","06201","山形市","062010265001","深町一丁目","38.235160","140.317202","0","3"
"06","山形県","06201","山形市","062010265002","深町二丁目","38.233721","140.316876","0","3"
"06","山形県","06201","山形市","062010265003","深町三丁目","38.231449","140.316072","0","3"
"06","山形県","06201","山形市","062010266000","藤沢川","38.261250","140.271044","0","1"
"06","山形県","06201","山形市","062010267000","舞台","38.256647","140.260985","0","1"
"06","山形県","06201","山形市","062010268001","双葉町一丁目","38.248220","140.325078","0","3"
"06","山形県","06201","山形市","062010268002","双葉町二丁目","38.248655","140.320910","0","3"
"06","山形県","06201","山形市","062010269000","平田","38.270977","140.286145","0","1"
"06","山形県","06201","山形市","062010270000","防原町","38.238820","140.392181","0","1"
"06","山形県","06201","山形市","062010271000","穂積","38.283533","140.364298","0","1"
"06","山形県","06201","山形市","062010272001","本町一丁目","38.250543","140.336267","0","3"
"06","山形県","06201","山形市","062010272002","本町二丁目","38.250209","140.339054","0","3"
"06","山形県","06201","山形市","062010273000","前田町","38.237109","140.349709","0","1"
"06","山形県","06201","山形市","062010274000","松栄","38.240462","140.296239","0","1"
"06","山形県","06201","山形市","062010275001","松栄一丁目","38.237688","140.295268","0","3"
"06","山形県","06201","山形市","062010275002","松栄二丁目","38.238745","140.290209","0","3"
"06","山形県","06201","山形市","062010276001","松波一丁目","38.238436","140.358597","0","3"
"06","山形県","06201","山形市","062010276002","松波二丁目","38.240797","140.361110","0","3"
"06","山形県","06201","山形市","062010276003","松波三丁目","38.241805","140.367820","0","3"
"06","山形県","06201","山形市","062010276004","松波四丁目","38.238877","140.366789","0","3"
"06","山形県","06201","山形市","062010276005","松波五丁目","38.237434","140.369933","0","3"
"06","山形県","06201","山形市","062010277000","松見町","38.230653","140.339161","0","1"
"06","山形県","06201","山形市","062010278001","松山一丁目","38.234110","140.346672","0","3"
"06","山形県","06201","山形市","062010278002","松山二丁目","38.233467","140.350422","0","3"
"06","山形県","06201","山形市","062010278003","松山三丁目","38.236728","140.353763","0","3"
"06","山形県","06201","山形市","062010279001","馬見ケ崎一丁目","38.281124","140.333973","0","3"
"06","山形県","06201","山形市","062010279002","馬見ケ崎二丁目","38.281238","140.329797","0","3"
"06","山形県","06201","山形市","062010279003","馬見ケ崎三丁目","38.281292","140.326218","0","3"
"06","山形県","06201","山形市","062010279004","馬見ケ崎四丁目","38.284555","140.327915","0","3"
"06","山形県","06201","山形市","062010280000","見崎川原","38.301440","140.331541","0","1"
"06","山形県","06201","山形市","062010281001","三日町一丁目","38.241280","140.336200","0","3"
"06","山形県","06201","山形市","062010281002","三日町二丁目","38.242841","140.338597","0","3"
"06","山形県","06201","山形市","062010282001","緑町一丁目","38.257173","140.345599","0","3"
"06","山形県","06201","山形市","062010282002","緑町二丁目","38.256565","140.349940","0","3"
"06","山形県","06201","山形市","062010282003","緑町三丁目","38.251525","140.347481","0","3"
"06","山形県","06201","山形市","062010282004","緑町四丁目","38.253041","140.351693","0","3"
"06","山形県","06201","山形市","062010283000","南一番町","38.233010","140.327798","0","1"
"06","山形県","06201","山形市","062010284000","南二番町","38.229554","140.326186","0","1"
"06","山形県","06201","山形市","062010285000","南三番町","38.231505","140.324281","0","1"
"06","山形県","06201","山形市","062010286000","南四番町","38.234016","140.324737","0","1"
"06","山形県","06201","山形市","062010287000","南石関","38.249911","140.304417","0","1"
"06","山形県","06201","山形市","062010288000","南志戸田","38.272257","140.293440","0","1"
"06","山形県","06201","山形市","062010289000","南反田","38.269091","140.274369","0","1"
"06","山形県","06201","山形市","062010290001","南館一丁目","38.238184","140.315751","0","3"
"06","山形県","06201","山形市","062010290002","南館二丁目","38.238356","140.313671","0","3"
"06","山形県","06201","山形市","062010290003","南館三丁目","38.234041","140.312963","0","3"
"06","山形県","06201","山形市","062010290004","南館四丁目","38.234821","140.310774","0","3"
"06","山形県","06201","山形市","062010290005","南館五丁目","38.236523","140.307968","0","3"
"06","山形県","06201","山形市","062010291000","南館西","38.237416","140.299291","0","1"
"06","山形県","06201","山形市","062010292001","南原町一丁目","38.238075","140.345611","0","3"
"06","山形県","06201","山形市","062010292002","南原町二丁目","38.235827","140.341694","0","3"
"06","山形県","06201","山形市","062010292003","南原町三丁目","38.232466","140.343099","0","3"
"06","山形県","06201","山形市","062010293000","南半郷","38.184794","140.317130","0","1"
"06","山形県","06201","山形市","062010294001","南松原一丁目","38.200128","140.308789","0","3"
"06","山形県","06201","山形市","062010294002","南松原二丁目","38.197651","140.307532","0","3"
"06","山形県","06201","山形市","062010295000","みのりが丘","38.248871","140.245471","0","1"
"06","山形県","06201","山形市","062010296000","美畑町","38.236540","140.323978","0","1"
"06","山形県","06201","山形市","062010297001","みはらしの丘一丁目","38.193731","140.292580","0","3"
"06","山形県","06201","山形市","062010297002","みはらしの丘二丁目","38.188963","140.293221","0","3"
"06","山形県","06201","山形市","062010297003","みはらしの丘三丁目","38.187870","140.286977","0","3"
"06","山形県","06201","山形市","062010297004","みはらしの丘四丁目","38.183262","140.289204","0","3"
"06","山形県","06201","山形市","062010297005","みはらしの丘五丁目","38.183928","140.292107","0","3"
"06","山形県","06201","山形市","062010298000","宮浦","38.258097","140.300481","0","1"
"06","山形県","06201","山形市","062010299001","宮町一丁目","38.264011","140.334833","0","3"
"06","山形県","06201","山形市","062010299002","宮町二丁目","38.267153","140.335164","0","3"
"06","山形県","06201","山形市","062010299003","宮町三丁目","38.270277","140.335966","0","3"
"06","山形県","06201","山形市","062010299004","宮町四丁目","38.267185","140.339854","0","3"
"06","山形県","06201","山形市","062010299005","宮町五丁目","38.262847","140.338703","0","3"
"06","山形県","06201","山形市","062010300000","明神前","38.243705","140.291092","0","1"
"06","山形県","06201","山形市","062010301000","六日町","38.258602","140.342109","0","1"
"06","山形県","06201","山形市","062010302001","元木一丁目","38.226071","140.325352","0","3"
"06","山形県","06201","山形市","062010302002","元木二丁目","38.223969","140.322905","0","3"
"06","山形県","06201","山形市","062010302003","元木三丁目","38.223505","140.317166","0","3"
"06","山形県","06201","山形市","062010303000","本屋敷","38.291736","140.318233","0","1"
"06","山形県","06201","山形市","062010304000","門前","38.215659","140.269125","0","1"
"06","山形県","06201","山形市","062010305001","薬師町一丁目","38.262376","140.342347","0","3"
"06","山形県","06201","山形市","062010305002","薬師町二丁目","38.262702","140.346351","0","3"
"06","山形県","06201","山形市","062010306000","谷地前","38.211689","140.268188","0","1"
"06","山形県","06201","山形市","062010307000","八ツ口","38.294339","140.315315","0","1"
"06","山形県","06201","山形市","062010308000","柳田","38.262619","140.284073","0","1"
"06","山形県","06201","山形市","062010309001","やよい一丁目","38.253498","140.308160","0","3"
"06","山形県","06201","山形市","062010309002","やよい二丁目","38.256167","140.309023","0","3"
"06","山形県","06201","山形市","062010310001","山家本町一丁目","38.264065","140.366165","0","3"
"06","山形県","06201","山形市","062010310002","山家本町二丁目","38.265540","140.365864","0","3"
"06","山形県","06201","山形市","062010311001","山家町一丁目","38.265055","140.358647","0","3"
"06","山形県","06201","山形市","062010311002","山家町二丁目","38.264442","140.360621","0","3"
"06","山形県","06201","山形市","062010312001","八日町一丁目","38.243466","140.329711","0","3"
"06","山形県","06201","山形市","062010312002","八日町二丁目","38.241588","140.329995","0","3"
"06","山形県","06201","山形市","062010313000","横井","38.282190","140.290232","0","1"
"06","山形県","06201","山形市","062010314000","横道","38.254512","140.296202","0","1"
"06","山形県","06201","山形市","062010315000","芳野","38.280209","140.355381","0","1"
"06","山形県","06201","山形市","062010316001","吉原一丁目","38.229395","140.315313","0","3"
"06","山形県","06201","山形市","062010316002","吉原二丁目","38.229754","140.311213","0","3"
"06","山形県","06201","山形市","062010316003","吉原三丁目","38.230074","140.306605","0","3"
"06","山形県","06201","山形市","062010317000","吉原南","38.222699","140.311374","0","1"
"06","山形県","06201","山形市","062010318001","流通センター一丁目","38.291565","140.352249","0","3"
"06","山形県","06201","山形市","062010318002","流通センター二丁目","38.290939","140.355413","0","3"
"06","山形県","06201","山形市","062010318003","流通センター三丁目","38.289392","140.358700","0","3"
"06","山形県","06201","山形市","062010318004","流通センター四丁目","38.294472","140.359253","0","3"
"06","山形県","06201","山形市","062010319000","若葉町","38.240817","140.325261","0","1"
"06","山形県","06201","山形市","062010320000","若宮","38.229214","140.303711","0","1"
"06","山形県","06201","山形市","062010321001","若宮一丁目","38.227283","140.312212","0","3"
"06","山形県","06201","山形市","062010321002","若宮二丁目","38.225288","140.311582","0","3"
"06","山形県","06201","山形市","062010321003","若宮三丁目","38.226078","140.306365","0","3"
"06","山形県","06201","山形市","062010321004","若宮四丁目","38.227947","140.306691","0","3"
"06","山形県","06201","山形市","062010322001","和合町一丁目","38.261787","140.358876","0","3"
"06","山形県","06201","山形市","062010322002","和合町二丁目","38.259704","140.357956","0","3"
"06","山形県","06201","山形市","062010322003","和合町三丁目","38.260146","140.361584","0","3"
"06","山形県","06201","山形市","062010323000","割田","38.303767","140.323322","0","1"
"06","山形県","06201","山形市","062010324000","大字下反田","38.273146","140.267424","0","1"
"06","山形県","06201","山形市","062010325000","くぬぎざわ西","38.270523","140.278733","0","1"
"06","山形県","06201","山形市","062010326000","大字志戸田","38.279319","140.280287","0","1"
"06","山形県","06201","山形市","062010327002","西原二丁目","38.266342","140.280834","0","3"
"06","山形県","06201","山形市","062010327001","西原一丁目","38.264487","140.281117","0","3"
"06","山形県","06201","山形市","062010328000","大字下椹沢","38.267488","140.285208","0","1"
"06","山形県","06201","山形市","062010329000","飯塚町","38.258058","140.281706","0","1"
"06","山形県","06201","山形市","062010330000","大字渋江","38.319425","140.327704","0","1"
"06","山形県","06201","山形市","062010331000","大字漆山","38.314587","140.343542","0","1"
"06","山形県","06201","山形市","062010332000","大字千手堂","38.312016","140.335200","0","1"
