"PrefCode","PrefName","MuniCode","MuniName","DistCode","DistName","lat","lon","SrcCode","CatCode"
"07","福島県","07202","会津若松市","072020001000","対馬館町","37.480625","139.915821","0","1"
"07","福島県","07202","会津若松市","072020002000","神指町橋本","37.506000","139.909210","0","1"
"07","福島県","07202","会津若松市","072020003003","飯盛三丁目","37.503082","139.949546","0","3"
"07","福島県","07202","会津若松市","072020004000","八角町","37.503425","139.945306","0","1"
"07","福島県","07202","会津若松市","072020005000","河東町工業団地","37.546714","139.955612","0","1"
"07","福島県","07202","会津若松市","072020006000","神指町大字中四合","37.506306","139.895541","0","1"
"07","福島県","07202","会津若松市","072020007000","大戸町大字高川","37.372992","139.966305","0","1"
"07","福島県","07202","会津若松市","072020008000","東山町大字湯川","37.441501","139.969578","0","1"
"07","福島県","07202","会津若松市","072020009000","大戸町大字大川","37.334782","139.918977","0","1"
"07","福島県","07202","会津若松市","072020010000","湊町大字平潟","37.435559","140.044704","0","1"
"07","福島県","07202","会津若松市","072020011000","湊町大字原","37.446922","140.019812","0","1"
"07","福島県","07202","会津若松市","072020012000","湊町大字赤井","37.496431","140.003196","0","1"
"07","福島県","07202","会津若松市","072020013000","湊町大字共和","37.469924","140.012074","0","1"
"07","福島県","07202","会津若松市","072020014000","門田町大字黒岩","37.476091","139.935823","0","1"
"07","福島県","07202","会津若松市","072020015000","門田町大字面川","37.442833","139.915159","0","1"
"07","福島県","07202","会津若松市","072020016000","北会津町下荒井","37.504958","139.863860","0","1"
"07","福島県","07202","会津若松市","072020017000","北会津町新在家","37.470367","139.874847","0","1"
"07","福島県","07202","会津若松市","072020018000","北会津町東麻生","37.483537","139.872565","0","1"
"07","福島県","07202","会津若松市","072020019000","北会津町下野","37.457280","139.873221","0","1"
"07","福島県","07202","会津若松市","072020020000","北会津町金屋","37.464106","139.875283","0","1"
"07","福島県","07202","会津若松市","072020021000","北会津町西麻生","37.479939","139.866590","0","1"
"07","福島県","07202","会津若松市","072020022000","北会津町松野","37.473384","139.874063","0","1"
"07","福島県","07202","会津若松市","072020023000","北会津町北後庵","37.469187","139.869174","0","1"
"07","福島県","07202","会津若松市","072020024000","北会津町中荒井","37.492721","139.875666","0","1"
"07","福島県","07202","会津若松市","072020025000","神指町西城戸","37.502885","139.899187","0","1"
"07","福島県","07202","会津若松市","072020026000","西七日町","37.503507","139.916305","0","1"
"07","福島県","07202","会津若松市","072020027000","五月町","37.500761","139.912554","0","1"
"07","福島県","07202","会津若松市","072020028000","一箕町大字八幡","37.506147","139.952243","0","1"
"07","福島県","07202","会津若松市","072020003001","飯盛一丁目","37.502774","139.952921","0","3"
"07","福島県","07202","会津若松市","072020029000","一箕町大字八角","37.504279","139.947076","0","1"
"07","福島県","07202","会津若松市","072020030000","滝沢町","37.504329","139.942890","0","1"
"07","福島県","07202","会津若松市","072020031000","平安町","37.501346","139.941990","0","1"
"07","福島県","07202","会津若松市","072020032000","旭町","37.501086","139.938821","0","1"
"07","福島県","07202","会津若松市","072020033000","蚕養町","37.504517","139.937187","0","1"
"07","福島県","07202","会津若松市","072020034000","相生町","37.501692","139.935854","0","1"
"07","福島県","07202","会津若松市","072020035000","昭和町","37.504018","139.934302","0","1"
"07","福島県","07202","会津若松市","072020036000","馬場本町","37.501719","139.933383","0","1"
"07","福島県","07202","会津若松市","072020037002","中央二丁目","37.502217","139.931423","0","3"
"07","福島県","07202","会津若松市","072020038002","大町二丁目","37.503100","139.928766","0","3"
"07","福島県","07202","会津若松市","072020039000","城北町","37.503555","139.925096","0","1"
"07","福島県","07202","会津若松市","072020040000","金川町","37.504675","139.921968","0","1"
"07","福島県","07202","会津若松市","072020041000","神指町大字黒川","37.505426","139.906317","0","1"
"07","福島県","07202","会津若松市","072020042000","北会津町蟹川","37.506879","139.879416","0","1"
"07","福島県","07202","会津若松市","072020043000","一箕町大字金堀","37.511708","139.978469","0","1"
"07","福島県","07202","会津若松市","072020044000","河東町八田","37.538960","139.979064","0","1"
"07","福島県","07202","会津若松市","072020045000","北会津町十二所","37.502321","139.843172","0","1"
"07","福島県","07202","会津若松市","072020046000","北会津町本田","37.503429","139.850479","0","1"
"07","福島県","07202","会津若松市","072020047000","北会津町真宮","37.520619","139.868724","0","1"
"07","福島県","07202","会津若松市","072020048004","真宮新町南四丁目","37.521258","139.873877","0","3"
"07","福島県","07202","会津若松市","072020049002","真宮新町北二丁目","37.524123","139.870713","0","3"
"07","福島県","07202","会津若松市","072020049001","真宮新町北一丁目","37.524404","139.872814","0","3"
"07","福島県","07202","会津若松市","072020049004","真宮新町北四丁目","37.528871","139.870284","0","3"
"07","福島県","07202","会津若松市","072020050000","大戸町宮内","37.417483","139.918542","0","1"
"07","福島県","07202","会津若松市","072020051000","大戸町小谷平沢","37.377146","139.917267","0","1"
"07","福島県","07202","会津若松市","072020052000","大戸町小谷西村","37.384351","139.922096","0","1"
"07","福島県","07202","会津若松市","072020053000","大戸町上小塩","37.367393","139.921367","0","1"
"07","福島県","07202","会津若松市","072020054000","大戸町小谷原","37.382561","139.923660","0","1"
"07","福島県","07202","会津若松市","072020055000","大戸町大字芦牧","37.363983","139.909354","0","1"
"07","福島県","07202","会津若松市","072020056000","大戸町上三寄大豆田","37.388862","139.933527","0","1"
"07","福島県","07202","会津若松市","072020057000","大戸町小谷川端","37.386466","139.928533","0","1"
"07","福島県","07202","会津若松市","072020058000","大戸町小谷坂下","37.387505","139.925028","0","1"
"07","福島県","07202","会津若松市","072020059000","大戸町大字小谷","37.365367","139.916995","0","1"
"07","福島県","07202","会津若松市","072020060000","大戸町上三寄香塩","37.397011","139.933807","0","1"
"07","福島県","07202","会津若松市","072020061000","大戸町大字上三寄","37.407281","139.924187","0","1"
"07","福島県","07202","会津若松市","072020062000","大戸町上三寄南原","37.403760","139.926175","0","1"
"07","福島県","07202","会津若松市","072020063000","大戸町上雨屋","37.411510","139.922657","0","1"
"07","福島県","07202","会津若松市","072020064000","湊町大字静潟","37.462527","140.036328","0","1"
"07","福島県","07202","会津若松市","072020065000","北青木","37.479933","139.938263","0","1"
"07","福島県","07202","会津若松市","072020066000","北会津町水季の里","37.476693","139.893150","0","1"
"07","福島県","07202","会津若松市","072020067000","北会津町古舘","37.475667","139.891650","0","1"
"07","福島県","07202","会津若松市","072020068000","北会津町ほたるの森","37.495940","139.874794","0","1"
"07","福島県","07202","会津若松市","072020069000","花春町","37.490410","139.943374","0","1"
"07","福島県","07202","会津若松市","072020070000","城東町","37.486765","139.936073","0","1"
"07","福島県","07202","会津若松市","072020071000","城南町","37.485588","139.928555","0","1"
"07","福島県","07202","会津若松市","072020072000","南町","37.484539","139.928337","0","1"
"07","福島県","07202","会津若松市","072020073002","米代二丁目","37.486461","139.923039","0","3"
"07","福島県","07202","会津若松市","072020073001","米代一丁目","37.488744","139.923679","0","3"
"07","福島県","07202","会津若松市","072020074000","城前","37.490799","139.936124","0","1"
"07","福島県","07202","会津若松市","072020075000","追手町","37.488529","139.930187","0","1"
"07","福島県","07202","会津若松市","072020076000","山鹿町","37.490858","139.924289","0","1"
"07","福島県","07202","会津若松市","072020077002","慶山二丁目","37.494068","139.950936","0","3"
"07","福島県","07202","会津若松市","072020078000","南千石町","37.492572","139.942723","0","1"
"07","福島県","07202","会津若松市","072020079002","和田二丁目","37.499237","139.951217","0","3"
"07","福島県","07202","会津若松市","072020077001","慶山一丁目","37.493982","139.947328","0","3"
"07","福島県","07202","会津若松市","072020003002","飯盛二丁目","37.500953","139.948402","0","3"
"07","福島県","07202","会津若松市","072020079001","和田一丁目","37.498705","139.949213","0","3"
"07","福島県","07202","会津若松市","072020080003","東千石三丁目","37.498513","139.947094","0","3"
"07","福島県","07202","会津若松市","072020081000","桧町","37.500976","139.944699","0","1"
"07","福島県","07202","会津若松市","072020080002","東千石二丁目","37.498462","139.944604","0","3"
"07","福島県","07202","会津若松市","072020080001","東千石一丁目","37.496590","139.945364","0","3"
"07","福島県","07202","会津若松市","072020082000","花畑東","37.499465","139.941617","0","1"
"07","福島県","07202","会津若松市","072020083000","千石町","37.495660","139.941790","0","1"
"07","福島県","07202","会津若松市","072020084000","行仁町","37.497245","139.937517","0","1"
"07","福島県","07202","会津若松市","072020085000","徒之町","37.492565","139.936616","0","1"
"07","福島県","07202","会津若松市","072020086000","宮町","37.494346","139.937235","0","1"
"07","福島県","07202","会津若松市","072020087000","上町","37.498090","139.934228","0","1"
"07","福島県","07202","会津若松市","072020088000","馬場町","37.498665","139.932032","0","1"
"07","福島県","07202","会津若松市","072020089000","東栄町","37.493281","139.930690","0","1"
"07","福島県","07202","会津若松市","072020090000","栄町","37.496157","139.930875","0","1"
"07","福島県","07202","会津若松市","072020037001","中央一丁目","37.499073","139.930036","0","3"
"07","福島県","07202","会津若松市","072020091000","西栄町","37.493858","139.925217","0","1"
"07","福島県","07202","会津若松市","072020038001","大町一丁目","37.499911","139.927373","0","3"
"07","福島県","07202","会津若松市","072020092000","中町","37.496900","139.925844","0","1"
"07","福島県","07202","会津若松市","072020093000","北会津町二日町","37.495051","139.884425","0","1"
"07","福島県","07202","会津若松市","072020094000","大戸町石村","37.432912","139.913212","0","1"
"07","福島県","07202","会津若松市","072020095000","大戸町下雨屋","37.420417","139.919047","0","1"
"07","福島県","07202","会津若松市","072020096000","門田町大字堤沢","37.448145","139.937648","3","1"
"07","福島県","07202","会津若松市","072020097000","門田町大字一ノ堰","37.455974","139.913461","0","1"
"07","福島県","07202","会津若松市","072020098000","北会津町東小松","37.473086","139.889309","0","1"
"07","福島県","07202","会津若松市","072020099000","北会津町小松","37.466837","139.886738","0","1"
"07","福島県","07202","会津若松市","072020100000","東山町大字湯本","37.476474","139.963858","0","1"
"07","福島県","07202","会津若松市","072020101000","東山町大字石山","37.487713","139.951734","0","1"
"07","福島県","07202","会津若松市","072020102003","花見ケ丘三丁目","37.483377","139.941469","0","3"
"07","福島県","07202","会津若松市","072020103000","建福寺前","37.482588","139.938988","0","1"
"07","福島県","07202","会津若松市","072020104000","門田町大字御山","37.464550","139.928837","0","1"
"07","福島県","07202","会津若松市","072020105002","東年貢二丁目","37.472784","139.927369","0","3"
"07","福島県","07202","会津若松市","072020106000","天神町","37.481229","139.933995","0","1"
"07","福島県","07202","会津若松市","072020105001","東年貢一丁目","37.474929","139.927798","0","3"
"07","福島県","07202","会津若松市","072020107000","古川町","37.477060","139.928226","0","1"
"07","福島県","07202","会津若松市","072020108000","明和町","37.479079","139.928042","0","1"
"07","福島県","07202","会津若松市","072020109000","表町","37.481664","139.928763","0","1"
"07","福島県","07202","会津若松市","072020110002","西年貢二丁目","37.475496","139.923194","0","3"
"07","福島県","07202","会津若松市","072020111000","錦町","37.482322","139.923811","0","1"
"07","福島県","07202","会津若松市","072020112000","門田町大字中野","37.468238","139.921801","0","1"
"07","福島県","07202","会津若松市","072020113000","門田町大字年貢町","37.471045","139.926302","0","1"
"07","福島県","07202","会津若松市","072020110001","西年貢一丁目","37.478034","139.922523","0","3"
"07","福島県","07202","会津若松市","072020114000","館馬町","37.480502","139.922798","0","1"
"07","福島県","07202","会津若松市","072020115000","南花畑","37.485098","139.922464","0","1"
"07","福島県","07202","会津若松市","072020116000","館脇町","37.481666","139.918979","0","1"
"07","福島県","07202","会津若松市","072020117000","門田町大字日吉","37.477046","139.915244","0","1"
"07","福島県","07202","会津若松市","072020118000","桜町","37.480319","139.911671","0","1"
"07","福島県","07202","会津若松市","072020119000","北会津町上米塚","37.465665","139.896514","0","1"
"07","福島県","07202","会津若松市","072020120000","北会津町三本松","37.475205","139.894737","0","1"
"07","福島県","07202","会津若松市","072020121000","北会津町両堂","37.475974","139.883475","0","1"
"07","福島県","07202","会津若松市","072020122000","湯川南","37.485880","139.947004","0","1"
"07","福島県","07202","会津若松市","072020102001","花見ケ丘一丁目","37.485787","139.941559","0","3"
"07","福島県","07202","会津若松市","072020102002","花見ケ丘二丁目","37.486039","139.944185","0","3"
"07","福島県","07202","会津若松市","072020123000","宝町","37.487243","139.940663","0","1"
"07","福島県","07202","会津若松市","072020124000","天寧寺町","37.488421","139.947093","0","1"
"07","福島県","07202","会津若松市","072020125000","城西町","37.484133","139.915950","0","1"
"07","福島県","07202","会津若松市","072020126000","湯川町","37.488795","139.918804","0","1"
"07","福島県","07202","会津若松市","072020127000","川原町","37.488574","139.915687","0","1"
"07","福島県","07202","会津若松市","072020128000","七日町","37.500799","139.922182","0","1"
"07","福島県","07202","会津若松市","072020129000","本町","37.493520","139.918832","0","1"
"07","福島県","07202","会津若松市","072020130000","日新町","37.497513","139.920591","0","1"
"07","福島県","07202","会津若松市","072020131000","新横町","37.491511","139.916117","0","1"
"07","福島県","07202","会津若松市","072020132000","緑町","37.495372","139.913543","0","1"
"07","福島県","07202","会津若松市","072020133000","八日町","37.499921","139.915891","0","1"
"07","福島県","07202","会津若松市","072020134001","材木町一丁目","37.487745","139.911834","0","3"
"07","福島県","07202","会津若松市","072020135000","日吉町","37.489987","139.909167","0","1"
"07","福島県","07202","会津若松市","072020136000","幕内東町","37.489823","139.905718","0","1"
"07","福島県","07202","会津若松市","072020137000","御旗町","37.492985","139.911144","0","1"
"07","福島県","07202","会津若松市","072020138001","柳原町一丁目","37.492710","139.906644","0","3"
"07","福島県","07202","会津若松市","072020138002","柳原町二丁目","37.495016","139.907108","0","3"
"07","福島県","07202","会津若松市","072020138004","柳原町四丁目","37.493363","139.904122","0","3"
"07","福島県","07202","会津若松市","072020138003","柳原町三丁目","37.496511","139.904147","0","3"
"07","福島県","07202","会津若松市","072020139000","北会津町下米塚","37.485153","139.886658","0","1"
"07","福島県","07202","会津若松市","072020140000","北会津町柏原","37.481042","139.878087","0","1"
"07","福島県","07202","会津若松市","072020141000","北会津町古麻生","37.472921","139.868055","0","1"
"07","福島県","07202","会津若松市","072020142000","北会津町麻生新田","37.479838","139.858329","0","1"
"07","福島県","07202","会津若松市","072020143000","北会津町西後庵","37.464816","139.865594","0","1"
"07","福島県","07202","会津若松市","072020144000","北会津町大島","37.474455","139.862399","0","1"
"07","福島県","07202","会津若松市","072020145000","北会津町今和泉","37.493763","139.864839","0","1"
"07","福島県","07202","会津若松市","072020146000","北会津町天満","37.484703","139.854686","0","1"
"07","福島県","07202","会津若松市","072020147000","北会津町寺堀","37.489089","139.861321","0","1"
"07","福島県","07202","会津若松市","072020148000","北会津町鷺林","37.497337","139.855473","0","1"
"07","福島県","07202","会津若松市","072020149000","北会津町宮袋","37.488721","139.854607","0","1"
"07","福島県","07202","会津若松市","072020150000","北会津町宮袋新田","37.496471","139.845129","0","1"
"07","福島県","07202","会津若松市","072020151000","神指町東城戸","37.508937","139.905173","0","1"
"07","福島県","07202","会津若松市","072020152000","神指町高瀬新田","37.516659","139.900338","0","1"
"07","福島県","07202","会津若松市","072020153000","神指町本丸","37.510901","139.892453","0","1"
"07","福島県","07202","会津若松市","072020154000","神指町如来堂","37.509025","139.891523","0","1"
"07","福島県","07202","会津若松市","072020155000","神指町高瀬","37.515710","139.895755","0","1"
"07","福島県","07202","会津若松市","072020156000","神指町上神指","37.517625","139.888206","0","1"
"07","福島県","07202","会津若松市","072020157000","神指町榎木檀","37.521760","139.895046","0","1"
"07","福島県","07202","会津若松市","072020158000","神指町東神指","37.521733","139.891241","0","1"
"07","福島県","07202","会津若松市","072020159000","神指町天満","37.504421","139.899225","0","1"
"07","福島県","07202","会津若松市","072020160000","神指町小見","37.504297","139.893833","0","1"
"07","福島県","07202","会津若松市","072020161000","神指町下神指","37.527571","139.884098","0","1"
"07","福島県","07202","会津若松市","072020162000","神指町横沼","37.530025","139.883058","0","1"
"07","福島県","07202","会津若松市","072020163001","大塚一丁目","37.515192","139.951393","0","3"
"07","福島県","07202","会津若松市","072020163002","大塚二丁目","37.515607","139.948037","0","3"
"07","福島県","07202","会津若松市","072020164001","北滝沢一丁目","37.512628","139.951044","0","3"
"07","福島県","07202","会津若松市","072020165000","中島町","37.509968","139.950408","0","1"
"07","福島県","07202","会津若松市","072020164002","北滝沢二丁目","37.512088","139.947506","0","3"
"07","福島県","07202","会津若松市","072020166000","山見町","37.508085","139.941666","0","1"
"07","福島県","07202","会津若松市","072020167000","白虎町","37.508691","139.935195","0","1"
"07","福島県","07202","会津若松市","072020168000","扇町","37.512517","139.934483","0","1"
"07","福島県","07202","会津若松市","072020037003","中央三丁目","37.505198","139.932715","0","3"
"07","福島県","07202","会津若松市","072020169000","駅前町","37.508953","139.930528","0","1"
"07","福島県","07202","会津若松市","072020170000","石堂町","37.507980","139.927823","0","1"
"07","福島県","07202","会津若松市","072020171000","町北町大字石堂","37.509333","139.924848","0","1"
"07","福島県","07202","会津若松市","072020172000","河東町広田","37.545888","139.928158","0","1"
"07","福島県","07202","会津若松市","072020173000","高野町上沼","37.541445","139.919211","0","1"
"07","福島県","07202","会津若松市","072020174000","高野町橋本木流","37.543496","139.914069","0","1"
"07","福島県","07202","会津若松市","072020175000","河東町南高野","37.556571","139.938341","0","1"
"07","福島県","07202","会津若松市","072020176000","河東町熊野堂","37.560140","139.920149","0","1"
"07","福島県","07202","会津若松市","072020177000","河東町倉橋","37.533857","139.927120","0","1"
"07","福島県","07202","会津若松市","072020178000","高野町平塚","37.538392","139.915577","0","1"
"07","福島県","07202","会津若松市","072020179000","高野町中前田","37.527731","139.928622","0","1"
"07","福島県","07202","会津若松市","072020180000","インター西","37.524294","139.914748","0","1"
"07","福島県","07202","会津若松市","072020181000","高野町大字中沼","37.533129","139.914572","0","1"
"07","福島県","07202","会津若松市","072020182000","高野町大字上高野","37.526997","139.907211","0","1"
"07","福島県","07202","会津若松市","072020183000","町北町中沢西","37.514505","139.902683","0","1"
"07","福島県","07202","会津若松市","072020184000","神指町大字高瀬","37.513716","139.898131","0","1"
"07","福島県","07202","会津若松市","072020185000","町北町大字中沢","37.521646","139.901622","0","1"
"07","福島県","07202","会津若松市","072020186000","高野町大字柳川","37.538502","139.899657","0","1"
"07","福島県","07202","会津若松市","072020187000","高野町大字木流","37.543670","139.907333","0","1"
"07","福島県","07202","会津若松市","072020188000","河東町郡山","37.550523","139.919110","0","1"
"07","福島県","07202","会津若松市","072020189000","河東町谷沢","37.555284","139.907933","0","1"
"07","福島県","07202","会津若松市","072020190000","高野町大字界沢","37.540474","139.888879","0","1"
"07","福島県","07202","会津若松市","072020191000","河東町代田","37.563822","139.903638","0","1"
"07","福島県","07202","会津若松市","072020192006","一箕町松長六丁目","37.525354","139.959963","0","3"
"07","福島県","07202","会津若松市","072020192003","一箕町松長三丁目","37.528735","139.956806","0","3"
"07","福島県","07202","会津若松市","072020192004","一箕町松長四丁目","37.527045","139.958166","0","3"
"07","福島県","07202","会津若松市","072020192005","一箕町松長五丁目","37.527900","139.962582","0","3"
"07","福島県","07202","会津若松市","072020192002","一箕町松長二丁目","37.528042","139.953247","0","3"
"07","福島県","07202","会津若松市","072020192001","一箕町松長一丁目","37.531654","139.956755","0","3"
"07","福島県","07202","会津若松市","072020048001","真宮新町南一丁目","37.513302","139.876764","0","3"
"07","福島県","07202","会津若松市","072020048003","真宮新町南三丁目","37.518080","139.874987","0","3"
"07","福島県","07202","会津若松市","072020048002","真宮新町南二丁目","37.517770","139.877211","0","3"
"07","福島県","07202","会津若松市","072020193000","神指町大字高久","37.540348","139.877701","0","1"
"07","福島県","07202","会津若松市","072020194002","橋本二丁目","37.504283","139.911104","0","3"
"07","福島県","07202","会津若松市","072020194001","橋本一丁目","37.504886","139.912472","0","3"
"07","福島県","07202","会津若松市","072020195000","河東町金田","37.542192","139.951616","0","1"
"07","福島県","07202","会津若松市","072020196000","河東町浅山","37.548530","139.940706","0","1"
"07","福島県","07202","会津若松市","072020197000","河東町大田原","37.571438","139.922995","0","1"
"07","福島県","07202","会津若松市","072020198000","河東町岡田","37.574857","139.913725","0","1"
"07","福島県","07202","会津若松市","072020199000","河東町福島","37.574468","139.902507","0","1"
"07","福島県","07202","会津若松市","072020200000","町北町大字藤室","37.513502","139.916300","0","1"
"07","福島県","07202","会津若松市","072020201000","一箕町大字松長","37.522689","139.956563","0","1"
"07","福島県","07202","会津若松市","072020202000","堤町","37.517847","139.950891","0","1"
"07","福島県","07202","会津若松市","072020203000","居合町","37.518981","139.947567","0","1"
"07","福島県","07202","会津若松市","072020204000","鶴賀町","37.523059","139.946211","0","1"
"07","福島県","07202","会津若松市","072020205000","一箕町大字亀賀","37.516543","139.939368","0","1"
"07","福島県","07202","会津若松市","072020206000","町北町大字上荒久田","37.516423","139.926879","0","1"
"07","福島県","07202","会津若松市","072020207000","町北町谷地","37.520701","139.931706","0","1"
"07","福島県","07202","会津若松市","072020208000","町北町大字始","37.521322","139.922384","0","1"
"07","福島県","07202","会津若松市","072020209000","一箕町大字鶴賀","37.524787","139.940449","0","1"
"07","福島県","07202","会津若松市","072020210000","河東町東長原","37.564436","139.948156","0","1"
"07","福島県","07202","会津若松市","072020211000","河東町広野","37.566561","139.934229","0","1"
"07","福島県","07202","会津若松市","072020212000","北会津町白山","37.510927","139.866145","0","1"
"07","福島県","07202","会津若松市","072020213000","北会津町中里","37.514204","139.867537","0","1"
"07","福島県","07202","会津若松市","072020214000","北会津町舘","37.516150","139.855389","0","1"
"07","福島県","07202","会津若松市","072020215000","北会津町安良田","37.509800","139.854064","0","1"
"07","福島県","07202","会津若松市","072020216000","北会津町宮ノ下","37.513715","139.850093","0","1"
"07","福島県","07202","会津若松市","072020217000","北会津町石原","37.516142","139.861543","0","1"
"07","福島県","07202","会津若松市","072020049003","真宮新町北三丁目","37.528325","139.868428","0","3"
"07","福島県","07202","会津若松市","072020218000","北会津町田村山","37.521466","139.860151","0","1"
"07","福島県","07202","会津若松市","072020219000","北会津町出尻","37.520114","139.852359","0","1"
"07","福島県","07202","会津若松市","072020220000","北会津町和泉","37.525882","139.853042","0","1"
"07","福島県","07202","会津若松市","072020221000","神指町大字北四合","37.524884","139.886989","0","1"
"07","福島県","07202","会津若松市","072020134002","材木町二丁目","37.484004","139.911439","0","3"
"07","福島県","07202","会津若松市","072020222001","飯寺北一丁目","37.483900","139.908064","0","3"
"07","福島県","07202","会津若松市","072020223000","神指町大字南四合","37.491255","139.897416","0","1"
"07","福島県","07202","会津若松市","072020224000","門田町大字飯寺","37.474274","139.904489","0","1"
"07","福島県","07202","会津若松市","072020225000","幕内南町","37.484176","139.904656","0","1"
"07","福島県","07202","会津若松市","072020226000","門田町大字徳久","37.469521","139.915919","0","1"
"07","福島県","07202","会津若松市","072020227000","門田町工業団地","37.466708","139.910322","0","1"
"07","福島県","07202","会津若松市","072020228000","住吉町","37.486740","139.906658","0","1"
"07","福島県","07202","会津若松市","072020230000","門田町根岸東","37.449298","139.921667","1","1"
"07","福島県","07202","会津若松市","072020229000","門田町堤沢","37.455844","139.923984","1","1"
