"PrefCode","PrefName","MuniCode","MuniName","DistCode","DistName","lat","lon","SrcCode","CatCode"
"08","茨城県","08204","古河市","082040001001","旭町一丁目","36.197117","139.721360","0","3"
"08","茨城県","08204","古河市","082040001002","旭町二丁目","36.197200","139.726091","0","3"
"08","茨城県","08204","古河市","082040002000","新久田","36.169551","139.699423","0","1"
"08","茨城県","08204","古河市","082040003000","砂井新田","36.160691","139.727516","0","1"
"08","茨城県","08204","古河市","082040004000","磯部","36.165322","139.741191","0","1"
"08","茨城県","08204","古河市","082040005000","稲宮","36.191416","139.779226","0","1"
"08","茨城県","08204","古河市","082040006000","江口","36.181629","139.834024","0","1"
"08","茨城県","08204","古河市","082040007000","大堤","36.177312","139.717586","0","1"
"08","茨城県","08204","古河市","082040008000","大手町","36.197359","139.700781","0","1"
"08","茨城県","08204","古河市","082040009000","大山","36.146518","139.722910","0","1"
"08","茨城県","08204","古河市","082040010000","大和田","36.190438","139.791133","0","1"
"08","茨城県","08204","古河市","082040011000","丘里","36.198978","139.755017","0","1"
"08","茨城県","08204","古河市","082040012000","尾崎","36.200969","139.842914","0","1"
"08","茨城県","08204","古河市","082040013000","女沼","36.179011","139.741247","0","1"
"08","茨城県","08204","古河市","082040014000","恩名","36.167436","139.845455","0","1"
"08","茨城県","08204","古河市","082040015000","葛生","36.161089","139.790130","0","1"
"08","茨城県","08204","古河市","082040016000","上砂井","36.154410","139.730271","0","1"
"08","茨城県","08204","古河市","082040017000","上大野","36.211930","139.782411","0","1"
"08","茨城県","08204","古河市","082040018000","上辺見","36.187543","139.733495","0","1"
"08","茨城県","08204","古河市","082040019000","上和田","36.225427","139.814418","0","1"
"08","茨城県","08204","古河市","082040020000","北利根","36.152728","139.766941","0","1"
"08","茨城県","08204","古河市","082040021000","北町","36.203026","139.715746","0","1"
"08","茨城県","08204","古河市","082040022000","北間中橋","36.201128","139.856914","0","1"
"08","茨城県","08204","古河市","082040023000","北山田","36.174548","139.797462","0","1"
"08","茨城県","08204","古河市","082040024000","久能","36.159599","139.773109","0","1"
"08","茨城県","08204","古河市","082040025001","けやき平一丁目","36.162567","139.710468","0","3"
"08","茨城県","08204","古河市","082040025002","けやき平二丁目","36.161217","139.712572","0","3"
"08","茨城県","08204","古河市","082040026000","鴻巣","36.174461","139.707849","0","1"
"08","茨城県","08204","古河市","082040027000","高野","36.143033","139.774241","0","1"
"08","茨城県","08204","古河市","082040028000","古河","36.195124","139.692996","0","1"
"08","茨城県","08204","古河市","082040029000","小堤","36.212249","139.763532","0","1"
"08","茨城県","08204","古河市","082040030000","五部","36.208372","139.816169","0","1"
"08","茨城県","08204","古河市","082040031000","駒ケ崎","36.173428","139.700142","0","1"
"08","茨城県","08204","古河市","082040032000","駒込","36.226669","139.808150","0","1"
"08","茨城県","08204","古河市","082040033000","駒羽根","36.166510","139.758007","0","1"
"08","茨城県","08204","古河市","082040034000","幸町","36.184212","139.710490","0","1"
"08","茨城県","08204","古河市","082040035000","坂間","36.164447","139.708439","0","1"
"08","茨城県","08204","古河市","082040036000","桜町","36.189954","139.697684","0","1"
"08","茨城県","08204","古河市","082040037000","三和","36.164925","139.706254","0","1"
"08","茨城県","08204","古河市","082040038000","静町","36.208312","139.717157","0","1"
"08","茨城県","08204","古河市","082040039000","下大野","36.178110","139.762980","0","1"
"08","茨城県","08204","古河市","082040040000","下辺見","36.172566","139.729154","0","1"
"08","茨城県","08204","古河市","082040041000","下山町","36.189920","139.723825","0","1"
"08","茨城県","08204","古河市","082040042000","釈迦","36.154419","139.752362","0","1"
"08","茨城県","08204","古河市","082040043000","新和田","36.177780","139.790965","0","1"
"08","茨城県","08204","古河市","082040044000","関戸","36.192344","139.759442","0","1"
"08","茨城県","08204","古河市","082040045000","立崎","36.178912","139.692646","0","1"
"08","茨城県","08204","古河市","082040046000","茶屋新田","36.163170","139.718977","0","1"
"08","茨城県","08204","古河市","082040047001","中央町一丁目","36.195862","139.703442","0","3"
"08","茨城県","08204","古河市","082040047002","中央町二丁目","36.193878","139.702826","0","3"
"08","茨城県","08204","古河市","082040047003","中央町三丁目","36.191083","139.702321","0","3"
"08","茨城県","08204","古河市","082040048000","長左エ門新田","36.153060","139.847402","0","1"
"08","茨城県","08204","古河市","082040049000","常盤町","36.205289","139.714068","0","1"
"08","茨城県","08204","古河市","082040050000","鳥喰","36.162306","139.700258","0","1"
"08","茨城県","08204","古河市","082040051000","中田","36.144816","139.710968","0","1"
"08","茨城県","08204","古河市","082040052000","中田新田","36.155304","139.700546","0","1"
"08","茨城県","08204","古河市","082040053000","名崎","36.180072","139.846085","0","1"
"08","茨城県","08204","古河市","082040054000","西牛谷","36.201220","139.736748","0","1"
"08","茨城県","08204","古河市","082040055000","錦町","36.193757","139.697850","0","1"
"08","茨城県","08204","古河市","082040056000","西町","36.197090","139.697353","0","1"
"08","茨城県","08204","古河市","082040057000","西間中橋","36.189122","139.857117","0","1"
"08","茨城県","08204","古河市","082040058000","仁連","36.183944","139.815816","0","1"
"08","茨城県","08204","古河市","082040059000","長谷","36.185019","139.699158","0","1"
"08","茨城県","08204","古河市","082040060000","長谷町","36.185570","139.702305","0","1"
"08","茨城県","08204","古河市","082040061000","原","36.178585","139.713273","0","1"
"08","茨城県","08204","古河市","082040062000","原町","36.184178","139.706743","0","1"
"08","茨城県","08204","古河市","082040063001","東一丁目","36.196212","139.711703","0","3"
"08","茨城県","08204","古河市","082040063002","東二丁目","36.198886","139.709972","0","3"
"08","茨城県","08204","古河市","082040063003","東三丁目","36.196406","139.714914","0","3"
"08","茨城県","08204","古河市","082040063004","東四丁目","36.196568","139.717664","0","3"
"08","茨城県","08204","古河市","082040064000","東牛谷","36.205386","139.748248","0","1"
"08","茨城県","08204","古河市","082040065001","東本町一丁目","36.193571","139.712088","0","3"
"08","茨城県","08204","古河市","082040065002","東本町二丁目","36.193612","139.716588","0","3"
"08","茨城県","08204","古河市","082040065003","東本町三丁目","36.193205","139.720947","0","3"
"08","茨城県","08204","古河市","082040065004","東本町四丁目","36.192071","139.725653","0","3"
"08","茨城県","08204","古河市","082040066000","東間中橋","36.193104","139.862999","0","1"
"08","茨城県","08204","古河市","082040067000","東諸川","36.195409","139.828730","0","1"
"08","茨城県","08204","古河市","082040068000","東山田","36.162650","139.823621","0","1"
"08","茨城県","08204","古河市","082040069000","平和町","36.202909","139.711704","0","1"
"08","茨城県","08204","古河市","082040070001","本町一丁目","36.196759","139.707398","0","3"
"08","茨城県","08204","古河市","082040070002","本町二丁目","36.192408","139.706641","0","3"
"08","茨城県","08204","古河市","082040070003","本町三丁目","36.188438","139.706156","0","3"
"08","茨城県","08204","古河市","082040070004","本町四丁目","36.191226","139.709074","0","3"
"08","茨城県","08204","古河市","082040071000","前林","36.144845","139.739295","0","1"
"08","茨城県","08204","古河市","082040072000","牧野地","36.180818","139.698795","0","1"
"08","茨城県","08204","古河市","082040073001","松並一丁目","36.204028","139.709063","0","3"
"08","茨城県","08204","古河市","082040073002","松並二丁目","36.207887","139.711300","0","3"
"08","茨城県","08204","古河市","082040074000","水海","36.138158","139.754532","0","1"
"08","茨城県","08204","古河市","082040075001","三杉町一丁目","36.200367","139.721930","0","3"
"08","茨城県","08204","古河市","082040075002","三杉町二丁目","36.204825","139.719765","0","3"
"08","茨城県","08204","古河市","082040076000","緑町","36.203865","139.724237","0","1"
"08","茨城県","08204","古河市","082040077000","南町","36.188377","139.719910","0","1"
"08","茨城県","08204","古河市","082040078000","南間中橋","36.185307","139.857379","0","1"
"08","茨城県","08204","古河市","082040079000","宮前町","36.201654","139.699699","0","1"
"08","茨城県","08204","古河市","082040080000","諸川","36.205172","139.808290","0","1"
"08","茨城県","08204","古河市","082040081000","谷貝","36.146700","139.812344","0","1"
"08","茨城県","08204","古河市","082040082000","柳橋","36.174293","139.781190","0","1"
"08","茨城県","08204","古河市","082040083000","山田","36.166015","139.803191","0","1"
"08","茨城県","08204","古河市","082040084001","横山町一丁目","36.197821","139.704347","0","3"
"08","茨城県","08204","古河市","082040084002","横山町二丁目","36.200256","139.706847","0","3"
"08","茨城県","08204","古河市","082040084003","横山町三丁目","36.201486","139.704695","0","3"
"08","茨城県","08204","古河市","082040085000","雷電町","36.200588","139.715479","0","1"
"08","茨城県","08204","古河市","082040086000","上片田","36.223549","139.795580","0","1"
"08","茨城県","08204","古河市","082040087000","下片田","36.205715","139.799107","0","1"
