"PrefCode","PrefName","MuniCode","MuniName","DistCode","DistName","lat","lon","SrcCode","CatCode"
"08","茨城県","08222","鹿嶋市","082220001002","旭ケ丘二丁目","35.966450","140.658782","0","3"
"08","茨城県","08222","鹿嶋市","082220002000","大字粟生","35.947194","140.654298","0","1"
"08","茨城県","08222","鹿嶋市","082220003000","大字青塚","36.044506","140.621176","0","1"
"08","茨城県","08222","鹿嶋市","082220004000","大字明石","35.995954","140.649293","0","1"
"08","茨城県","08222","鹿嶋市","082220005000","大字荒井","36.052457","140.616608","0","1"
"08","茨城県","08222","鹿嶋市","082220006000","大字泉川","35.933130","140.654603","0","1"
"08","茨城県","08222","鹿嶋市","082220007000","大字大船津","35.957444","140.617291","0","1"
"08","茨城県","08222","鹿嶋市","082220008000","大字和","36.038673","140.601161","0","1"
"08","茨城県","08222","鹿嶋市","082220009000","大字木滝","35.945223","140.647336","0","1"
"08","茨城県","08222","鹿嶋市","082220010000","大字木滝佐田下塙谷原入会","35.945787","140.641831","0","1"
"08","茨城県","08222","鹿嶋市","082220011000","大字木滝佐田谷原入会","35.954375","140.638498","0","1"
"08","茨城県","08222","鹿嶋市","082220012000","大字宮中","35.974562","140.640117","0","1"
"08","茨城県","08222","鹿嶋市","082220013000","大字国末","35.941673","140.684472","0","1"
"08","茨城県","08222","鹿嶋市","082220014000","大字荒野","36.021165","140.631999","0","1"
"08","茨城県","08222","鹿嶋市","082220015000","大字小宮作","35.988869","140.657146","0","1"
"08","茨城県","08222","鹿嶋市","082220016000","大字小山","36.010639","140.632037","0","1"
"08","茨城県","08222","鹿嶋市","082220017000","大字佐田","35.950251","140.640515","0","1"
"08","茨城県","08222","鹿嶋市","082220018000","大字猿田","35.988592","140.632416","0","1"
"08","茨城県","08222","鹿嶋市","082220019000","大字志崎","36.067536","140.585417","0","1"
"08","茨城県","08222","鹿嶋市","082220020000","大字清水","36.005354","140.641172","0","1"
"08","茨城県","08222","鹿嶋市","082220021000","大字下塙","35.946643","140.636402","0","1"
"08","茨城県","08222","鹿嶋市","082220022000","大字神向寺","35.989032","140.642983","0","1"
"08","茨城県","08222","鹿嶋市","082220023000","大字新浜","35.946201","140.690127","0","1"
"08","茨城県","08222","鹿嶋市","082220024000","大字須賀","35.985732","140.610145","0","1"
"08","茨城県","08222","鹿嶋市","082220025000","大字大小志崎","36.073643","140.605946","0","1"
"08","茨城県","08222","鹿嶋市","082220026000","大字武井","36.049091","140.580326","0","1"
"08","茨城県","08222","鹿嶋市","082220027000","大字武井釜","36.063360","140.607430","0","1"
"08","茨城県","08222","鹿嶋市","082220028000","大字棚木","36.027302","140.602105","0","1"
"08","茨城県","08222","鹿嶋市","082220029000","大字田野辺","35.999796","140.614018","0","1"
"08","茨城県","08222","鹿嶋市","082220030000","大字田谷","35.995184","140.623646","0","1"
"08","茨城県","08222","鹿嶋市","082220031000","大字田谷沼","35.992737","140.617364","0","1"
"08","茨城県","08222","鹿嶋市","082220032000","大字津賀","36.041341","140.582865","0","1"
"08","茨城県","08222","鹿嶋市","082220033000","大字角折","36.032921","140.625834","0","1"
"08","茨城県","08222","鹿嶋市","082220034000","大字爪木","35.976659","140.603504","0","1"
"08","茨城県","08222","鹿嶋市","082220035000","大字中","36.016849","140.594706","0","1"
"08","茨城県","08222","鹿嶋市","082220036000","大字長栖","35.933157","140.642855","0","1"
"08","茨城県","08222","鹿嶋市","082220037000","大字奈良毛","36.008775","140.591842","0","1"
"08","茨城県","08222","鹿嶋市","082220038000","大字沼尾","35.999211","140.601982","0","1"
"08","茨城県","08222","鹿嶋市","082220039000","大字根三田","35.945234","140.627601","0","1"
"08","茨城県","08222","鹿嶋市","082220040000","大字鉢形","35.958583","140.653518","0","1"
"08","茨城県","08222","鹿嶋市","082220041000","大字浜津賀","36.057910","140.610786","0","1"
"08","茨城県","08222","鹿嶋市","082220042000","大字林","36.014863","140.616329","0","1"
"08","茨城県","08222","鹿嶋市","082220043000","大字光","35.941564","140.669969","0","1"
"08","茨城県","08222","鹿嶋市","082220044000","大字宮津台","35.979847","140.649518","0","1"
"08","茨城県","08222","鹿嶋市","082220045000","大字山之上","35.983845","140.622342","0","1"
"08","茨城県","08222","鹿嶋市","082220046000","大字谷原","35.938331","140.639628","0","1"
"08","茨城県","08222","鹿嶋市","082220047000","大字鰐川","35.934932","140.629047","0","1"
"08","茨城県","08222","鹿嶋市","082220048001","神野一丁目","35.958482","140.625683","0","3"
"08","茨城県","08222","鹿嶋市","082220048002","神野二丁目","35.959861","140.623577","0","3"
"08","茨城県","08222","鹿嶋市","082220048003","神野三丁目","35.959630","140.622015","0","3"
"08","茨城県","08222","鹿嶋市","082220048004","神野四丁目","35.957540","140.623184","0","3"
"08","茨城県","08222","鹿嶋市","082220049001","宮中一丁目","35.967448","140.629822","0","3"
"08","茨城県","08222","鹿嶋市","082220049002","宮中二丁目","35.965915","140.626158","0","3"
"08","茨城県","08222","鹿嶋市","082220049003","宮中三丁目","35.964012","140.626732","0","3"
"08","茨城県","08222","鹿嶋市","082220049004","宮中四丁目","35.963907","140.629439","0","3"
"08","茨城県","08222","鹿嶋市","082220049005","宮中五丁目","35.963761","140.631448","0","3"
"08","茨城県","08222","鹿嶋市","082220049006","宮中六丁目","35.963877","140.634360","0","3"
"08","茨城県","08222","鹿嶋市","082220049007","宮中七丁目","35.961129","140.633273","0","3"
"08","茨城県","08222","鹿嶋市","082220049008","宮中八丁目","35.961690","140.628330","0","3"
"08","茨城県","08222","鹿嶋市","082220050001","厨一丁目","35.973836","140.629340","0","3"
"08","茨城県","08222","鹿嶋市","082220050002","厨二丁目","35.975247","140.631296","0","3"
"08","茨城県","08222","鹿嶋市","082220050003","厨三丁目","35.976679","140.629948","0","3"
"08","茨城県","08222","鹿嶋市","082220050004","厨四丁目","35.975602","140.627182","0","3"
"08","茨城県","08222","鹿嶋市","082220050005","厨五丁目","35.975461","140.624884","0","3"
"08","茨城県","08222","鹿嶋市","082220051001","城山一丁目","35.968481","140.621868","0","3"
"08","茨城県","08222","鹿嶋市","082220051002","城山二丁目","35.965466","140.622436","0","3"
"08","茨城県","08222","鹿嶋市","082220051004","城山四丁目","35.962384","140.622686","0","3"
"08","茨城県","08222","鹿嶋市","082220052001","鉢形台一丁目","35.963640","140.647669","0","3"
"08","茨城県","08222","鹿嶋市","082220052002","鉢形台二丁目","35.961016","140.648239","0","3"
"08","茨城県","08222","鹿嶋市","082220052003","鉢形台三丁目","35.958180","140.649236","0","3"
"08","茨城県","08222","鹿嶋市","082220053000","平井南","35.958027","140.676559","0","1"
"08","茨城県","08222","鹿嶋市","082220054001","緑ヶ丘一丁目","35.973731","140.623658","0","3"
"08","茨城県","08222","鹿嶋市","082220054002","緑ヶ丘二丁目","35.972016","140.622091","0","3"
"08","茨城県","08222","鹿嶋市","082220054003","緑ヶ丘三丁目","35.971853","140.618483","0","3"
"08","茨城県","08222","鹿嶋市","082220054004","緑ヶ丘四丁目","35.975917","140.622679","0","3"
"08","茨城県","08222","鹿嶋市","082220055001","宮下一丁目","35.971278","140.630494","0","3"
"08","茨城県","08222","鹿嶋市","082220055002","宮下二丁目","35.969001","140.625983","0","3"
"08","茨城県","08222","鹿嶋市","082220055003","宮下三丁目","35.968473","140.624028","0","3"
"08","茨城県","08222","鹿嶋市","082220055004","宮下四丁目","35.971816","140.626119","0","3"
"08","茨城県","08222","鹿嶋市","082220055005","宮下五丁目","35.973025","140.632961","0","3"
"08","茨城県","08222","鹿嶋市","082220056001","高天原一丁目","35.974501","140.650973","0","3"
"08","茨城県","08222","鹿嶋市","082220056002","高天原二丁目","35.976346","140.654376","0","3"
"08","茨城県","08222","鹿嶋市","082220057002","港ケ丘二丁目","35.973974","140.655164","0","3"
"08","茨城県","08222","鹿嶋市","082220001001","旭ケ丘一丁目","35.967941","140.658007","0","3"
"08","茨城県","08222","鹿嶋市","082220057001","港ケ丘一丁目","35.971759","140.654653","0","3"
"08","茨城県","08222","鹿嶋市","082220058000","大字平井","35.964484","140.669297","0","1"
"08","茨城県","08222","鹿嶋市","082220059000","大字下津","35.979913","140.661100","0","1"
"08","茨城県","08222","鹿嶋市","082220060000","大字港ケ丘","35.973342","140.659119","0","1"
