"PrefCode","PrefName","MuniCode","MuniName","DistCode","DistName","lat","lon","SrcCode","CatCode"
"08","茨城県","08232","神栖市","082320001000","息栖","35.881714","140.625895","0","1"
"08","茨城県","08232","神栖市","082320002000","居切","35.924155","140.652105","0","1"
"08","茨城県","08232","神栖市","082320003000","石神","35.863786","140.649673","0","1"
"08","茨城県","08232","神栖市","082320004000","太田","35.827973","140.728705","0","1"
"08","茨城県","08232","神栖市","082320005001","太田新町一丁目","35.832697","140.731423","0","3"
"08","茨城県","08232","神栖市","082320005002","太田新町二丁目","35.832048","140.729828","0","3"
"08","茨城県","08232","神栖市","082320005003","太田新町三丁目","35.834827","140.729655","0","3"
"08","茨城県","08232","神栖市","082320005004","太田新町四丁目","35.834275","140.728210","0","3"
"08","茨城県","08232","神栖市","082320005005","太田新町五丁目","35.833802","140.725901","0","3"
"08","茨城県","08232","神栖市","082320006001","大野原一丁目","35.891278","140.651448","0","3"
"08","茨城県","08232","神栖市","082320006002","大野原二丁目","35.893321","140.646573","0","3"
"08","茨城県","08232","神栖市","082320006003","大野原三丁目","35.894932","140.642613","0","3"
"08","茨城県","08232","神栖市","082320006004","大野原四丁目","35.897366","140.637929","0","3"
"08","茨城県","08232","神栖市","082320006005","大野原五丁目","35.892952","140.636074","0","3"
"08","茨城県","08232","神栖市","082320006006","大野原六丁目","35.890627","140.639887","0","3"
"08","茨城県","08232","神栖市","082320006007","大野原七丁目","35.888975","140.643843","0","3"
"08","茨城県","08232","神栖市","082320006008","大野原八丁目","35.886961","140.648674","0","3"
"08","茨城県","08232","神栖市","082320007001","大野原中央一丁目","35.883539","140.646497","0","3"
"08","茨城県","08232","神栖市","082320007002","大野原中央二丁目","35.885820","140.641105","0","3"
"08","茨城県","08232","神栖市","082320007003","大野原中央三丁目","35.888335","140.635556","0","3"
"08","茨城県","08232","神栖市","082320007004","大野原中央四丁目","35.885059","140.634238","0","3"
"08","茨城県","08232","神栖市","082320007005","大野原中央五丁目","35.882418","140.638962","0","3"
"08","茨城県","08232","神栖市","082320007006","大野原中央六丁目","35.880162","140.644348","0","3"
"08","茨城県","08232","神栖市","082320008000","奥野谷","35.899382","140.709007","0","1"
"08","茨城県","08232","神栖市","082320009000","賀","35.901193","140.617933","0","1"
"08","茨城県","08232","神栖市","082320010001","神栖一丁目","35.899562","140.643745","0","3"
"08","茨城県","08232","神栖市","082320010002","神栖二丁目","35.901063","140.649316","0","3"
"08","茨城県","08232","神栖市","082320010003","神栖三丁目","35.903921","140.650511","0","3"
"08","茨城県","08232","神栖市","082320010004","神栖四丁目","35.908135","140.652803","0","3"
"08","茨城県","08232","神栖市","082320011000","木崎","35.890222","140.657347","0","1"
"08","茨城県","08232","神栖市","082320012000","北浜","35.912626","140.709456","0","1"
"08","茨城県","08232","神栖市","082320013000","知手","35.872711","140.685072","0","1"
"08","茨城県","08232","神栖市","082320014010","知手中央十丁目","35.878161","140.697240","0","3"
"08","茨城県","08232","神栖市","082320014001","知手中央一丁目","35.880776","140.702653","0","3"
"08","茨城県","08232","神栖市","082320014002","知手中央二丁目","35.883774","140.709047","0","3"
"08","茨城県","08232","神栖市","082320014003","知手中央三丁目","35.880489","140.711007","0","3"
"08","茨城県","08232","神栖市","082320014004","知手中央四丁目","35.878202","140.715149","0","3"
"08","茨城県","08232","神栖市","082320014005","知手中央五丁目","35.875731","140.711510","0","3"
"08","茨城県","08232","神栖市","082320014006","知手中央六丁目","35.876892","140.704454","0","3"
"08","茨城県","08232","神栖市","082320014007","知手中央七丁目","35.871297","140.707464","0","3"
"08","茨城県","08232","神栖市","082320014008","知手中央八丁目","35.868481","140.704474","0","3"
"08","茨城県","08232","神栖市","082320014009","知手中央九丁目","35.874262","140.700165","0","3"
"08","茨城県","08232","神栖市","082320015000","芝崎","35.866011","140.656780","0","1"
"08","茨城県","08232","神栖市","082320016000","下幡木","35.917598","140.622198","0","1"
"08","茨城県","08232","神栖市","082320017000","須田","35.828672","140.750450","0","1"
"08","茨城県","08232","神栖市","082320018000","砂山","35.854819","140.725985","0","1"
"08","茨城県","08232","神栖市","082320019000","高浜","35.868210","140.640982","0","1"
"08","茨城県","08232","神栖市","082320020000","田畑","35.878312","140.650501","0","1"
"08","茨城県","08232","神栖市","082320021000","筒井","35.905060","140.628855","0","1"
"08","茨城県","08232","神栖市","082320022001","土合北一丁目","35.791812","140.785607","0","3"
"08","茨城県","08232","神栖市","082320022002","土合北二丁目","35.796247","140.783045","0","3"
"08","茨城県","08232","神栖市","082320023001","土合中央一丁目","35.788059","140.778005","0","3"
"08","茨城県","08232","神栖市","082320023002","土合中央二丁目","35.789709","140.775469","0","3"
"08","茨城県","08232","神栖市","082320023003","土合中央三丁目","35.791775","140.773328","0","3"
"08","茨城県","08232","神栖市","082320024001","土合西一丁目","35.792533","140.769938","0","3"
"08","茨城県","08232","神栖市","082320024002","土合西二丁目","35.793662","140.768597","0","3"
"08","茨城県","08232","神栖市","082320024003","土合西三丁目","35.797070","140.773132","0","3"
"08","茨城県","08232","神栖市","082320024004","土合西四丁目","35.800631","140.777854","0","3"
"08","茨城県","08232","神栖市","082320025001","土合東一丁目","35.785563","140.780222","0","3"
"08","茨城県","08232","神栖市","082320025002","土合東二丁目","35.783668","140.778188","0","3"
"08","茨城県","08232","神栖市","082320026001","土合本町一丁目","35.788545","140.782933","0","3"
"08","茨城県","08232","神栖市","082320026002","土合本町二丁目","35.790672","140.779186","0","3"
"08","茨城県","08232","神栖市","082320026003","土合本町三丁目","35.793442","140.780465","0","3"
"08","茨城県","08232","神栖市","082320026004","土合本町四丁目","35.796307","140.779208","0","3"
"08","茨城県","08232","神栖市","082320026005","土合本町五丁目","35.797730","140.776848","0","3"
"08","茨城県","08232","神栖市","082320027001","土合南一丁目","35.785785","140.775592","0","3"
"08","茨城県","08232","神栖市","082320027002","土合南二丁目","35.787771","140.773642","0","3"
"08","茨城県","08232","神栖市","082320027003","土合南三丁目","35.790141","140.770743","0","3"
"08","茨城県","08232","神栖市","082320028000","東和田","35.901411","140.689788","0","1"
"08","茨城県","08232","神栖市","082320029000","日川","35.857103","140.690026","0","1"
"08","茨城県","08232","神栖市","082320030000","萩原","35.860199","140.667716","0","1"
"08","茨城県","08232","神栖市","082320031000","波崎","35.767438","140.798480","0","1"
"08","茨城県","08232","神栖市","082320032000","波崎新港","35.746831","140.839840","0","1"
"08","茨城県","08232","神栖市","082320033000","東深芝","35.904927","140.664343","0","1"
"08","茨城県","08232","神栖市","082320034000","光","35.925795","140.677384","0","1"
"08","茨城県","08232","神栖市","082320035000","平泉","35.910646","140.635050","0","1"
"08","茨城県","08232","神栖市","082320036000","平泉外十二入会","35.900890","140.636775","0","1"
"08","茨城県","08232","神栖市","082320037001","平泉東一丁目","35.902486","140.639682","0","3"
"08","茨城県","08232","神栖市","082320037002","平泉東二丁目","35.904612","140.643000","0","3"
"08","茨城県","08232","神栖市","082320037003","平泉東三丁目","35.906559","140.643484","0","3"
"08","茨城県","08232","神栖市","082320038000","深芝","35.916952","140.646110","0","1"
"08","茨城県","08232","神栖市","082320039001","深芝南一丁目","35.908810","140.650140","0","3"
"08","茨城県","08232","神栖市","082320039002","深芝南二丁目","35.908790","140.646762","0","3"
"08","茨城県","08232","神栖市","082320039003","深芝南三丁目","35.912737","140.650535","0","3"
"08","茨城県","08232","神栖市","082320039004","深芝南四丁目","35.917050","140.654503","0","3"
"08","茨城県","08232","神栖市","082320039005","深芝南五丁目","35.913828","140.654116","0","3"
"08","茨城県","08232","神栖市","082320040001","堀割一丁目","35.920915","140.635457","0","3"
"08","茨城県","08232","神栖市","082320040002","堀割二丁目","35.925247","140.636009","0","3"
"08","茨城県","08232","神栖市","082320040003","堀割三丁目","35.922457","140.639817","0","3"
"08","茨城県","08232","神栖市","082320041000","溝口","35.881531","140.664084","0","1"
"08","茨城県","08232","神栖市","082320042000","南浜","35.887364","140.728349","0","1"
"08","茨城県","08232","神栖市","082320043000","矢田部","35.801984","140.736859","0","1"
"08","茨城県","08232","神栖市","082320044000","柳川","35.861171","140.743223","0","1"
"08","茨城県","08232","神栖市","082320045001","柳川中央一丁目","35.859747","140.739254","0","3"
"08","茨城県","08232","神栖市","082320045002","柳川中央二丁目","35.863261","140.735718","0","3"
"08","茨城県","08232","神栖市","082320046000","横瀬","35.854590","140.707998","0","1"
"08","茨城県","08232","神栖市","082320047001","若松中央一丁目","35.836632","140.738488","0","3"
"08","茨城県","08232","神栖市","082320047002","若松中央二丁目","35.835128","140.735175","0","3"
"08","茨城県","08232","神栖市","082320047003","若松中央三丁目","35.833689","140.736290","0","3"
"08","茨城県","08232","神栖市","082320047004","若松中央四丁目","35.835199","140.739493","0","3"
"08","茨城県","08232","神栖市","082320047005","若松中央五丁目","35.833754","140.740520","0","3"
"08","茨城県","08232","神栖市","082320048000","鰐川","35.929597","140.627384","0","1"
