"PrefCode","PrefName","MuniCode","MuniName","DistCode","DistName","lat","lon","SrcCode","CatCode"
"08","茨城県","08231","桜川市","082310001000","青木","36.348354","140.085229","0","1"
"08","茨城県","08231","桜川市","082310002000","青柳","36.356713","140.116301","0","1"
"08","茨城県","08231","桜川市","082310003001","明日香一丁目","36.365912","140.107939","0","3"
"08","茨城県","08231","桜川市","082310003002","明日香二丁目","36.365481","140.110144","0","3"
"08","茨城県","08231","桜川市","082310003003","明日香三丁目","36.365152","140.112207","0","3"
"08","茨城県","08231","桜川市","082310003004","明日香四丁目","36.367220","140.109034","0","3"
"08","茨城県","08231","桜川市","082310004000","阿部田","36.316444","140.094630","0","1"
"08","茨城県","08231","桜川市","082310005000","飯渕","36.387969","140.095130","0","1"
"08","茨城県","08231","桜川市","082310006000","池亀","36.390918","140.166251","0","1"
"08","茨城県","08231","桜川市","082310007000","磯部","36.367029","140.137651","0","1"
"08","茨城県","08231","桜川市","082310008000","稲","36.371823","140.148023","0","1"
"08","茨城県","08231","桜川市","082310009000","犬田","36.348732","140.104240","0","1"
"08","茨城県","08231","桜川市","082310010000","今泉","36.328993","140.173790","0","1"
"08","茨城県","08231","桜川市","082310011000","入野","36.388707","140.120722","0","1"
"08","茨城県","08231","桜川市","082310012000","岩瀬","36.371524","140.122281","0","1"
"08","茨城県","08231","桜川市","082310013000","上野原地新田","36.349322","140.050205","0","1"
"08","茨城県","08231","桜川市","082310014000","大泉","36.389937","140.079821","0","1"
"08","茨城県","08231","桜川市","082310015000","大国玉","36.324921","140.071678","0","1"
"08","茨城県","08231","桜川市","082310016000","大曽根","36.314815","140.125553","0","1"
"08","茨城県","08231","桜川市","082310017000","大月","36.367945","140.170684","0","1"
"08","茨城県","08231","桜川市","082310018000","長方","36.356185","140.075013","0","1"
"08","茨城県","08231","桜川市","082310019000","門毛","36.401064","140.132090","0","1"
"08","茨城県","08231","桜川市","082310020000","金敷","36.322747","140.056009","0","1"
"08","茨城県","08231","桜川市","082310021000","上城","36.350701","140.126477","0","1"
"08","茨城県","08231","桜川市","082310022000","亀岡","36.377353","140.141047","0","1"
"08","茨城県","08231","桜川市","082310023000","加茂部","36.351501","140.157512","0","1"
"08","茨城県","08231","桜川市","082310024000","木植","36.321068","140.161464","0","1"
"08","茨城県","08231","桜川市","082310025000","久原","36.376399","140.088824","0","1"
"08","茨城県","08231","桜川市","082310026000","鍬田","36.360126","140.094086","0","1"
"08","茨城県","08231","桜川市","082310027000","小塩","36.378601","140.159263","0","1"
"08","茨城県","08231","桜川市","082310028001","御領一丁目","36.365497","140.104711","0","3"
"08","茨城県","08231","桜川市","082310028002","御領二丁目","36.365385","140.102241","0","3"
"08","茨城県","08231","桜川市","082310028003","御領三丁目","36.366843","140.102635","0","3"
"08","茨城県","08231","桜川市","082310029000","坂本","36.373667","140.168294","0","1"
"08","茨城県","08231","桜川市","082310030000","猿田","36.324230","140.146896","0","1"
"08","茨城県","08231","桜川市","082310031000","下泉","36.359751","140.053870","0","1"
"08","茨城県","08231","桜川市","082310032000","曽根","36.334311","140.144497","0","1"
"08","茨城県","08231","桜川市","082310033000","高久","36.313084","140.081890","0","1"
"08","茨城県","08231","桜川市","082310034000","高幡","36.342983","140.157098","0","1"
"08","茨城県","08231","桜川市","082310035000","高森","36.343591","140.070232","0","1"
"08","茨城県","08231","桜川市","082310036000","堤上","36.372115","140.060430","0","1"
"08","茨城県","08231","桜川市","082310037000","富岡","36.366447","140.087562","0","1"
"08","茨城県","08231","桜川市","082310038000","富谷","36.378676","140.106363","0","1"
"08","茨城県","08231","桜川市","082310039000","友部","36.348526","140.134775","0","1"
"08","茨城県","08231","桜川市","082310040000","中泉","36.355400","140.062938","0","1"
"08","茨城県","08231","桜川市","082310041000","中里","36.379802","140.118182","0","1"
"08","茨城県","08231","桜川市","082310042000","西飯岡","36.371560","140.075260","0","1"
"08","茨城県","08231","桜川市","082310043000","西小塙","36.363764","140.151777","0","1"
"08","茨城県","08231","桜川市","082310044001","西桜川一丁目","36.363390","140.101530","0","3"
"08","茨城県","08231","桜川市","082310044002","西桜川二丁目","36.363991","140.104533","0","3"
"08","茨城県","08231","桜川市","082310044003","西桜川三丁目","36.364151","140.107652","0","3"
"08","茨城県","08231","桜川市","082310045000","羽田","36.331673","140.089123","0","1"
"08","茨城県","08231","桜川市","082310046000","東飯田","36.309907","140.111579","0","1"
"08","茨城県","08231","桜川市","082310047001","東桜川一丁目","36.363652","140.110756","0","3"
"08","茨城県","08231","桜川市","082310047002","東桜川二丁目","36.362260","140.113105","0","3"
"08","茨城県","08231","桜川市","082310047003","東桜川三丁目","36.361556","140.116137","0","3"
"08","茨城県","08231","桜川市","082310048000","平沢","36.389899","140.151363","0","1"
"08","茨城県","08231","桜川市","082310049000","福崎","36.378623","140.152202","0","1"
"08","茨城県","08231","桜川市","082310050001","富士見台一丁目","36.364380","140.114318","0","3"
"08","茨城県","08231","桜川市","082310050002","富士見台二丁目","36.363566","140.116481","0","3"
"08","茨城県","08231","桜川市","082310050003","富士見台三丁目","36.366283","140.115073","0","3"
"08","茨城県","08231","桜川市","082310050004","富士見台四丁目","36.365471","140.117106","0","3"
"08","茨城県","08231","桜川市","082310051000","本郷","36.368849","140.047038","0","1"
"08","茨城県","08231","桜川市","082310052000","真壁町飯塚","36.276872","140.091337","0","1"
"08","茨城県","08231","桜川市","082310053000","真壁町伊佐々","36.271654","140.084865","0","1"
"08","茨城県","08231","桜川市","082310054000","真壁町大塚新田","36.308199","140.067828","0","1"
"08","茨城県","08231","桜川市","082310055000","真壁町上小幡","36.304587","140.120167","0","1"
"08","茨城県","08231","桜川市","082310056000","真壁町上谷貝","36.306490","140.058257","0","1"
"08","茨城県","08231","桜川市","082310057000","真壁町亀熊","36.289249","140.087205","0","1"
"08","茨城県","08231","桜川市","082310058000","真壁町源法寺","36.272946","140.070185","0","1"
"08","茨城県","08231","桜川市","082310059000","真壁町酒寄","36.235025","140.065023","0","1"
"08","茨城県","08231","桜川市","082310060000","真壁町桜井","36.276890","140.127700","0","1"
"08","茨城県","08231","桜川市","082310061000","真壁町椎尾","36.245887","140.072450","0","1"
"08","茨城県","08231","桜川市","082310062000","真壁町下小幡","36.300072","140.129152","0","1"
"08","茨城県","08231","桜川市","082310063000","真壁町下谷貝","36.287070","140.060152","0","1"
"08","茨城県","08231","桜川市","082310064000","真壁町白井","36.285631","140.127644","0","1"
"08","茨城県","08231","桜川市","082310065000","真壁町田","36.253551","140.108075","0","1"
"08","茨城県","08231","桜川市","082310066000","真壁町長岡","36.294420","140.134015","0","1"
"08","茨城県","08231","桜川市","082310067000","真壁町羽鳥","36.248615","140.095998","0","1"
"08","茨城県","08231","桜川市","082310068000","真壁町塙世","36.280572","140.079844","0","1"
"08","茨城県","08231","桜川市","082310069000","真壁町原方","36.301484","140.091879","0","1"
"08","茨城県","08231","桜川市","082310070000","真壁町東矢貝","36.297078","140.075697","0","1"
"08","茨城県","08231","桜川市","082310071000","真壁町東山田","36.252441","140.083293","0","1"
"08","茨城県","08231","桜川市","082310072000","真壁町古城","36.275635","140.106652","0","1"
"08","茨城県","08231","桜川市","082310073000","真壁町細芝","36.280226","140.062896","0","1"
"08","茨城県","08231","桜川市","082310074000","真壁町真壁","36.276831","140.100642","0","1"
"08","茨城県","08231","桜川市","082310075000","真壁町山尾","36.259131","140.120984","0","1"
"08","茨城県","08231","桜川市","082310076000","松田","36.338260","140.138076","0","1"
"08","茨城県","08231","桜川市","082310077000","間中","36.388650","140.140045","0","1"
"08","茨城県","08231","桜川市","082310078000","水戸","36.351973","140.121844","0","1"
"08","茨城県","08231","桜川市","082310079000","南飯田","36.386053","140.132033","0","1"
"08","茨城県","08231","桜川市","082310080000","本木","36.329665","140.112674","0","1"
"08","茨城県","08231","桜川市","082310081000","山口","36.385632","140.177454","0","1"
