"PrefCode","PrefName","MuniCode","MuniName","DistCode","DistName","lat","lon","SrcCode","CatCode"
"09","栃木県","09209","真岡市","092090001000","青田","36.37427","139.942822","0","1"
"09","栃木県","09209","真岡市","092090002000","青谷","36.421296","140.065047","0","1"
"09","栃木県","09209","真岡市","092090003000","赤羽","36.494465","140.042978","0","1"
"09","栃木県","09209","真岡市","092090004000","阿部岡","36.403224","140.040243","0","1"
"09","栃木県","09209","真岡市","092090005000","阿部品","36.37279","139.993457","0","1"
"09","栃木県","09209","真岡市","092090006000","荒町","36.441687","140.01315","0","1"
"09","栃木県","09209","真岡市","092090007002","荒町二丁目","36.446694","140.012303","0","3"
"09","栃木県","09209","真岡市","092090007003","荒町三丁目","36.444137","140.016409","0","3"
"09","栃木県","09209","真岡市","092090007004","荒町四丁目","36.448141","140.018168","0","3"
"09","栃木県","09209","真岡市","092090008000","飯貝","36.478688","140.02278","0","1"
"09","栃木県","09209","真岡市","092090009000","砂ケ原","36.382723","139.930665","0","1"
"09","栃木県","09209","真岡市","092090010000","石島","36.388652","139.974694","0","1"
"09","栃木県","09209","真岡市","092090011000","伊勢崎","36.425112","139.980244","0","1"
"09","栃木県","09209","真岡市","092090012000","大沼","36.437498","139.949976","0","1"
"09","栃木県","09209","真岡市","092090013000","大根田","36.378866","139.981373","0","1"
"09","栃木県","09209","真岡市","092090014000","大谷新町","36.433055","139.999283","0","1"
"09","栃木県","09209","真岡市","092090015000","大谷台町","36.435427","139.991404","0","1"
"09","栃木県","09209","真岡市","092090016000","大谷本町","36.434712","139.998215","0","1"
"09","栃木県","09209","真岡市","092090017000","大和田","36.404062","139.983686","0","1"
"09","栃木県","09209","真岡市","092090018000","沖","36.395032","139.984765","0","1"
"09","栃木県","09209","真岡市","092090019000","加倉","36.427811","139.955344","0","1"
"09","栃木県","09209","真岡市","092090020000","粕田","36.426593","139.942142","0","1"
"09","栃木県","09209","真岡市","092090021000","勝瓜","36.462392","139.963096","0","1"
"09","栃木県","09209","真岡市","092090022000","上江連","36.343317","139.921106","0","1"
"09","栃木県","09209","真岡市","092090023000","上大曽","36.390093","139.949446","0","1"
"09","栃木県","09209","真岡市","092090024000","上大田和","36.482893","140.011787","0","1"
"09","栃木県","09209","真岡市","092090025000","上大沼","36.439365","139.949588","0","1"
"09","栃木県","09209","真岡市","092090026000","上高間木","36.443235","139.983568","0","1"
"09","栃木県","09209","真岡市","092090027001","上高間木一丁目","36.446026","139.988359","0","3"
"09","栃木県","09209","真岡市","092090027002","上高間木二丁目","36.441871","139.986981","0","3"
"09","栃木県","09209","真岡市","092090027003","上高間木三丁目","36.438895","139.985476","0","3"
"09","栃木県","09209","真岡市","092090028000","上鷺谷","36.48649","139.998623","0","1"
"09","栃木県","09209","真岡市","092090029000","上谷貝","36.394297","139.937587","0","1"
"09","栃木県","09209","真岡市","092090030000","亀山","36.459253","139.982932","0","1"
"09","栃木県","09209","真岡市","092090031001","亀山一丁目","36.451435","139.986619","0","3"
"09","栃木県","09209","真岡市","092090031002","亀山二丁目","36.453428","139.988023","0","3"
"09","栃木県","09209","真岡市","092090031003","亀山三丁目","36.452253","139.978725","0","3"
"09","栃木県","09209","真岡市","092090032000","茅堤","36.424988","139.971297","0","1"
"09","栃木県","09209","真岡市","092090033000","鬼怒ケ丘","36.459723","139.968844","0","1"
"09","栃木県","09209","真岡市","092090034001","鬼怒ケ丘一丁目","36.451","139.972418","0","3"
"09","栃木県","09209","真岡市","092090035000","君島","36.417421","140.045286","0","1"
"09","栃木県","09209","真岡市","092090036000","京泉","36.479478","140.033217","0","1"
"09","栃木県","09209","真岡市","092090037000","久下田","36.375651","139.959841","0","1"
"09","栃木県","09209","真岡市","092090038001","久下田西一丁目","36.378672","139.96712","0","3"
"09","栃木県","09209","真岡市","092090038002","久下田西二丁目","36.374742","139.966351","0","3"
"09","栃木県","09209","真岡市","092090038003","久下田西三丁目","36.374874","139.96455","0","3"
"09","栃木県","09209","真岡市","092090038004","久下田西四丁目","36.378977","139.964993","0","3"
"09","栃木県","09209","真岡市","092090038005","久下田西五丁目","36.379052","139.963126","0","3"
"09","栃木県","09209","真岡市","092090038006","久下田西六丁目","36.3748","139.963069","0","3"
"09","栃木県","09209","真岡市","092090038007","久下田西七丁目","36.371755","139.964371","0","3"
"09","栃木県","09209","真岡市","092090039001","熊倉一丁目","36.449045","139.992682","0","3"
"09","栃木県","09209","真岡市","092090039002","熊倉二丁目","36.443894","139.992908","0","3"
"09","栃木県","09209","真岡市","092090039003","熊倉三丁目","36.43911","139.990674","0","3"
"09","栃木県","09209","真岡市","092090040000","熊倉町","36.451668","139.993803","0","1"
"09","栃木県","09209","真岡市","092090041000","桑ノ川","36.38038","140.002103","0","1"
"09","栃木県","09209","真岡市","092090042000","小橋","36.419103","139.980427","0","1"
"09","栃木県","09209","真岡市","092090043000","小林","36.428779","140.036524","0","1"
"09","栃木県","09209","真岡市","092090044000","古山","36.356475","139.943285","0","1"
"09","栃木県","09209","真岡市","092090045000","境","36.354386","139.957368","0","1"
"09","栃木県","09209","真岡市","092090046001","さくら一丁目","36.385979","139.967897","0","3"
"09","栃木県","09209","真岡市","092090046002","さくら二丁目","36.38231","139.967969","0","3"
"09","栃木県","09209","真岡市","092090046003","さくら三丁目","36.382484","139.96526","0","3"
"09","栃木県","09209","真岡市","092090046004","さくら四丁目","36.386094","139.965454","0","3"
"09","栃木県","09209","真岡市","092090047000","道祖土","36.411185","140.04333","0","1"
"09","栃木県","09209","真岡市","092090048000","鹿","36.388758","139.995164","0","1"
"09","栃木県","09209","真岡市","092090049000","島","36.434804","140.026606","0","1"
"09","栃木県","09209","真岡市","092090050000","清水","36.484752","140.064439","0","1"
"09","栃木県","09209","真岡市","092090051000","下大曽","36.380692","139.951656","0","1"
"09","栃木県","09209","真岡市","092090052000","下大田和","36.466622","140.005412","0","1"
"09","栃木県","09209","真岡市","092090053000","下大沼","36.431244","139.951857","0","1"
"09","栃木県","09209","真岡市","092090054000","下高間木","36.431188","139.983759","0","1"
"09","栃木県","09209","真岡市","092090055001","下高間木一丁目","36.434123","139.984703","0","3"
"09","栃木県","09209","真岡市","092090055002","下高間木二丁目","36.429404","139.98666","0","3"
"09","栃木県","09209","真岡市","092090056000","下籠谷","36.482789","139.979821","0","1"
"09","栃木県","09209","真岡市","092090057000","下鷺谷","36.467318","139.994128","0","1"
"09","栃木県","09209","真岡市","092090058000","須釜","36.419847","140.056676","0","1"
"09","栃木県","09209","真岡市","092090059000","反町","36.380906","140.018656","0","1"
"09","栃木県","09209","真岡市","092090060000","大道泉","36.370396","139.922614","0","1"
"09","栃木県","09209","真岡市","092090061000","台町","36.438502","140.004768","0","1"
"09","栃木県","09209","真岡市","092090062001","高勢町一丁目","36.436871","139.976452","0","3"
"09","栃木県","09209","真岡市","092090062002","高勢町二丁目","36.433783","139.977705","0","3"
"09","栃木県","09209","真岡市","092090062003","高勢町三丁目","36.428656","139.980218","0","3"
"09","栃木県","09209","真岡市","092090063000","高田","36.388653","140.019441","0","1"
"09","栃木県","09209","真岡市","092090064000","田島","36.464553","140.029167","0","1"
"09","栃木県","09209","真岡市","092090065000","田町","36.437133","140.013765","0","1"
"09","栃木県","09209","真岡市","092090066000","鶴田","36.461779","140.054121","0","1"
"09","栃木県","09209","真岡市","092090067000","寺内","36.412286","139.975877","0","1"
"09","栃木県","09209","真岡市","092090068001","寺久保一丁目","36.448403","140.002541","0","3"
"09","栃木県","09209","真岡市","092090069000","寺分","36.428375","139.944865","0","1"
"09","栃木県","09209","真岡市","092090070001","東光寺一丁目","36.441059","140.021211","0","3"
"09","栃木県","09209","真岡市","092090070002","東光寺二丁目","36.444502","140.023439","0","3"
"09","栃木県","09209","真岡市","092090070003","東光寺三丁目","36.442517","140.024979","0","3"
"09","栃木県","09209","真岡市","092090071000","中","36.414826","139.949091","0","1"
"09","栃木県","09209","真岡市","092090072000","中郷","36.454136","140.016484","0","1"
"09","栃木県","09209","真岡市","092090073000","長島","36.369769","139.954523","0","1"
"09","栃木県","09209","真岡市","092090074000","長田","36.444465","139.963202","0","1"
"09","栃木県","09209","真岡市","092090075001","長田一丁目","36.448647","139.965472","0","3"
"09","栃木県","09209","真岡市","092090076000","長沼","36.357931","139.933265","0","1"
"09","栃木県","09209","真岡市","092090077001","並木町一丁目","36.440278","140.001611","0","3"
"09","栃木県","09209","真岡市","092090077002","並木町二丁目","36.440639","139.996367","0","3"
"09","栃木県","09209","真岡市","092090077003","並木町三丁目","36.445441","139.997621","0","3"
"09","栃木県","09209","真岡市","092090077004","並木町四丁目","36.446927","140.00012","0","3"
"09","栃木県","09209","真岡市","092090078000","西大島","36.355145","139.913695","0","1"
"09","栃木県","09209","真岡市","092090079000","西郷","36.45697","140.006633","0","1"
"09","栃木県","09209","真岡市","092090080000","西高間木","36.439227","139.980762","0","1"
"09","栃木県","09209","真岡市","092090081000","西田井","36.451381","140.059924","0","1"
"09","栃木県","09209","真岡市","092090082000","西沼","36.427214","140.006227","0","1"
"09","栃木県","09209","真岡市","092090083000","根小屋","36.375596","140.015078","0","1"
"09","栃木県","09209","真岡市","092090084000","根本","36.432917","140.055627","0","1"
"09","栃木県","09209","真岡市","092090085000","白布ケ丘","36.437108","139.998909","0","1"
"09","栃木県","09209","真岡市","092090086000","八條","36.451188","140.041381","0","1"
"09","栃木県","09209","真岡市","092090087000","原町","36.473214","140.041072","0","1"
"09","栃木県","09209","真岡市","092090088000","東大島","36.412159","140.028489","0","1"
"09","栃木県","09209","真岡市","092090089000","東郷","36.450473","140.028034","0","1"
"09","栃木県","09209","真岡市","092090090000","東沼","36.424308","140.016717","0","1"
"09","栃木県","09209","真岡市","092090091000","程島","36.359266","139.951175","0","1"
"09","栃木県","09209","真岡市","092090092000","堀内","36.474004","140.008938","0","1"
"09","栃木県","09209","真岡市","092090093000","堀込","36.373771","139.932077","0","1"
"09","栃木県","09209","真岡市","092090094000","松山町","36.421824","139.963707","0","1"
"09","栃木県","09209","真岡市","092090095000","水戸部","36.382112","140.029234","0","1"
"09","栃木県","09209","真岡市","092090096000","南高岡","36.400233","140.058396","0","1"
"09","栃木県","09209","真岡市","092090097000","三谷","36.386738","140.046125","0","1"
"09","栃木県","09209","真岡市","092090098000","物井","36.402657","140.005281","0","1"
"09","栃木県","09209","真岡市","092090099000","谷貝新田","36.396905","139.92789","0","1"
"09","栃木県","09209","真岡市","092090100000","八木岡","36.421896","139.992344","0","1"
"09","栃木県","09209","真岡市","092090101000","柳林","36.451676","139.954388","0","1"
"09","栃木県","09209","真岡市","092090102000","横田","36.410874","139.992718","0","1"
"09","栃木県","09209","真岡市","092090103000","若旅","36.399922","139.946008","0","1"
"09","栃木県","09209","真岡市","092090104000","鷲巣","36.35797","139.921687","0","1"
"09","栃木県","09209","真岡市","092090075003","長田三丁目","36.440284","139.959209","0","3"
"09","栃木県","09209","真岡市","092090075002","長田二丁目","36.438291","139.965472","0","3"
"09","栃木県","09209","真岡市","092090075005","長田五丁目","36.435617","139.96012","0","3"
"09","栃木県","09209","真岡市","092090075004","長田四丁目","36.438653","139.959478","0","3"
"09","栃木県","09209","真岡市","092090105002","上大沼二丁目","36.438384","139.955357","0","3"
"09","栃木県","09209","真岡市","092090105001","上大沼一丁目","36.435028","139.95546","0","3"
"09","栃木県","09209","真岡市","092090106002","下大沼二丁目","36.432324","139.956267","0","3"
"09","栃木県","09209","真岡市","092090106001","下大沼一丁目","36.432385","139.959105","0","3"
