"PrefCode","PrefName","MuniCode","MuniName","DistCode","DistName","lat","lon","SrcCode","CatCode"
"10","群馬県","10344","北群馬郡榛東村","103440001000","大字新井","36.438067","138.970280","0","1"
"10","群馬県","10344","北群馬郡榛東村","103440002000","大字上野原","36.459895","138.936629","0","1"
"10","群馬県","10344","北群馬郡榛東村","103440003000","大字長岡","36.450961","138.979964","0","1"
"10","群馬県","10344","北群馬郡榛東村","103440004000","大字広馬場","36.441590","138.941024","0","1"
"10","群馬県","10344","北群馬郡榛東村","103440005000","大字山子田","36.446486","138.966970","0","1"
