"PrefCode","PrefName","MuniCode","MuniName","DistCode","DistName","lat","lon","SrcCode","CatCode"
"11","埼玉県","11208","所沢市","112080001004","美原町四丁目","35.814929","139.461329","0","3"
"11","埼玉県","11208","所沢市","112080001005","美原町五丁目","35.810190","139.457101","0","3"
"11","埼玉県","11208","所沢市","112080001003","美原町三丁目","35.812819","139.459924","0","3"
"11","埼玉県","11208","所沢市","112080001001","美原町一丁目","35.808640","139.460511","0","3"
"11","埼玉県","11208","所沢市","112080002000","西住吉","35.785525","139.466650","0","1"
"11","埼玉県","11208","所沢市","112080001002","美原町二丁目","35.811211","139.459622","0","3"
"11","埼玉県","11208","所沢市","112080003003","くすのき台三丁目","35.787060","139.477636","0","3"
"11","埼玉県","11208","所沢市","112080004007","並木七丁目","35.807948","139.478069","0","3"
"11","埼玉県","11208","所沢市","112080005003","花園三丁目","35.815014","139.458718","0","3"
"11","埼玉県","11208","所沢市","112080005004","花園四丁目","35.816414","139.461019","0","3"
"11","埼玉県","11208","所沢市","112080006000","喜多町","35.798933","139.462932","0","1"
"11","埼玉県","11208","所沢市","112080003002","くすのき台二丁目","35.789236","139.478701","0","3"
"11","埼玉県","11208","所沢市","112080004002","並木二丁目","35.800639","139.464304","0","3"
"11","埼玉県","11208","所沢市","112080007006","小手指南六丁目","35.782684","139.427666","0","3"
"11","埼玉県","11208","所沢市","112080008000","御幸町","35.792398","139.470617","0","1"
"11","埼玉県","11208","所沢市","112080009005","小手指町五丁目","35.795134","139.437464","0","3"
"11","埼玉県","11208","所沢市","112080010002","星の宮二丁目","35.786414","139.460994","0","3"
"11","埼玉県","11208","所沢市","112080010001","星の宮一丁目","35.787121","139.462942","0","3"
"11","埼玉県","11208","所沢市","112080011000","大字新郷","35.803134","139.506058","0","1"
"11","埼玉県","11208","所沢市","112080007001","小手指南一丁目","35.787427","139.440269","0","3"
"11","埼玉県","11208","所沢市","112080012000","有楽町","35.793631","139.466797","0","1"
"11","埼玉県","11208","所沢市","112080013000","金山町","35.790807","139.461496","0","1"
"11","埼玉県","11208","所沢市","112080014000","東町","35.790365","139.471482","0","1"
"11","埼玉県","11208","所沢市","112080015000","寿町","35.789207","139.467517","0","1"
"11","埼玉県","11208","所沢市","112080016001","中富南一丁目","35.810041","139.490606","0","3"
"11","埼玉県","11208","所沢市","112080017000","榎町","35.805848","139.444760","0","1"
"11","埼玉県","11208","所沢市","112080003001","くすのき台一丁目","35.787673","139.475048","0","3"
"11","埼玉県","11208","所沢市","112080007002","小手指南二丁目","35.789408","139.430535","0","3"
"11","埼玉県","11208","所沢市","112080016002","中富南二丁目","35.811323","139.494087","0","3"
"11","埼玉県","11208","所沢市","112080018002","和ケ原二丁目","35.808619","139.407672","0","3"
"11","埼玉県","11208","所沢市","112080016003","中富南三丁目","35.813190","139.493019","0","3"
"11","埼玉県","11208","所沢市","112080019002","緑町二丁目","35.803565","139.456082","0","3"
"11","埼玉県","11208","所沢市","112080020000","北有楽町","35.796260","139.465848","0","1"
"11","埼玉県","11208","所沢市","112080005002","花園二丁目","35.814444","139.456819","0","3"
"11","埼玉県","11208","所沢市","112080021000","旭町","35.791167","139.475849","0","1"
"11","埼玉県","11208","所沢市","112080005001","花園一丁目","35.814068","139.453953","0","3"
"11","埼玉県","11208","所沢市","112080022002","西所沢二丁目","35.792962","139.455805","0","3"
"11","埼玉県","11208","所沢市","112080023003","中新井三丁目","35.816307","139.475224","0","3"
"11","埼玉県","11208","所沢市","112080023005","中新井五丁目","35.816574","139.477582","0","3"
"11","埼玉県","11208","所沢市","112080004005","並木五丁目","35.811110","139.463432","0","3"
"11","埼玉県","11208","所沢市","112080024000","弥生町","35.804218","139.460828","0","1"
"11","埼玉県","11208","所沢市","112080025000","日吉町","35.787257","139.471101","0","1"
"11","埼玉県","11208","所沢市","112080026005","東所沢五丁目","35.795670","139.518172","0","3"
"11","埼玉県","11208","所沢市","112080027001","宮本町一丁目","35.793452","139.461583","0","3"
"11","埼玉県","11208","所沢市","112080023002","中新井二丁目","35.817266","139.468817","0","3"
"11","埼玉県","11208","所沢市","112080028000","小手指台","35.791662","139.442006","0","1"
"11","埼玉県","11208","所沢市","112080029000","松葉町","35.807568","139.457675","0","1"
"11","埼玉県","11208","所沢市","112080030000","東住吉","35.784193","139.470530","0","1"
"11","埼玉県","11208","所沢市","112080031000","こぶし町","35.799488","139.484095","0","1"
"11","埼玉県","11208","所沢市","112080023004","中新井四丁目","35.813769","139.474444","0","3"
"11","埼玉県","11208","所沢市","112080023001","中新井一丁目","35.815261","139.466774","0","3"
"11","埼玉県","11208","所沢市","112080032001","小手指元町一丁目","35.792733","139.437718","0","3"
"11","埼玉県","11208","所沢市","112080026004","東所沢四丁目","35.801013","139.521561","0","3"
"11","埼玉県","11208","所沢市","112080033000","泉町","35.801001","139.460051","0","1"
"11","埼玉県","11208","所沢市","112080027002","宮本町二丁目","35.796610","139.461295","0","3"
"11","埼玉県","11208","所沢市","112080018003","和ケ原三丁目","35.804640","139.403907","0","3"
"11","埼玉県","11208","所沢市","112080007005","小手指南五丁目","35.785752","139.431943","0","3"
"11","埼玉県","11208","所沢市","112080032002","小手指元町二丁目","35.793394","139.434046","0","3"
"11","埼玉県","11208","所沢市","112080034001","上新井一丁目","35.789928","139.450791","0","3"
"11","埼玉県","11208","所沢市","112080035000","元町","35.789209","139.465026","0","1"
"11","埼玉県","11208","所沢市","112080036001","西狭山ケ丘一丁目","35.804593","139.407712","0","3"
"11","埼玉県","11208","所沢市","112080037002","狭山ケ丘二丁目","35.811222","139.410762","0","3"
"11","埼玉県","11208","所沢市","112080038000","大字中新井","35.819248","139.471283","0","1"
"11","埼玉県","11208","所沢市","112080039001","北野南一丁目","35.784795","139.425860","0","3"
"11","埼玉県","11208","所沢市","112080022001","西所沢一丁目","35.789437","139.457927","0","3"
"11","埼玉県","11208","所沢市","112080040000","北所沢町","35.810594","139.453908","0","1"
"11","埼玉県","11208","所沢市","112080041003","東狭山ケ丘三丁目","35.812644","139.423538","0","3"
"11","埼玉県","11208","所沢市","112080042000","南住吉","35.782203","139.468801","0","1"
"11","埼玉県","11208","所沢市","112080041004","東狭山ケ丘四丁目","35.809311","139.427335","0","3"
"11","埼玉県","11208","所沢市","112080019001","緑町一丁目","35.805384","139.453489","0","3"
"11","埼玉県","11208","所沢市","112080009004","小手指町四丁目","35.798182","139.434319","0","3"
"11","埼玉県","11208","所沢市","112080043003","若狭三丁目","35.802231","139.417753","0","3"
"11","埼玉県","11208","所沢市","112080043004","若狭四丁目","35.805326","139.416037","0","3"
"11","埼玉県","11208","所沢市","112080041002","東狭山ケ丘二丁目","35.809387","139.422348","0","3"
"11","埼玉県","11208","所沢市","112080037001","狭山ケ丘一丁目","35.809326","139.415729","0","3"
"11","埼玉県","11208","所沢市","112080044002","けやき台二丁目","35.798354","139.457366","0","3"
"11","埼玉県","11208","所沢市","112080004008","並木八丁目","35.810606","139.476621","0","3"
"11","埼玉県","11208","所沢市","112080039003","北野南三丁目","35.786375","139.418238","0","3"
"11","埼玉県","11208","所沢市","112080044001","けやき台一丁目","35.799660","139.453344","0","3"
"11","埼玉県","11208","所沢市","112080045000","西新井町","35.794024","139.474307","0","1"
"11","埼玉県","11208","所沢市","112080046000","青葉台","35.806944","139.441303","0","1"
"11","埼玉県","11208","所沢市","112080007004","小手指南四丁目","35.787462","139.430323","0","3"
"11","埼玉県","11208","所沢市","112080007003","小手指南三丁目","35.787084","139.437247","0","3"
"11","埼玉県","11208","所沢市","112080009003","小手指町三丁目","35.799622","139.436786","0","3"
"11","埼玉県","11208","所沢市","112080047001","北野新町一丁目","35.800615","139.430793","0","3"
"11","埼玉県","11208","所沢市","112080048003","林三丁目","35.808193","139.402525","0","3"
"11","埼玉県","11208","所沢市","112080036002","西狭山ケ丘二丁目","35.801781","139.407200","0","3"
"11","埼玉県","11208","所沢市","112080026001","東所沢一丁目","35.797784","139.517740","0","3"
"11","埼玉県","11208","所沢市","112080018001","和ケ原一丁目","35.806866","139.410672","0","3"
"11","埼玉県","11208","所沢市","112080032003","小手指元町三丁目","35.792742","139.430489","0","3"
"11","埼玉県","11208","所沢市","112080049000","東新井町","35.795172","139.480034","0","1"
"11","埼玉県","11208","所沢市","112080043002","若狭二丁目","35.803660","139.423849","0","3"
"11","埼玉県","11208","所沢市","112080050003","北中三丁目","35.811072","139.441638","0","3"
"11","埼玉県","11208","所沢市","112080019003","緑町三丁目","35.801686","139.448844","0","3"
"11","埼玉県","11208","所沢市","112080043001","若狭一丁目","35.805742","139.420424","0","3"
"11","埼玉県","11208","所沢市","112080026003","東所沢三丁目","35.802672","139.518265","0","3"
"11","埼玉県","11208","所沢市","112080004004","並木四丁目","35.806899","139.464978","0","3"
"11","埼玉県","11208","所沢市","112080051000","若松町","35.802187","139.483754","0","1"
"11","埼玉県","11208","所沢市","112080052003","東所沢和田三丁目","35.796443","139.507597","0","3"
"11","埼玉県","11208","所沢市","112080052002","東所沢和田二丁目","35.793546","139.508331","0","3"
"11","埼玉県","11208","所沢市","112080053000","向陽町","35.810958","139.447856","0","1"
"11","埼玉県","11208","所沢市","112080034004","上新井四丁目","35.800433","139.444686","0","3"
"11","埼玉県","11208","所沢市","112080050001","北中一丁目","35.808367","139.432236","0","3"
"11","埼玉県","11208","所沢市","112080034003","上新井三丁目","35.795872","139.442167","0","3"
"11","埼玉県","11208","所沢市","112080016004","中富南四丁目","35.814906","139.499025","0","3"
"11","埼玉県","11208","所沢市","112080041001","東狭山ケ丘一丁目","35.813739","139.418401","0","3"
"11","埼玉県","11208","所沢市","112080009002","小手指町二丁目","35.804984","139.432507","0","3"
"11","埼玉県","11208","所沢市","112080054001","松が丘一丁目","35.775038","139.464772","0","3"
"11","埼玉県","11208","所沢市","112080039002","北野南二丁目","35.785924","139.422397","0","3"
"11","埼玉県","11208","所沢市","112080054002","松が丘二丁目","35.771929","139.456069","0","3"
"11","埼玉県","11208","所沢市","112080041006","東狭山ケ丘六丁目","35.816836","139.423358","0","3"
"11","埼玉県","11208","所沢市","112080055004","三ケ島四丁目","35.799809","139.414567","0","3"
"11","埼玉県","11208","所沢市","112080019004","緑町四丁目","35.806888","139.449500","0","3"
"11","埼玉県","11208","所沢市","112080052001","東所沢和田一丁目","35.791244","139.510627","0","3"
"11","埼玉県","11208","所沢市","112080056001","北野一丁目","35.792985","139.426433","0","3"
"11","埼玉県","11208","所沢市","112080026002","東所沢二丁目","35.801359","139.514112","0","3"
"11","埼玉県","11208","所沢市","112080009001","小手指町一丁目","35.803317","139.439215","0","3"
"11","埼玉県","11208","所沢市","112080034002","上新井二丁目","35.793903","139.447841","0","3"
"11","埼玉県","11208","所沢市","112080004003","並木三丁目","35.802875","139.467515","0","3"
"11","埼玉県","11208","所沢市","112080050004","北中四丁目","35.817367","139.437211","0","3"
"11","埼玉県","11208","所沢市","112080057000","岩岡町","35.816978","139.442325","0","1"
"11","埼玉県","11208","所沢市","112080034005","上新井五丁目","35.796781","139.450347","0","3"
"11","埼玉県","11208","所沢市","112080050002","北中二丁目","35.811071","139.434550","0","3"
"11","埼玉県","11208","所沢市","112080055002","三ケ島二丁目","35.785933","139.402018","0","3"
"11","埼玉県","11208","所沢市","112080047002","北野新町二丁目","35.801112","139.425873","0","3"
"11","埼玉県","11208","所沢市","112080058000","所沢新町","35.819280","139.460852","0","1"
"11","埼玉県","11208","所沢市","112080055003","三ケ島三丁目","35.794377","139.409404","0","3"
"11","埼玉県","11208","所沢市","112080041005","東狭山ケ丘五丁目","35.816436","139.430414","0","3"
"11","埼玉県","11208","所沢市","112080056002","北野二丁目","35.793807","139.421579","0","3"
"11","埼玉県","11208","所沢市","112080056003","北野三丁目","35.794577","139.415809","0","3"
"11","埼玉県","11208","所沢市","112080059000","大字下新井","35.805188","139.489825","0","1"
"11","埼玉県","11208","所沢市","112080060000","北原町","35.807532","139.485353","0","1"
"11","埼玉県","11208","所沢市","112080048002","林二丁目","35.803991","139.398095","0","3"
"11","埼玉県","11208","所沢市","112080048001","林一丁目","35.801849","139.391764","0","3"
"11","埼玉県","11208","所沢市","112080061000","堀之内","35.787716","139.395279","0","1"
"11","埼玉県","11208","所沢市","112080062000","大字亀ケ谷","35.808143","139.518267","0","1"
"11","埼玉県","11208","所沢市","112080004001","並木一丁目","35.798465","139.473012","0","3"
"11","埼玉県","11208","所沢市","112080063000","糀谷","35.791992","139.391724","0","1"
"11","埼玉県","11208","所沢市","112080055001","三ケ島一丁目","35.787308","139.411237","0","3"
"11","埼玉県","11208","所沢市","112080064000","大字本郷","35.794637","139.523769","0","1"
"11","埼玉県","11208","所沢市","112080065000","大字松郷","35.797405","139.501878","0","1"
"11","埼玉県","11208","所沢市","112080066000","大字北秋津","35.781794","139.480129","0","1"
"11","埼玉県","11208","所沢市","112080067000","大字神米金","35.823751","139.465719","0","1"
"11","埼玉県","11208","所沢市","112080068000","大字日比田","35.806167","139.505519","0","1"
"11","埼玉県","11208","所沢市","112080055005","三ケ島五丁目","35.793905","139.401066","0","3"
"11","埼玉県","11208","所沢市","112080069000","大字城","35.800709","139.528878","0","1"
"11","埼玉県","11208","所沢市","112080004006","並木六丁目","35.807965","139.472055","0","3"
"11","埼玉県","11208","所沢市","112080070000","大字牛沼","35.795678","139.489477","0","1"
"11","埼玉県","11208","所沢市","112080071000","大字久米","35.780351","139.463130","0","1"
"11","埼玉県","11208","所沢市","112080072000","大字上安松","35.785980","139.489900","0","1"
"11","埼玉県","11208","所沢市","112080073000","大字下安松","35.787864","139.504527","0","1"
"11","埼玉県","11208","所沢市","112080074000","大字坂之下","35.811834","139.537801","0","1"
"11","埼玉県","11208","所沢市","112080075000","大字北岩岡","35.821950","139.445813","0","1"
"11","埼玉県","11208","所沢市","112080076000","大字荒幡","35.776004","139.447185","0","1"
"11","埼玉県","11208","所沢市","112080077000","大字上山口","35.774956","139.421171","0","1"
"11","埼玉県","11208","所沢市","112080078000","大字南永井","35.816795","139.524933","0","1"
"11","埼玉県","11208","所沢市","112080079000","大字中富","35.821038","139.485979","0","1"
"11","埼玉県","11208","所沢市","112080080000","大字山口","35.778544","139.435301","0","1"
"11","埼玉県","11208","所沢市","112080081000","大字勝楽寺","35.773236","139.397635","0","1"
"11","埼玉県","11208","所沢市","112080082000","大字下富","35.833131","139.462623","0","1"
