"PrefCode","PrefName","MuniCode","MuniName","DistCode","DistName","lat","lon","SrcCode","CatCode"
11,埼玉県,11211,本庄市,112110001001,五十子一丁目,36.227211,139.193647,0,3
11,埼玉県,11211,本庄市,112110002005,見福五丁目,36.230059,139.175426,0,3
11,埼玉県,11211,本庄市,112110003002,万年寺二丁目,36.252194,139.163601,0,3
11,埼玉県,11211,本庄市,112110002004,見福四丁目,36.23032,139.177983,0,3
11,埼玉県,11211,本庄市,112110001002,五十子二丁目,36.226731,139.196374,0,3
11,埼玉県,11211,本庄市,112110004003,児玉町児玉南三丁目,36.184644,139.13573,0,3
11,埼玉県,11211,本庄市,112110005002,銀座二丁目,36.239125,139.187837,0,3
11,埼玉県,11211,本庄市,112110006003,中央三丁目,36.242523,139.183278,0,3
11,埼玉県,11211,本庄市,112110007001,四季の里一丁目,36.226077,139.194188,0,3
11,埼玉県,11211,本庄市,112110005003,銀座三丁目,36.237846,139.186631,0,3
11,埼玉県,11211,本庄市,112110008003,東台三丁目,36.238534,139.195545,0,3
11,埼玉県,11211,本庄市,112110009001,千代田一丁目,36.240624,139.180739,0,3
11,埼玉県,11211,本庄市,112110010002,柏二丁目,36.231878,139.175912,0,3
11,埼玉県,11211,本庄市,112110006001,中央一丁目,36.24165,139.186796,0,3
11,埼玉県,11211,本庄市,112110011001,南一丁目,36.236913,139.182692,0,3
11,埼玉県,11211,本庄市,112110012002,けや木二丁目,36.230142,139.189793,0,3
11,埼玉県,11211,本庄市,112110007002,四季の里二丁目,36.224357,139.195742,0,3
11,埼玉県,11211,本庄市,112110013001,本庄一丁目,36.237838,139.189655,0,3
11,埼玉県,11211,本庄市,112110007003,四季の里三丁目,36.223014,139.196217,0,3
11,埼玉県,11211,本庄市,112110005001,銀座一丁目,36.239406,139.184082,0,3
11,埼玉県,11211,本庄市,112110008001,東台一丁目,36.234295,139.194741,0,3
11,埼玉県,11211,本庄市,112110002003,見福三丁目,36.228967,139.181205,0,3
11,埼玉県,11211,本庄市,112110003001,万年寺一丁目,36.251567,139.165449,0,3
11,埼玉県,11211,本庄市,112110001003,五十子三丁目,36.227191,139.199698,0,3
11,埼玉県,11211,本庄市,112110004001,児玉町児玉南一丁目,36.184818,139.130085,0,3
11,埼玉県,11211,本庄市,112110009003,千代田三丁目,36.24467,139.17883,0,3
11,埼玉県,11211,本庄市,112110014003,いまい台三丁目,36.218017,139.158217,0,3
11,埼玉県,11211,本庄市,112110015002,下野堂二丁目,36.249219,139.162579,0,3
11,埼玉県,11211,本庄市,112110009002,千代田二丁目,36.24253,139.176265,0,3
11,埼玉県,11211,本庄市,112110016002,小島南二丁目,36.240653,139.169204,0,3
11,埼玉県,11211,本庄市,112110017002,緑二丁目,36.227656,139.176823,0,3
11,埼玉県,11211,本庄市,112110015001,下野堂一丁目,36.249059,139.165724,0,3
11,埼玉県,11211,本庄市,112110003003,万年寺三丁目,36.252913,139.161205,0,3
11,埼玉県,11211,本庄市,112110017001,緑一丁目,36.227084,139.180648,0,3
11,埼玉県,11211,本庄市,112110004002,児玉町児玉南二丁目,36.184412,139.133015,0,3
11,埼玉県,11211,本庄市,112110018004,早稲田の杜四丁目,36.224946,139.184495,0,3
11,埼玉県,11211,本庄市,112110018003,早稲田の杜三丁目,36.223713,139.181667,0,3
11,埼玉県,11211,本庄市,112110011002,南二丁目,36.234387,139.179322,0,3
11,埼玉県,11211,本庄市,112110019003,小島三丁目,36.248818,139.167863,0,3
11,埼玉県,11211,本庄市,112110017003,緑三丁目,36.227807,139.172607,0,3
11,埼玉県,11211,本庄市,112110012001,けや木一丁目,36.231575,139.18709,0,3
11,埼玉県,11211,本庄市,112110009004,千代田四丁目,36.243532,139.181025,0,3
11,埼玉県,11211,本庄市,112110008004,東台四丁目,36.239851,139.197034,0,3
11,埼玉県,11211,本庄市,112110020001,栄一丁目,36.238449,139.173137,0,3
11,埼玉県,11211,本庄市,112110006002,中央二丁目,36.24326,139.187041,0,3
11,埼玉県,11211,本庄市,112110018005,早稲田の杜五丁目,36.218904,139.187045,0,3
11,埼玉県,11211,本庄市,112110018002,早稲田の杜二丁目,36.221022,139.183317,0,3
11,埼玉県,11211,本庄市,112110021001,朝日町一丁目,36.232067,139.193092,0,3
11,埼玉県,11211,本庄市,112110019004,小島四丁目,36.250437,139.171344,0,3
11,埼玉県,11211,本庄市,112110004004,児玉町児玉南四丁目,36.182211,139.132979,0,3
11,埼玉県,11211,本庄市,112110013004,本庄四丁目,36.245401,139.192715,0,3
11,埼玉県,11211,本庄市,112110019005,小島五丁目,36.249065,139.174485,0,3
11,埼玉県,11211,本庄市,112110015003,下野堂三丁目,36.25065,139.158941,0,3
11,埼玉県,11211,本庄市,112110021003,朝日町三丁目,36.229568,139.19272,0,3
11,埼玉県,11211,本庄市,112110022003,日の出三丁目,36.235744,139.202921,0,3
11,埼玉県,11211,本庄市,112110023001,寿一丁目,36.228783,139.202021,0,3
11,埼玉県,11211,本庄市,112110013002,本庄二丁目,36.2375,139.19166,0,3
11,埼玉県,11211,本庄市,112110008002,東台二丁目,36.236554,139.195272,0,3
11,埼玉県,11211,本庄市,112110024001,前原一丁目,36.23838,139.180086,0,3
11,埼玉県,11211,本庄市,112110016004,小島南四丁目,36.244211,139.167333,0,3
11,埼玉県,11211,本庄市,112110012003,けや木三丁目,36.228518,139.186373,0,3
11,埼玉県,11211,本庄市,112110025000,上仁手,36.261383,139.207072,0,1
11,埼玉県,11211,本庄市,112110026001,駅南一丁目,36.235633,139.185193,0,3
11,埼玉県,11211,本庄市,112110021002,朝日町二丁目,36.230601,139.196296,0,3
11,埼玉県,11211,本庄市,112110020003,栄三丁目,36.230909,139.172095,0,3
11,埼玉県,11211,本庄市,112110002002,見福二丁目,36.232076,139.184221,0,3
11,埼玉県,11211,本庄市,112110022002,日の出二丁目,36.234423,139.199635,0,3
11,埼玉県,11211,本庄市,112110024002,前原二丁目,36.239915,139.175653,0,3
11,埼玉県,11211,本庄市,112110026002,駅南二丁目,36.233834,139.189346,0,3
11,埼玉県,11211,本庄市,112110002001,見福一丁目,36.232949,139.181233,0,3
11,埼玉県,11211,本庄市,112110019002,小島二丁目,36.247474,139.169825,0,3
11,埼玉県,11211,本庄市,112110008005,東台五丁目,36.242808,139.197551,0,3
11,埼玉県,11211,本庄市,112110022001,日の出一丁目,36.23201,139.198709,0,3
11,埼玉県,11211,本庄市,112110016001,小島南一丁目,36.242361,139.171464,0,3
11,埼玉県,11211,本庄市,112110027001,若泉一丁目,36.246008,139.187421,0,3
11,埼玉県,11211,本庄市,112110010001,柏一丁目,36.235766,139.176177,0,3
11,埼玉県,11211,本庄市,112110027003,若泉三丁目,36.249312,139.186151,0,3
11,埼玉県,11211,本庄市,112110014002,いまい台二丁目,36.221797,139.159188,0,3
11,埼玉県,11211,本庄市,112110020002,栄二丁目,36.235108,139.172372,0,3
11,埼玉県,11211,本庄市,112110019001,小島一丁目,36.245747,139.173085,0,3
11,埼玉県,11211,本庄市,112110028000,杉山,36.258962,139.168288,0,1
11,埼玉県,11211,本庄市,112110027002,若泉二丁目,36.246782,139.183253,0,3
11,埼玉県,11211,本庄市,112110013003,本庄三丁目,36.242246,139.192117,0,3
11,埼玉県,11211,本庄市,112110014001,いまい台一丁目,36.223715,139.161563,0,3
11,埼玉県,11211,本庄市,112110029000,児玉町高関,36.217321,139.160095,0,1
11,埼玉県,11211,本庄市,112110016003,小島南三丁目,36.241508,139.164676,0,3
11,埼玉県,11211,本庄市,112110022004,日の出四丁目,36.239514,139.201507,0,3
11,埼玉県,11211,本庄市,112110018001,早稲田の杜一丁目,36.21913,139.180982,0,3
11,埼玉県,11211,本庄市,112110019006,小島六丁目,36.247437,139.178174,0,3
11,埼玉県,11211,本庄市,112110023002,寿二丁目,36.231379,139.204585,0,3
11,埼玉県,11211,本庄市,112110030000,下野堂,36.245926,139.164022,0,1
11,埼玉県,11211,本庄市,112110031000,児玉町元田,36.168874,139.108132,0,1
11,埼玉県,11211,本庄市,112110023003,寿三丁目,36.232407,139.209269,0,3
11,埼玉県,11211,本庄市,112110032000,児玉町長沖,36.179613,139.125188,0,1
11,埼玉県,11211,本庄市,112110033000,共栄,36.222173,139.14294,0,1
11,埼玉県,11211,本庄市,112110034000,東富田,36.221582,139.175012,0,1
11,埼玉県,11211,本庄市,112110035000,児玉町下真下,36.217057,139.143943,0,1
11,埼玉県,11211,本庄市,112110036000,都島,36.258948,139.174702,0,1
11,埼玉県,11211,本庄市,112110037000,児玉町田端,36.196131,139.112717,0,1
11,埼玉県,11211,本庄市,112110038000,四方田,36.219213,139.169765,0,1
11,埼玉県,11211,本庄市,112110039000,鵜森,36.232858,139.215805,0,1
11,埼玉県,11211,本庄市,112110040000,滝瀬,36.229553,139.241753,0,1
11,埼玉県,11211,本庄市,112110041000,児玉町保木野,36.203369,139.115248,0,1
11,埼玉県,11211,本庄市,112110042000,小島,36.254462,139.168526,0,1
11,埼玉県,11211,本庄市,112110043000,東五十子,36.226387,139.213191,0,1
11,埼玉県,11211,本庄市,112110044000,傍示堂,36.240344,139.21229,0,1
11,埼玉県,11211,本庄市,112110045000,児玉町共栄,36.216126,139.134667,0,1
11,埼玉県,11211,本庄市,112110046000,児玉町八幡山,36.196127,139.128566,0,1
11,埼玉県,11211,本庄市,112110047000,西五十子,36.223059,139.203786,0,1
11,埼玉県,11211,本庄市,112110048000,田中,36.25647,139.194607,0,1
11,埼玉県,11211,本庄市,112110049000,西富田,36.230704,139.165533,0,1
11,埼玉県,11211,本庄市,112110050000,北堀,36.221917,139.191481,0,1
11,埼玉県,11211,本庄市,112110051000,堀田,36.228788,139.233536,0,1
11,埼玉県,11211,本庄市,112110052000,山王堂,36.26293,139.187642,0,1
11,埼玉県,11211,本庄市,112110053000,宮戸,36.240362,139.239453,0,1
11,埼玉県,11211,本庄市,112110054000,下仁手,36.253126,139.222236,0,1
11,埼玉県,11211,本庄市,112110055000,児玉町上真下,36.20784,139.132433,0,1
11,埼玉県,11211,本庄市,112110056000,久々宇,36.254144,139.202623,0,1
11,埼玉県,11211,本庄市,112110057000,児玉町入浅見,36.20087,139.155911,0,1
11,埼玉県,11211,本庄市,112110058000,沼和田,36.256085,139.18381,0,1
11,埼玉県,11211,本庄市,112110059000,児玉町下浅見,36.212761,139.166005,0,1
11,埼玉県,11211,本庄市,112110060000,小和瀬,36.245998,139.230385,0,1
11,埼玉県,11211,本庄市,112110061000,児玉町吉田林,36.19981,139.137918,0,1
11,埼玉県,11211,本庄市,112110062000,新井,36.267258,139.174716,0,1
11,埼玉県,11211,本庄市,112110063000,栗崎,36.212266,139.18377,0,1
11,埼玉県,11211,本庄市,112110064000,児玉町塩谷,36.183051,139.106411,0,1
11,埼玉県,11211,本庄市,112110065000,牧西,36.234986,139.227329,0,1
11,埼玉県,11211,本庄市,112110066000,今井,36.225523,139.152896,0,1
11,埼玉県,11211,本庄市,112110067000,児玉町高柳,36.173929,139.108248,0,1
11,埼玉県,11211,本庄市,112110068000,児玉町蛭川,36.20746,139.14751,0,1
11,埼玉県,11211,本庄市,112110069000,仁手,36.248813,139.214459,0,1
11,埼玉県,11211,本庄市,112110070000,児玉町宮内,36.180786,139.082993,0,1
11,埼玉県,11211,本庄市,112110071000,児玉町金屋,36.189267,139.120434,0,1
11,埼玉県,11211,本庄市,112110072000,児玉町飯倉,36.179116,139.092793,0,1
11,埼玉県,11211,本庄市,112110073000,児玉町児玉,36.187876,139.14209,0,1
11,埼玉県,11211,本庄市,112110074000,児玉町稲沢,36.159485,139.080311,0,1
11,埼玉県,11211,本庄市,112110075000,児玉町河内,36.152136,139.091088,0,1
11,埼玉県,11211,本庄市,112110076000,児玉町秋山,36.164842,139.13557,0,1
11,埼玉県,11211,本庄市,112110077000,児玉町太駄,36.133118,139.073797,0,1
11,埼玉県,11211,本庄市,112110078000,児玉町小平,36.16021,139.116832,0,1
