"PrefCode","PrefName","MuniCode","MuniName","DistCode","DistName","lat","lon","SrcCode","CatCode"
"11","埼玉県","11225","入間市","112250001000","金子中央","35.814346","139.328619","0","1"
"11","埼玉県","11225","入間市","112250002000","大字扇町屋","35.815172","139.378650","0","1"
"11","埼玉県","11225","入間市","112250003002","久保稲荷二丁目","35.825903","139.395697","0","3"
"11","埼玉県","11225","入間市","112250004004","東藤沢四丁目","35.817912","139.417155","0","3"
"11","埼玉県","11225","入間市","112250005002","扇町屋二丁目","35.833459","139.383710","0","3"
"11","埼玉県","11225","入間市","112250006002","東町二丁目","35.833458","139.400845","0","3"
"11","埼玉県","11225","入間市","112250007000","三ツ木台","35.813642","139.335339","0","1"
"11","埼玉県","11225","入間市","112250004006","東藤沢六丁目","35.815595","139.412648","0","3"
"11","埼玉県","11225","入間市","112250008005","豊岡五丁目","35.835562","139.394273","0","3"
"11","埼玉県","11225","入間市","112250005003","扇町屋三丁目","35.830054","139.381699","0","3"
"11","埼玉県","11225","入間市","112250009004","扇台四丁目","35.827221","139.388315","0","3"
"11","埼玉県","11225","入間市","112250009001","扇台一丁目","35.831599","139.392962","0","3"
"11","埼玉県","11225","入間市","112250006003","東町三丁目","35.830417","139.401301","0","3"
"11","埼玉県","11225","入間市","112250010004","小谷田四丁目","35.824164","139.374916","0","3"
"11","埼玉県","11225","入間市","112250008003","豊岡三丁目","35.833684","139.388102","0","3"
"11","埼玉県","11225","入間市","112250003005","久保稲荷五丁目","35.821604","139.389108","0","3"
"11","埼玉県","11225","入間市","112250004005","東藤沢五丁目","35.815460","139.416248","0","3"
"11","埼玉県","11225","入間市","112250008002","豊岡二丁目","35.835620","139.384552","0","3"
"11","埼玉県","11225","入間市","112250005004","扇町屋四丁目","35.829124","139.384458","0","3"
"11","埼玉県","11225","入間市","112250009003","扇台三丁目","35.828711","139.389298","0","3"
"11","埼玉県","11225","入間市","112250006006","東町六丁目","35.828479","139.404077","0","3"
"11","埼玉県","11225","入間市","112250009006","扇台六丁目","35.824416","139.384824","0","3"
"11","埼玉県","11225","入間市","112250011001","鍵山一丁目","35.843172","139.382950","0","3"
"11","埼玉県","11225","入間市","112250009005","扇台五丁目","35.825856","139.386408","0","3"
"11","埼玉県","11225","入間市","112250012002","黒須二丁目","35.846308","139.386375","0","3"
"11","埼玉県","11225","入間市","112250004002","東藤沢二丁目","35.820462","139.416923","0","3"
"11","埼玉県","11225","入間市","112250004008","東藤沢八丁目","35.812736","139.406600","0","3"
"11","埼玉県","11225","入間市","112250013000","大字高倉","35.818466","139.382091","0","1"
"11","埼玉県","11225","入間市","112250014001","高倉一丁目","35.838448","139.384733","0","3"
"11","埼玉県","11225","入間市","112250009002","扇台二丁目","35.830279","139.391262","0","3"
"11","埼玉県","11225","入間市","112250004007","東藤沢七丁目","35.814225","139.409844","0","3"
"11","埼玉県","11225","入間市","112250005001","扇町屋一丁目","35.831646","139.386384","0","3"
"11","埼玉県","11225","入間市","112250014003","高倉三丁目","35.839507","139.378975","0","3"
"11","埼玉県","11225","入間市","112250015001","上小谷田一丁目","35.830395","139.374192","0","3"
"11","埼玉県","11225","入間市","112250014002","高倉二丁目","35.840658","139.382301","0","3"
"11","埼玉県","11225","入間市","112250010002","小谷田二丁目","35.825002","139.378268","0","3"
"11","埼玉県","11225","入間市","112250015003","上小谷田三丁目","35.831717","139.370393","0","3"
"11","埼玉県","11225","入間市","112250006001","東町一丁目","35.831806","139.397511","0","3"
"11","埼玉県","11225","入間市","112250004001","東藤沢一丁目","35.824623","139.413265","0","3"
"11","埼玉県","11225","入間市","112250003003","久保稲荷三丁目","35.823506","139.393316","0","3"
"11","埼玉県","11225","入間市","112250008004","豊岡四丁目","35.833435","139.393087","0","3"
"11","埼玉県","11225","入間市","112250005005","扇町屋五丁目","35.827837","139.379951","0","3"
"11","埼玉県","11225","入間市","112250016000","宮前町","35.845218","139.380383","0","1"
"11","埼玉県","11225","入間市","112250004003","東藤沢三丁目","35.819600","139.414729","0","3"
"11","埼玉県","11225","入間市","112250012001","黒須一丁目","35.845416","139.390568","0","3"
"11","埼玉県","11225","入間市","112250003004","久保稲荷四丁目","35.825080","139.391141","0","3"
"11","埼玉県","11225","入間市","112250017000","河原町","35.843074","139.387600","0","1"
"11","埼玉県","11225","入間市","112250011002","鍵山二丁目","35.843832","139.378349","0","3"
"11","埼玉県","11225","入間市","112250018000","牛沢町","35.839589","139.372653","0","1"
"11","埼玉県","11225","入間市","112250006004","東町四丁目","35.832265","139.404253","0","3"
"11","埼玉県","11225","入間市","112250019000","森坂","35.838147","139.375635","0","1"
"11","埼玉県","11225","入間市","112250006005","東町五丁目","35.831186","139.407586","0","3"
"11","埼玉県","11225","入間市","112250003001","久保稲荷一丁目","35.828677","139.395323","0","3"
"11","埼玉県","11225","入間市","112250020000","大字善蔵新田","35.819473","139.386842","0","1"
"11","埼玉県","11225","入間市","112250010003","小谷田三丁目","35.827996","139.375130","0","3"
"11","埼玉県","11225","入間市","112250006007","東町七丁目","35.827574","139.399896","0","3"
"11","埼玉県","11225","入間市","112250021000","大字黒須","35.835964","139.409347","0","1"
"11","埼玉県","11225","入間市","112250014004","高倉四丁目","35.836490","139.379983","0","3"
"11","埼玉県","11225","入間市","112250015002","上小谷田二丁目","35.833972","139.374201","0","3"
"11","埼玉県","11225","入間市","112250014005","高倉五丁目","35.832449","139.378940","0","3"
"11","埼玉県","11225","入間市","112250010001","小谷田一丁目","35.822589","139.382220","0","3"
"11","埼玉県","11225","入間市","112250011003","鍵山三丁目","35.845060","139.374359","0","3"
"11","埼玉県","11225","入間市","112250008001","豊岡一丁目","35.838377","139.388489","0","3"
"11","埼玉県","11225","入間市","112250022002","春日町二丁目","35.849511","139.386690","0","3"
"11","埼玉県","11225","入間市","112250023001","向陽台一丁目","35.839582","139.392333","0","3"
"11","埼玉県","11225","入間市","112250022001","春日町一丁目","35.848779","139.379245","0","3"
"11","埼玉県","11225","入間市","112250024000","大字花ノ木","35.821359","139.348399","0","1"
"11","埼玉県","11225","入間市","112250025000","大字狭山台","35.803542","139.361762","0","1"
"11","埼玉県","11225","入間市","112250023002","向陽台二丁目","35.836669","139.402372","0","3"
"11","埼玉県","11225","入間市","112250026000","大字根岸","35.818490","139.358526","0","1"
"11","埼玉県","11225","入間市","112250027000","大字狭山ケ原","35.812287","139.367416","0","1"
"11","埼玉県","11225","入間市","112250028000","大字西三ツ木","35.813635","139.338136","0","1"
"11","埼玉県","11225","入間市","112250029000","大字新光","35.855915","139.356531","0","1"
"11","埼玉県","11225","入間市","112250030000","大字寺竹","35.804661","139.335480","0","1"
"11","埼玉県","11225","入間市","112250031000","大字上谷ケ貫","35.813533","139.342354","0","1"
"11","埼玉県","11225","入間市","112250032000","大字下谷ケ貫","35.814608","139.348802","0","1"
"11","埼玉県","11225","入間市","112250033000","大字下藤沢","35.823437","139.407357","0","1"
"11","埼玉県","11225","入間市","112250034000","大字新久","35.824599","139.360277","0","1"
"11","埼玉県","11225","入間市","112250035000","大字中神","35.818486","139.353916","0","1"
"11","埼玉県","11225","入間市","112250036000","大字木蓮寺","35.806678","139.323130","0","1"
"11","埼玉県","11225","入間市","112250037000","大字南峯","35.809404","139.327660","0","1"
"11","埼玉県","11225","入間市","112250038000","大字仏子","35.836021","139.354493","0","1"
"11","埼玉県","11225","入間市","112250039000","大字野田","35.844261","139.354540","0","1"
"11","埼玉県","11225","入間市","112250040000","大字小谷田","35.823550","139.369706","0","1"
"11","埼玉県","11225","入間市","112250041000","大字上藤沢","35.816057","139.392161","0","1"
"11","埼玉県","11225","入間市","112250042000","宮寺","35.794927","139.376559","0","1"
"11","埼玉県","11225","入間市","112250043000","駒形富士山","35.796546","139.362914","0","1"
"11","埼玉県","11225","入間市","112250044000","大字二本木","35.797215","139.357993","0","1"
"11","埼玉県","11225","入間市","112250045000","高根","35.795137","139.360269","0","1"
