"PrefCode","PrefName","MuniCode","MuniName","DistCode","DistName","lat","lon","SrcCode","CatCode"
"12","千葉県","12237","山武市","122370001000","麻生新田","35.644684","140.404955","0","1"
"12","千葉県","12237","山武市","122370002000","雨坪","35.621331","140.348951","0","1"
"12","千葉県","12237","山武市","122370003000","板川","35.670554","140.396696","0","1"
"12","千葉県","12237","山武市","122370004000","板附","35.615081","140.391673","0","1"
"12","千葉県","12237","山武市","122370005000","板中新田","35.673725","140.379912","0","1"
"12","千葉県","12237","山武市","122370006000","市場","35.616595","140.404421","0","1"
"12","千葉県","12237","山武市","122370007000","井之内","35.566236","140.466241","0","1"
"12","千葉県","12237","山武市","122370008000","植草","35.610732","140.341229","0","1"
"12","千葉県","12237","山武市","122370009000","大木","35.652046","140.336246","0","1"
"12","千葉県","12237","山武市","122370010000","沖渡","35.669467","140.354319","0","1"
"12","千葉県","12237","山武市","122370011000","親田","35.620771","140.403030","0","1"
"12","千葉県","12237","山武市","122370012000","上横地","35.605684","140.452349","0","1"
"12","千葉県","12237","山武市","122370013000","川崎","35.624856","140.396304","0","1"
"12","千葉県","12237","山武市","122370014000","木戸","35.585306","140.484917","0","1"
"12","千葉県","12237","山武市","122370015000","木原","35.642376","140.341906","0","1"
"12","千葉県","12237","山武市","122370016000","草深","35.589069","140.456970","0","1"
"12","千葉県","12237","山武市","122370017000","小泉","35.592646","140.440039","0","1"
"12","千葉県","12237","山武市","122370018000","五木田","35.582727","140.448738","0","1"
"12","千葉県","12237","山武市","122370019000","小松","35.595020","140.466565","0","1"
"12","千葉県","12237","山武市","122370020000","実門","35.681651","140.364107","0","1"
"12","千葉県","12237","山武市","122370021000","椎崎","35.629289","140.380383","0","1"
"12","千葉県","12237","山武市","122370022000","柴原","35.622040","140.443860","0","1"
"12","千葉県","12237","山武市","122370023000","島","35.594516","140.415899","0","1"
"12","千葉県","12237","山武市","122370024000","嶋戸","35.624691","140.406843","0","1"
"12","千葉県","12237","山武市","122370025000","下布田","35.622252","140.339527","0","1"
"12","千葉県","12237","山武市","122370026000","下横地","35.591625","140.463135","0","1"
"12","千葉県","12237","山武市","122370027000","白幡","35.579680","140.437777","0","1"
"12","千葉県","12237","山武市","122370028000","真行寺","35.621851","140.413709","0","1"
"12","千葉県","12237","山武市","122370029000","津辺","35.610412","140.412146","0","1"
"12","千葉県","12237","山武市","122370030000","寺崎","35.611862","140.435991","0","1"
"12","千葉県","12237","山武市","122370031000","戸田","35.638477","140.394114","0","1"
"12","千葉県","12237","山武市","122370032000","殿台","35.600903","140.420131","0","1"
"12","千葉県","12237","山武市","122370033000","富口","35.596093","140.432512","0","1"
"12","千葉県","12237","山武市","122370034000","富田","35.614868","140.424283","0","1"
"12","千葉県","12237","山武市","122370035000","富田幸谷","35.605465","140.435103","0","1"
"12","千葉県","12237","山武市","122370036000","中津田","35.662115","140.408503","0","1"
"12","千葉県","12237","山武市","122370037000","成東","35.598205","140.399903","0","1"
"12","千葉県","12237","山武市","122370038000","新泉","35.614552","140.415956","0","1"
"12","千葉県","12237","山武市","122370039000","西湯坂","35.604539","140.358984","0","1"
"12","千葉県","12237","山武市","122370040000","野堀","35.629241","140.405142","0","1"
"12","千葉県","12237","山武市","122370041000","蓮沼イ","35.609835","140.503980","0","1"
"12","千葉県","12237","山武市","122370042000","蓮沼ニ","35.593781","140.487263","0","1"
"12","千葉県","12237","山武市","122370043000","蓮沼ハ","35.600489","140.494731","0","1"
"12","千葉県","12237","山武市","122370044000","蓮沼平","35.582487","140.495709","0","1"
"12","千葉県","12237","山武市","122370045000","蓮沼ホ","35.593461","140.511266","0","1"
"12","千葉県","12237","山武市","122370046000","蓮沼ロ","35.602023","140.510610","0","1"
"12","千葉県","12237","山武市","122370047000","埴谷","35.650952","140.380624","0","1"
"12","千葉県","12237","山武市","122370048000","早船","35.618873","140.434009","0","1"
"12","千葉県","12237","山武市","122370049000","姫島","35.591253","140.391444","0","1"
"12","千葉県","12237","山武市","122370050000","日向台","35.630477","140.369832","0","1"
"12","千葉県","12237","山武市","122370051000","松尾町祝田","35.630396","140.455031","0","1"
"12","千葉県","12237","山武市","122370052000","松尾町大堤","35.631439","140.450599","0","1"
"12","千葉県","12237","山武市","122370053000","松尾町小川","35.637173","140.416608","0","1"
"12","千葉県","12237","山武市","122370054000","松尾町折戸","35.597781","140.473350","0","1"
"12","千葉県","12237","山武市","122370055000","松尾町借毛本郷","35.610486","140.470863","0","1"
"12","千葉県","12237","山武市","122370056000","松尾町蕪木","35.648301","140.441942","0","1"
"12","千葉県","12237","山武市","122370057000","松尾町上大蔵","35.635054","140.428930","0","1"
"12","千葉県","12237","山武市","122370058000","松尾町金尾","35.645971","140.424212","0","1"
"12","千葉県","12237","山武市","122370059000","松尾町木刀","35.624176","140.476631","0","1"
"12","千葉県","12237","山武市","122370060000","松尾町五反田","35.631839","140.464126","0","1"
"12","千葉県","12237","山武市","122370061000","松尾町古和","35.655488","140.423920","0","1"
"12","千葉県","12237","山武市","122370062000","松尾町猿尾","35.642157","140.461741","0","1"
"12","千葉県","12237","山武市","122370063000","松尾町下大蔵","35.629253","140.426129","0","1"
"12","千葉県","12237","山武市","122370064000","松尾町下野","35.603520","140.479934","0","1"
"12","千葉県","12237","山武市","122370065000","松尾町下之郷","35.605733","140.473251","0","1"
"12","千葉県","12237","山武市","122370066000","松尾町高富","35.623672","140.465456","0","1"
"12","千葉県","12237","山武市","122370067000","松尾町武野里","35.627395","140.492187","0","1"
"12","千葉県","12237","山武市","122370068000","松尾町田越","35.630878","140.442679","0","1"
"12","千葉県","12237","山武市","122370069000","松尾町八田","35.654206","140.461554","0","1"
"12","千葉県","12237","山武市","122370070000","松尾町引越","35.664076","140.425642","0","1"
"12","千葉県","12237","山武市","122370071000","松尾町広根","35.612711","140.483638","0","1"
"12","千葉県","12237","山武市","122370072000","松尾町富士見台","35.638924","140.446671","0","1"
"12","千葉県","12237","山武市","122370073000","松尾町松尾","35.639571","140.455783","0","1"
"12","千葉県","12237","山武市","122370074000","松尾町水深","35.626101","140.449673","0","1"
"12","千葉県","12237","山武市","122370075000","松尾町本柏","35.635286","140.474575","0","1"
"12","千葉県","12237","山武市","122370076000","松尾町本水深","35.623643","140.450403","0","1"
"12","千葉県","12237","山武市","122370077000","松尾町谷津","35.660681","140.433280","0","1"
"12","千葉県","12237","山武市","122370078000","松尾町山室","35.669914","140.421414","0","1"
"12","千葉県","12237","山武市","122370079000","松ヶ谷","35.575162","140.474271","0","1"
"12","千葉県","12237","山武市","122370080001","美杉野一丁目","35.643483","140.375194","0","3"
"12","千葉県","12237","山武市","122370080002","美杉野二丁目","35.646079","140.377820","0","3"
"12","千葉県","12237","山武市","122370080004","美杉野四丁目","35.647066","140.374178","0","3"
"12","千葉県","12237","山武市","122370081000","武勝","35.628864","140.338622","0","1"
"12","千葉県","12237","山武市","122370082000","本須賀","35.560937","140.457745","0","1"
"12","千葉県","12237","山武市","122370083000","森","35.616133","140.363239","0","1"
"12","千葉県","12237","山武市","122370084000","矢部","35.617941","140.383789","0","1"
"12","千葉県","12237","山武市","122370085000","湯坂","35.607209","140.381748","0","1"
"12","千葉県","12237","山武市","122370086000","横田","35.673677","140.365929","0","1"
"12","千葉県","12237","山武市","122370087000","和田","35.613202","140.401850","0","1"
