"PrefCode","PrefName","MuniCode","MuniName","DistCode","DistName","lat","lon","SrcCode","CatCode"
"13","東京都","13122","葛飾区","131220001001","柴又一丁目","35.755326","139.871866","0","3"
"13","東京都","13122","葛飾区","131220002004","細田四丁目","35.743153","139.872295","0","3"
"13","東京都","13122","葛飾区","131220001004","柴又四丁目","35.753565","139.875244","0","3"
"13","東京都","13122","葛飾区","131220003009","奥戸九丁目","35.736316","139.869930","0","3"
"13","東京都","13122","葛飾区","131220003006","奥戸六丁目","35.731258","139.870203","0","3"
"13","東京都","13122","葛飾区","131220002001","細田一丁目","35.738463","139.871829","0","3"
"13","東京都","13122","葛飾区","131220004004","高砂四丁目","35.747793","139.872473","0","3"
"13","東京都","13122","葛飾区","131220004005","高砂五丁目","35.751786","139.868698","0","3"
"13","東京都","13122","葛飾区","131220001005","柴又五丁目","35.752320","139.883492","0","3"
"13","東京都","13122","葛飾区","131220001006","柴又六丁目","35.755729","139.881178","0","3"
"13","東京都","13122","葛飾区","131220001003","柴又三丁目","35.760223","139.872372","0","3"
"13","東京都","13122","葛飾区","131220005002","金町二丁目","35.764145","139.870315","0","3"
"13","東京都","13122","葛飾区","131220006000","水元公園","35.788549","139.869416","0","1"
"13","東京都","13122","葛飾区","131220007003","東金町三丁目","35.772455","139.873570","0","3"
"13","東京都","13122","葛飾区","131220007001","東金町一丁目","35.770763","139.869077","0","3"
"13","東京都","13122","葛飾区","131220008001","小菅一丁目","35.754231","139.817107","0","3"
"13","東京都","13122","葛飾区","131220009006","青戸六丁目","35.750206","139.858226","0","3"
"13","東京都","13122","葛飾区","131220009004","青戸四丁目","35.750419","139.850461","0","3"
"13","東京都","13122","葛飾区","131220010003","東堀切三丁目","35.754662","139.837253","0","3"
"13","東京都","13122","葛飾区","131220007002","東金町二丁目","35.773381","139.867904","0","3"
"13","東京都","13122","葛飾区","131220011002","東水元二丁目","35.779838","139.870653","0","3"
"13","東京都","13122","葛飾区","131220012004","白鳥四丁目","35.752888","139.848292","0","3"
"13","東京都","13122","葛飾区","131220013003","お花茶屋三丁目","35.754478","139.841775","0","3"
"13","東京都","13122","葛飾区","131220005006","金町六丁目","35.768392","139.872398","0","3"
"13","東京都","13122","葛飾区","131220004006","高砂六丁目","35.753571","139.860788","0","3"
"13","東京都","13122","葛飾区","131220009007","青戸七丁目","35.755176","139.855608","0","3"
"13","東京都","13122","葛飾区","131220012003","白鳥三丁目","35.753358","139.844415","0","3"
"13","東京都","13122","葛飾区","131220010002","東堀切二丁目","35.752216","139.835916","0","3"
"13","東京都","13122","葛飾区","131220014006","堀切六丁目","35.752254","139.830391","0","3"
"13","東京都","13122","葛飾区","131220008002","小菅二丁目","35.751779","139.824296","0","3"
"13","東京都","13122","葛飾区","131220008003","小菅三丁目","35.754285","139.823994","0","3"
"13","東京都","13122","葛飾区","131220005003","金町三丁目","35.766807","139.875451","0","3"
"13","東京都","13122","葛飾区","131220004007","高砂七丁目","35.754486","139.864309","0","3"
"13","東京都","13122","葛飾区","131220004008","高砂八丁目","35.754601","139.868069","0","3"
"13","東京都","13122","葛飾区","131220002005","細田五丁目","35.739090","139.875227","0","3"
"13","東京都","13122","葛飾区","131220015001","鎌倉一丁目","35.742729","139.878158","0","3"
"13","東京都","13122","葛飾区","131220015004","鎌倉四丁目","35.746657","139.882303","0","3"
"13","東京都","13122","葛飾区","131220015002","鎌倉二丁目","35.746065","139.876164","0","3"
"13","東京都","13122","葛飾区","131220015003","鎌倉三丁目","35.747857","139.877628","0","3"
"13","東京都","13122","葛飾区","131220016003","東新小岩三丁目","35.722981","139.860992","0","3"
"13","東京都","13122","葛飾区","131220016004","東新小岩四丁目","35.725835","139.863005","0","3"
"13","東京都","13122","葛飾区","131220017002","四つ木二丁目","35.736744","139.837762","0","3"
"13","東京都","13122","葛飾区","131220018001","新小岩一丁目","35.714252","139.854932","0","3"
"13","東京都","13122","葛飾区","131220019002","西新小岩二丁目","35.717189","139.851141","0","3"
"13","東京都","13122","葛飾区","131220018003","新小岩三丁目","35.715116","139.866016","0","3"
"13","東京都","13122","葛飾区","131220018002","新小岩二丁目","35.715976","139.862179","0","3"
"13","東京都","13122","葛飾区","131220016001","東新小岩一丁目","35.720610","139.861353","0","3"
"13","東京都","13122","葛飾区","131220018004","新小岩四丁目","35.721574","139.866331","0","3"
"13","東京都","13122","葛飾区","131220019001","西新小岩一丁目","35.715641","139.853795","0","3"
"13","東京都","13122","葛飾区","131220020001","東四つ木一丁目","35.725927","139.839893","0","3"
"13","東京都","13122","葛飾区","131220019004","西新小岩四丁目","35.720530","139.852763","0","3"
"13","東京都","13122","葛飾区","131220019003","西新小岩三丁目","35.720481","139.847128","0","3"
"13","東京都","13122","葛飾区","131220016005","東新小岩五丁目","35.721609","139.856235","0","3"
"13","東京都","13122","葛飾区","131220016002","東新小岩二丁目","35.725094","139.867598","0","3"
"13","東京都","13122","葛飾区","131220003005","奥戸五丁目","35.732170","139.865921","0","3"
"13","東京都","13122","葛飾区","131220016007","東新小岩七丁目","35.724929","139.854294","0","3"
"13","東京都","13122","葛飾区","131220019005","西新小岩五丁目","35.725416","139.846836","0","3"
"13","東京都","13122","葛飾区","131220020003","東四つ木三丁目","35.729164","139.837075","0","3"
"13","東京都","13122","葛飾区","131220016006","東新小岩六丁目","35.726410","139.858922","0","3"
"13","東京都","13122","葛飾区","131220016008","東新小岩八丁目","35.727192","139.853289","0","3"
"13","東京都","13122","葛飾区","131220003007","奥戸七丁目","35.737018","139.862360","0","3"
"13","東京都","13122","葛飾区","131220021007","立石七丁目","35.740423","139.850412","0","3"
"13","東京都","13122","葛飾区","131220022004","東立石四丁目","35.733744","139.852052","0","3"
"13","東京都","13122","葛飾区","131220003001","奥戸一丁目","35.730969","139.857311","0","3"
"13","東京都","13122","葛飾区","131220003003","奥戸三丁目","35.731765","139.861664","0","3"
"13","東京都","13122","葛飾区","131220003004","奥戸四丁目","35.728258","139.865868","0","3"
"13","東京都","13122","葛飾区","131220021004","立石四丁目","35.740094","139.847259","0","3"
"13","東京都","13122","葛飾区","131220003002","奥戸二丁目","35.734848","139.857812","0","3"
"13","東京都","13122","葛飾区","131220017001","四つ木一丁目","35.732958","139.833459","0","3"
"13","東京都","13122","葛飾区","131220020002","東四つ木二丁目","35.729732","139.844405","0","3"
"13","東京都","13122","葛飾区","131220022003","東立石三丁目","35.735370","139.844999","0","3"
"13","東京都","13122","葛飾区","131220022001","東立石一丁目","35.730983","139.848195","0","3"
"13","東京都","13122","葛飾区","131220021001","立石一丁目","35.737208","139.846839","0","3"
"13","東京都","13122","葛飾区","131220021003","立石三丁目","35.739613","139.844151","0","3"
"13","東京都","13122","葛飾区","131220017004","四つ木四丁目","35.738241","139.834751","0","3"
"13","東京都","13122","葛飾区","131220017003","四つ木三丁目","35.735706","139.830579","0","3"
"13","東京都","13122","葛飾区","131220020004","東四つ木四丁目","35.733497","139.840198","0","3"
"13","東京都","13122","葛飾区","131220022002","東立石二丁目","35.733363","139.846833","0","3"
"13","東京都","13122","葛飾区","131220009002","青戸二丁目","35.746719","139.859280","0","3"
"13","東京都","13122","葛飾区","131220004003","高砂三丁目","35.748119","139.868939","0","3"
"13","東京都","13122","葛飾区","131220004002","高砂二丁目","35.747889","139.865177","0","3"
"13","東京都","13122","葛飾区","131220002002","細田二丁目","35.740508","139.865173","0","3"
"13","東京都","13122","葛飾区","131220002003","細田三丁目","35.742496","139.867607","0","3"
"13","東京都","13122","葛飾区","131220003008","奥戸八丁目","35.737307","139.866340","0","3"
"13","東京都","13122","葛飾区","131220021008","立石八丁目","35.739590","139.855887","0","3"
"13","東京都","13122","葛飾区","131220021002","立石二丁目","35.738666","139.840327","0","3"
"13","東京都","13122","葛飾区","131220009001","青戸一丁目","35.743247","139.856040","0","3"
"13","東京都","13122","葛飾区","131220004001","高砂一丁目","35.743501","139.861109","0","3"
"13","東京都","13122","葛飾区","131220021006","立石六丁目","35.744073","139.851199","0","3"
"13","東京都","13122","葛飾区","131220009005","青戸五丁目","35.749436","139.854304","0","3"
"13","東京都","13122","葛飾区","131220009003","青戸三丁目","35.746276","139.852136","0","3"
"13","東京都","13122","葛飾区","131220023001","宝町一丁目","35.741857","139.836518","0","3"
"13","東京都","13122","葛飾区","131220012002","白鳥二丁目","35.748647","139.844696","0","3"
"13","東京都","13122","葛飾区","131220017005","四つ木五丁目","35.742017","139.840078","0","3"
"13","東京都","13122","葛飾区","131220021005","立石五丁目","35.743997","139.845409","0","3"
"13","東京都","13122","葛飾区","131220012001","白鳥一丁目","35.745795","139.842664","0","3"
"13","東京都","13122","葛飾区","131220013001","お花茶屋一丁目","35.748900","139.839137","0","3"
"13","東京都","13122","葛飾区","131220013002","お花茶屋二丁目","35.751455","139.840245","0","3"
"13","東京都","13122","葛飾区","131220014005","堀切五丁目","35.749398","139.830124","0","3"
"13","東京都","13122","葛飾区","131220023002","宝町二丁目","35.745974","139.836842","0","3"
"13","東京都","13122","葛飾区","131220010001","東堀切一丁目","35.749255","139.834710","0","3"
"13","東京都","13122","葛飾区","131220014002","堀切二丁目","35.742950","139.825995","0","3"
"13","東京都","13122","葛飾区","131220014001","堀切一丁目","35.739525","139.827353","0","3"
"13","東京都","13122","葛飾区","131220014003","堀切三丁目","35.745146","139.832610","0","3"
"13","東京都","13122","葛飾区","131220014004","堀切四丁目","35.747278","139.822722","0","3"
"13","東京都","13122","葛飾区","131220007007","東金町七丁目","35.776462","139.884729","0","3"
"13","東京都","13122","葛飾区","131220007006","東金町六丁目","35.772059","139.878852","0","3"
"13","東京都","13122","葛飾区","131220001007","柴又七丁目","35.759287","139.879658","0","3"
"13","東京都","13122","葛飾区","131220024000","金町浄水場","35.762653","139.877996","0","1"
"13","東京都","13122","葛飾区","131220007004","東金町四丁目","35.774498","139.875490","0","3"
"13","東京都","13122","葛飾区","131220007005","東金町五丁目","35.778745","139.878248","0","3"
"13","東京都","13122","葛飾区","131220007008","東金町八丁目","35.780215","139.888478","0","3"
"13","東京都","13122","葛飾区","131220025003","南水元三丁目","35.775004","139.864156","0","3"
"13","東京都","13122","葛飾区","131220001002","柴又二丁目","35.758391","139.869244","0","3"
"13","東京都","13122","葛飾区","131220009008","青戸八丁目","35.756936","139.851930","0","3"
"13","東京都","13122","葛飾区","131220026002","西亀有二丁目","35.761217","139.833733","0","3"
"13","東京都","13122","葛飾区","131220026001","西亀有一丁目","35.757894","139.839730","0","3"
"13","東京都","13122","葛飾区","131220014007","堀切七丁目","35.755142","139.831128","0","3"
"13","東京都","13122","葛飾区","131220005001","金町一丁目","35.762590","139.866168","0","3"
"13","東京都","13122","葛飾区","131220005005","金町五丁目","35.766586","139.868200","0","3"
"13","東京都","13122","葛飾区","131220027003","新宿三丁目","35.759725","139.863964","0","3"
"13","東京都","13122","葛飾区","131220027004","新宿四丁目","35.763125","139.861384","0","3"
"13","東京都","13122","葛飾区","131220027001","新宿一丁目","35.758190","139.859419","0","3"
"13","東京都","13122","葛飾区","131220005004","金町四丁目","35.765864","139.864299","0","3"
"13","東京都","13122","葛飾区","131220027002","新宿二丁目","35.762133","139.856806","0","3"
"13","東京都","13122","葛飾区","131220027005","新宿五丁目","35.765699","139.860171","0","3"
"13","東京都","13122","葛飾区","131220027006","新宿六丁目","35.771838","139.861148","0","3"
"13","東京都","13122","葛飾区","131220025001","南水元一丁目","35.775069","139.858032","0","3"
"13","東京都","13122","葛飾区","131220028001","亀有一丁目","35.758422","139.846323","0","3"
"13","東京都","13122","葛飾区","131220028004","亀有四丁目","35.761531","139.844073","0","3"
"13","東京都","13122","葛飾区","131220026003","西亀有三丁目","35.761562","139.839342","0","3"
"13","東京都","13122","葛飾区","131220028002","亀有二丁目","35.759915","139.849936","0","3"
"13","東京都","13122","葛飾区","131220028003","亀有三丁目","35.765188","139.850309","0","3"
"13","東京都","13122","葛飾区","131220026004","西亀有四丁目","35.765137","139.840946","0","3"
"13","東京都","13122","葛飾区","131220028005","亀有五丁目","35.767640","139.847139","0","3"
"13","東京都","13122","葛飾区","131220008004","小菅四丁目","35.758888","139.824712","0","3"
"13","東京都","13122","葛飾区","131220014008","堀切八丁目","35.757426","139.832027","0","3"
"13","東京都","13122","葛飾区","131220011003","東水元三丁目","35.784086","139.867030","0","3"
"13","東京都","13122","葛飾区","131220011004","東水元四丁目","35.788285","139.866406","0","3"
"13","東京都","13122","葛飾区","131220029003","水元三丁目","35.782495","139.863222","0","3"
"13","東京都","13122","葛飾区","131220025004","南水元四丁目","35.778570","139.863479","0","3"
"13","東京都","13122","葛飾区","131220011001","東水元一丁目","35.777122","139.868832","0","3"
"13","東京都","13122","葛飾区","131220011005","東水元五丁目","35.791762","139.865104","0","3"
"13","東京都","13122","葛飾区","131220011006","東水元六丁目","35.792454","139.861140","0","3"
"13","東京都","13122","葛飾区","131220029002","水元二丁目","35.785637","139.857117","0","3"
"13","東京都","13122","葛飾区","131220030006","西水元六丁目","35.789795","139.855981","0","3"
"13","東京都","13122","葛飾区","131220025002","南水元二丁目","35.777659","139.856057","0","3"
"13","東京都","13122","葛飾区","131220029004","水元四丁目","35.786591","139.862399","0","3"
"13","東京都","13122","葛飾区","131220029005","水元五丁目","35.790214","139.860256","0","3"
"13","東京都","13122","葛飾区","131220030005","西水元五丁目","35.786321","139.854239","0","3"
"13","東京都","13122","葛飾区","131220030002","西水元二丁目","35.785738","139.849615","0","3"
"13","東京都","13122","葛飾区","131220030001","西水元一丁目","35.781540","139.850646","0","3"
"13","東京都","13122","葛飾区","131220029001","水元一丁目","35.781891","139.856849","0","3"
"13","東京都","13122","葛飾区","131220030003","西水元三丁目","35.789719","139.848574","0","3"
"13","東京都","13122","葛飾区","131220030004","西水元四丁目","35.794152","139.847194","0","3"
