"PrefCode","PrefName","MuniCode","MuniName","DistCode","DistName","lat","lon","SrcCode","CatCode"
"14","神奈川県","14112","横浜市旭区","141120001003","若葉台三丁目","35.503989","139.498487","0","3"
"14","神奈川県","14112","横浜市旭区","141120002000","上川井町","35.492567","139.497545","0","1"
"14","神奈川県","14112","横浜市旭区","141120003000","上白根町","35.495460","139.529903","0","1"
"14","神奈川県","14112","横浜市旭区","141120001001","若葉台一丁目","35.504496","139.505145","0","3"
"14","神奈川県","14112","横浜市旭区","141120001002","若葉台二丁目","35.505394","139.501695","0","3"
"14","神奈川県","14112","横浜市旭区","141120001004","若葉台四丁目","35.505899","139.493581","0","3"
"14","神奈川県","14112","横浜市旭区","141120004002","鶴ケ峰本町二丁目","35.479222","139.544312","0","3"
"14","神奈川県","14112","横浜市旭区","141120005002","今宿二丁目","35.474205","139.518199","0","3"
"14","神奈川県","14112","横浜市旭区","141120006002","中沢二丁目","35.472473","139.525386","0","3"
"14","神奈川県","14112","横浜市旭区","141120006003","中沢三丁目","35.473023","139.522164","0","3"
"14","神奈川県","14112","横浜市旭区","141120007001","金が谷一丁目","35.473396","139.511862","0","3"
"14","神奈川県","14112","横浜市旭区","141120007002","金が谷二丁目","35.477486","139.512872","0","3"
"14","神奈川県","14112","横浜市旭区","141120008004","笹野台四丁目","35.471274","139.509200","0","3"
"14","神奈川県","14112","横浜市旭区","141120008003","笹野台三丁目","35.474917","139.506308","0","3"
"14","神奈川県","14112","横浜市旭区","141120009002","中白根二丁目","35.490576","139.543662","0","3"
"14","神奈川県","14112","横浜市旭区","141120010003","上白根三丁目","35.496819","139.539232","0","3"
"14","神奈川県","14112","横浜市旭区","141120010002","上白根二丁目","35.492870","139.539261","0","3"
"14","神奈川県","14112","横浜市旭区","141120011003","白根三丁目","35.481181","139.549285","0","3"
"14","神奈川県","14112","横浜市旭区","141120011007","白根七丁目","35.485909","139.553644","0","3"
"14","神奈川県","14112","横浜市旭区","141120011004","白根四丁目","35.481544","139.546062","0","3"
"14","神奈川県","14112","横浜市旭区","141120009003","中白根三丁目","35.496191","139.544323","0","3"
"14","神奈川県","14112","横浜市旭区","141120010001","上白根一丁目","35.488218","139.539891","0","3"
"14","神奈川県","14112","横浜市旭区","141120011008","白根八丁目","35.490209","139.549864","0","3"
"14","神奈川県","14112","横浜市旭区","141120012000","桐が作","35.456469","139.547330","0","1"
"14","神奈川県","14112","横浜市旭区","141120008001","笹野台一丁目","35.470028","139.505689","0","3"
"14","神奈川県","14112","横浜市旭区","141120005001","今宿一丁目","35.477664","139.520281","0","3"
"14","神奈川県","14112","横浜市旭区","141120011002","白根二丁目","35.482321","139.553223","0","3"
"14","神奈川県","14112","横浜市旭区","141120013000","南希望が丘","35.454723","139.514031","0","1"
"14","神奈川県","14112","横浜市旭区","141120014000","大池町","35.448723","139.538258","0","1"
"14","神奈川県","14112","横浜市旭区","141120015000","万騎が原","35.454805","139.533054","0","1"
"14","神奈川県","14112","横浜市旭区","141120016000","南本宿町","35.456282","139.540553","0","1"
"14","神奈川県","14112","横浜市旭区","141120017000","東希望が丘","35.464314","139.514326","0","1"
"14","神奈川県","14112","横浜市旭区","141120018002","二俣川二丁目","35.461251","139.533833","0","3"
"14","神奈川県","14112","横浜市旭区","141120019000","本村町","35.467558","139.535243","0","1"
"14","神奈川県","14112","横浜市旭区","141120020000","柏町","35.451661","139.525662","0","1"
"14","神奈川県","14112","横浜市旭区","141120021000","善部町","35.450133","139.514640","0","1"
"14","神奈川県","14112","横浜市旭区","141120022000","中希望が丘","35.460687","139.508768","0","1"
"14","神奈川県","14112","横浜市旭区","141120023000","左近山","35.460086","139.551005","0","1"
"14","神奈川県","14112","横浜市旭区","141120024000","小高町","35.463727","139.554346","0","1"
"14","神奈川県","14112","横浜市旭区","141120025000","市沢町","35.460429","139.561811","0","1"
"14","神奈川県","14112","横浜市旭区","141120026000","三反田町","35.465730","139.552445","0","1"
"14","神奈川県","14112","横浜市旭区","141120011001","白根一丁目","35.477512","139.551579","0","3"
"14","神奈川県","14112","横浜市旭区","141120027000","川島町","35.467057","139.548972","0","1"
"14","神奈川県","14112","横浜市旭区","141120028000","本宿町","35.465555","139.542138","0","1"
"14","神奈川県","14112","横浜市旭区","141120029001","鶴ケ峰一丁目","35.471312","139.549205","0","3"
"14","神奈川県","14112","横浜市旭区","141120030000","西川島町","35.474429","139.557269","0","1"
"14","神奈川県","14112","横浜市旭区","141120029002","鶴ケ峰二丁目","35.475339","139.549581","0","3"
"14","神奈川県","14112","横浜市旭区","141120031000","さちが丘","35.459023","139.526760","0","1"
"14","神奈川県","14112","横浜市旭区","141120018001","二俣川一丁目","35.464925","139.528087","0","3"
"14","神奈川県","14112","横浜市旭区","141120004001","鶴ケ峰本町一丁目","35.476682","139.541099","0","3"
"14","神奈川県","14112","横浜市旭区","141120032000","四季美台","35.472002","139.538201","0","1"
"14","神奈川県","14112","横浜市旭区","141120033000","今川町","35.475583","139.534746","0","1"
"14","神奈川県","14112","横浜市旭区","141120034000","今宿町","35.471873","139.513469","0","1"
"14","神奈川県","14112","横浜市旭区","141120035001","中尾一丁目","35.466531","139.521041","0","3"
"14","神奈川県","14112","横浜市旭区","141120008002","笹野台二丁目","35.472033","139.502729","0","3"
"14","神奈川県","14112","横浜市旭区","141120036000","今宿南町","35.479752","139.526317","0","1"
"14","神奈川県","14112","横浜市旭区","141120035002","中尾二丁目","35.469010","139.521740","0","3"
"14","神奈川県","14112","横浜市旭区","141120006001","中沢一丁目","35.471316","139.529404","0","3"
"14","神奈川県","14112","横浜市旭区","141120037000","今宿東町","35.482728","139.536025","0","1"
"14","神奈川県","14112","横浜市旭区","141120038000","金が谷","35.479343","139.514949","0","1"
"14","神奈川県","14112","横浜市旭区","141120011006","白根六丁目","35.485450","139.548293","0","3"
"14","神奈川県","14112","横浜市旭区","141120009001","中白根一丁目","35.489214","139.547032","0","3"
"14","神奈川県","14112","横浜市旭区","141120039000","矢指町","35.479315","139.506208","0","1"
"14","神奈川県","14112","横浜市旭区","141120004003","鶴ケ峰本町三丁目","35.480832","139.540712","0","3"
"14","神奈川県","14112","横浜市旭区","141120011005","白根五丁目","35.484768","139.541965","0","3"
"14","神奈川県","14112","横浜市旭区","141120009004","中白根四丁目","35.494757","139.548254","0","3"
"14","神奈川県","14112","横浜市旭区","141120040000","白根町","35.497142","139.550502","0","1"
"14","神奈川県","14112","横浜市旭区","141120041000","下川井町","35.486103","139.511298","0","1"
"14","神奈川県","14112","横浜市旭区","141120042000","今宿西町","35.486142","139.527107","0","1"
"14","神奈川県","14112","横浜市旭区","141120043000","川井本町","35.492884","139.511492","0","1"
"14","神奈川県","14112","横浜市旭区","141120044000","都岡町","35.489971","139.522059","0","1"
"14","神奈川県","14112","横浜市旭区","141120045000","川井宿町","35.495014","139.519227","0","1"
