"PrefCode","PrefName","MuniCode","MuniName","DistCode","DistName","lat","lon","SrcCode","CatCode"
"14","神奈川県","14131","川崎市川崎区","141310001000","東扇島","35.497190","139.753955","0","1"
"14","神奈川県","14131","川崎市川崎区","141310002000","水江町","35.508049","139.741088","0","1"
"14","神奈川県","14131","川崎市川崎区","141310003000","扇町","35.502051","139.722870","0","1"
"14","神奈川県","14131","川崎市川崎区","141310004004","浅田四丁目","35.504065","139.700647","0","3"
"14","神奈川県","14131","川崎市川崎区","141310005000","千鳥町","35.517255","139.756416","0","1"
"14","神奈川県","14131","川崎市川崎区","141310006004","塩浜四丁目","35.529443","139.746603","0","3"
"14","神奈川県","14131","川崎市川崎区","141310007002","殿町二丁目","35.540683","139.747211","0","3"
"14","神奈川県","14131","川崎市川崎区","141310008002","夜光二丁目","35.521961","139.747628","0","3"
"14","神奈川県","14131","川崎市川崎区","141310009000","白石町","35.500755","139.709607","0","1"
"14","神奈川県","14131","川崎市川崎区","141310010000","田辺新田","35.504962","139.707006","0","1"
"14","神奈川県","14131","川崎市川崎区","141310006003","塩浜三丁目","35.521309","139.740982","0","3"
"14","神奈川県","14131","川崎市川崎区","141310011002","江川二丁目","35.536212","139.747828","0","3"
"14","神奈川県","14131","川崎市川崎区","141310012002","田町二丁目","35.534631","139.745668","0","3"
"14","神奈川県","14131","川崎市川崎区","141310013000","大川町","35.494112","139.713901","0","1"
"14","神奈川県","14131","川崎市川崎区","141310014000","扇島","35.483570","139.726853","0","1"
"14","神奈川県","14131","川崎市川崎区","141310008001","夜光一丁目","35.528243","139.753494","0","3"
"14","神奈川県","14131","川崎市川崎区","141310015000","浮島町","35.522870","139.776179","0","1"
"14","神奈川県","14131","川崎市川崎区","141310016000","小島町","35.533188","139.756973","0","1"
"14","神奈川県","14131","川崎市川崎区","141310007003","殿町三丁目","35.539552","139.758373","0","3"
"14","神奈川県","14131","川崎市川崎区","141310012003","田町三丁目","35.534947","139.749801","0","3"
"14","神奈川県","14131","川崎市川崎区","141310017002","日ノ出二丁目","35.531639","139.744358","0","3"
"14","神奈川県","14131","川崎市川崎区","141310018001","中島一丁目","35.530108","139.716496","0","3"
"14","神奈川県","14131","川崎市川崎区","141310019005","鋼管通五丁目","35.509983","139.712782","0","3"
"14","神奈川県","14131","川崎市川崎区","141310020000","南渡田町","35.508603","139.717094","0","1"
"14","神奈川県","14131","川崎市川崎区","141310021006","小田六丁目","35.509099","139.705399","0","3"
"14","神奈川県","14131","川崎市川崎区","141310004001","浅田一丁目","35.506845","139.705012","0","3"
"14","神奈川県","14131","川崎市川崎区","141310008003","夜光三丁目","35.517540","139.742183","0","3"
"14","神奈川県","14131","川崎市川崎区","141310022000","四谷下町","35.526084","139.738288","0","1"
"14","神奈川県","14131","川崎市川崎区","141310023003","池上新町三丁目","35.521155","139.733625","0","3"
"14","神奈川県","14131","川崎市川崎区","141310024004","浜町四丁目","35.515902","139.722055","0","3"
"14","神奈川県","14131","川崎市川崎区","141310024003","浜町三丁目","35.517386","139.719968","0","3"
"14","神奈川県","14131","川崎市川崎区","141310025003","大島三丁目","35.520330","139.718200","0","3"
"14","神奈川県","14131","川崎市川崎区","141310026002","桜本二丁目","35.521742","139.725051","0","3"
"14","神奈川県","14131","川崎市川崎区","141310025005","大島五丁目","35.523877","139.717482","0","3"
"14","神奈川県","14131","川崎市川崎区","141310027000","浅野町","35.512828","139.726088","0","1"
"14","神奈川県","14131","川崎市川崎区","141310024002","浜町二丁目","35.513944","139.717987","0","3"
"14","神奈川県","14131","川崎市川崎区","141310024001","浜町一丁目","35.516758","139.717770","0","3"
"14","神奈川県","14131","川崎市川崎区","141310026001","桜本一丁目","35.519326","139.722649","0","3"
"14","神奈川県","14131","川崎市川崎区","141310028000","池上町","35.517271","139.730213","0","1"
"14","神奈川県","14131","川崎市川崎区","141310019003","鋼管通三丁目","35.513788","139.713894","0","3"
"14","神奈川県","14131","川崎市川崎区","141310021007","小田七丁目","35.509028","139.708889","0","3"
"14","神奈川県","14131","川崎市川崎区","141310019004","鋼管通四丁目","35.511637","139.713140","0","3"
"14","神奈川県","14131","川崎市川崎区","141310025002","大島二丁目","35.521290","139.714715","0","3"
"14","神奈川県","14131","川崎市川崎区","141310019002","鋼管通二丁目","35.516319","139.715354","0","3"
"14","神奈川県","14131","川崎市川崎区","141310029000","追分町","35.519787","139.714624","0","1"
"14","神奈川県","14131","川崎市川崎区","141310019001","鋼管通一丁目","35.518189","139.712657","0","3"
"14","神奈川県","14131","川崎市川崎区","141310030003","渡田三丁目","35.518861","139.705083","0","3"
"14","神奈川県","14131","川崎市川崎区","141310031000","大島上町","35.520868","139.710200","0","1"
"14","神奈川県","14131","川崎市川崎区","141310032000","田島町","35.517083","139.710045","0","1"
"14","神奈川県","14131","川崎市川崎区","141310025004","大島四丁目","35.524345","139.714691","0","3"
"14","神奈川県","14131","川崎市川崎区","141310030001","渡田一丁目","35.523024","139.707731","0","3"
"14","神奈川県","14131","川崎市川崎区","141310033000","境町","35.525108","139.708365","0","1"
"14","神奈川県","14131","川崎市川崎区","141310025001","大島一丁目","35.524009","139.711731","0","3"
"14","神奈川県","14131","川崎市川崎区","141310021003","小田三丁目","35.514017","139.703836","0","3"
"14","神奈川県","14131","川崎市川崎区","141310021004","小田四丁目","35.510694","139.700414","0","3"
"14","神奈川県","14131","川崎市川崎区","141310034000","渡田東町","35.518302","139.708078","0","1"
"14","神奈川県","14131","川崎市川崎区","141310035001","小田栄一丁目","35.515782","139.704749","0","3"
"14","神奈川県","14131","川崎市川崎区","141310021005","小田五丁目","35.511570","139.706424","0","3"
"14","神奈川県","14131","川崎市川崎区","141310035002","小田栄二丁目","35.513587","139.708705","0","3"
"14","神奈川県","14131","川崎市川崎区","141310004002","浅田二丁目","35.506970","139.702678","0","3"
"14","神奈川県","14131","川崎市川崎区","141310036003","京町三丁目","35.508803","139.697073","0","3"
"14","神奈川県","14131","川崎市川崎区","141310004003","浅田三丁目","35.507460","139.699996","0","3"
"14","神奈川県","14131","川崎市川崎区","141310021001","小田一丁目","35.515985","139.699053","0","3"
"14","神奈川県","14131","川崎市川崎区","141310021002","小田二丁目","35.513489","139.699584","0","3"
"14","神奈川県","14131","川崎市川崎区","141310030002","渡田二丁目","35.520905","139.706322","0","3"
"14","神奈川県","14131","川崎市川崎区","141310030004","渡田四丁目","35.518352","139.702886","0","3"
"14","神奈川県","14131","川崎市川崎区","141310037001","渡田新町一丁目","35.522026","139.700128","0","3"
"14","神奈川県","14131","川崎市川崎区","141310038001","元木一丁目","35.524102","139.699217","0","3"
"14","神奈川県","14131","川崎市川崎区","141310039000","新川通","35.526319","139.705158","0","1"
"14","神奈川県","14131","川崎市川崎区","141310040000","渡田山王町","35.519162","139.696324","0","1"
"14","神奈川県","14131","川崎市川崎区","141310041000","渡田向町","35.521358","139.702868","0","1"
"14","神奈川県","14131","川崎市川崎区","141310042002","貝塚二丁目","35.524523","139.704534","0","3"
"14","神奈川県","14131","川崎市川崎区","141310037003","渡田新町三丁目","35.519441","139.699407","0","3"
"14","神奈川県","14131","川崎市川崎区","141310036002","京町二丁目","35.513738","139.695328","0","3"
"14","神奈川県","14131","川崎市川崎区","141310036001","京町一丁目","35.517933","139.693751","0","3"
"14","神奈川県","14131","川崎市川崎区","141310037002","渡田新町二丁目","35.521067","139.699324","0","3"
"14","神奈川県","14131","川崎市川崎区","141310038002","元木二丁目","35.522445","139.696011","0","3"
"14","神奈川県","14131","川崎市川崎区","141310043000","下並木","35.523144","139.689816","0","1"
"14","神奈川県","14131","川崎市川崎区","141310044001","池田一丁目","35.521530","139.691448","0","3"
"14","神奈川県","14131","川崎市川崎区","141310044002","池田二丁目","35.520540","139.692629","0","3"
"14","神奈川県","14131","川崎市川崎区","141310006002","塩浜二丁目","35.523555","139.737509","0","3"
"14","神奈川県","14131","川崎市川崎区","141310006001","塩浜一丁目","35.528691","139.740769","0","3"
"14","神奈川県","14131","川崎市川崎区","141310017001","日ノ出一丁目","35.531914","139.741726","0","3"
"14","神奈川県","14131","川崎市川崎区","141310045000","出来野","35.533646","139.739799","0","1"
"14","神奈川県","14131","川崎市川崎区","141310046000","四谷上町","35.527750","139.734338","0","1"
"14","神奈川県","14131","川崎市川崎区","141310023001","池上新町一丁目","35.523061","139.728261","0","3"
"14","神奈川県","14131","川崎市川崎区","141310047001","昭和一丁目","35.533251","139.737189","0","3"
"14","神奈川県","14131","川崎市川崎区","141310047002","昭和二丁目","35.530496","139.737533","0","3"
"14","神奈川県","14131","川崎市川崎区","141310011001","江川一丁目","35.536344","139.744178","0","3"
"14","神奈川県","14131","川崎市川崎区","141310007001","殿町一丁目","35.540843","139.743347","0","3"
"14","神奈川県","14131","川崎市川崎区","141310048002","東門前二丁目","35.533390","139.734694","0","3"
"14","神奈川県","14131","川崎市川崎区","141310048003","東門前三丁目","35.535690","139.736483","0","3"
"14","神奈川県","14131","川崎市川崎区","141310049002","大師河原二丁目","35.536090","139.739724","0","3"
"14","神奈川県","14131","川崎市川崎区","141310012001","田町一丁目","35.535343","139.742030","0","3"
"14","神奈川県","14131","川崎市川崎区","141310050000","大師本町","35.535618","139.730287","0","1"
"14","神奈川県","14131","川崎市川崎区","141310023002","池上新町二丁目","35.524058","139.730688","0","3"
"14","神奈川県","14131","川崎市川崎区","141310051002","観音二丁目","35.527450","139.729597","0","3"
"14","神奈川県","14131","川崎市川崎区","141310051001","観音一丁目","35.527226","139.726093","0","3"
"14","神奈川県","14131","川崎市川崎区","141310052004","藤崎四丁目","35.524408","139.722328","0","3"
"14","神奈川県","14131","川崎市川崎区","141310053000","大師町","35.533810","139.730888","0","1"
"14","神奈川県","14131","川崎市川崎区","141310054000","大師公園","35.531721","139.731413","0","1"
"14","神奈川県","14131","川崎市川崎区","141310055000","台町","35.530270","139.732695","0","1"
"14","神奈川県","14131","川崎市川崎区","141310048001","東門前一丁目","35.535414","139.733436","0","3"
"14","神奈川県","14131","川崎市川崎区","141310018002","中島二丁目","35.528741","139.716280","0","3"
"14","神奈川県","14131","川崎市川崎区","141310052001","藤崎一丁目","35.529413","139.720801","0","3"
"14","神奈川県","14131","川崎市川崎区","141310052003","藤崎三丁目","35.528253","139.723750","0","3"
"14","神奈川県","14131","川崎市川崎区","141310056002","川中島二丁目","35.530438","139.727184","0","3"
"14","神奈川県","14131","川崎市川崎区","141310057001","大師駅前一丁目","35.534908","139.726919","0","3"
"14","神奈川県","14131","川崎市川崎区","141310056001","川中島一丁目","35.532355","139.726893","0","3"
"14","神奈川県","14131","川崎市川崎区","141310057002","大師駅前二丁目","35.534241","139.723358","0","3"
"14","神奈川県","14131","川崎市川崎区","141310018003","中島三丁目","35.526887","139.716061","0","3"
"14","神奈川県","14131","川崎市川崎区","141310052002","藤崎二丁目","35.526767","139.720665","0","3"
"14","神奈川県","14131","川崎市川崎区","141310058003","中瀬三丁目","35.539254","139.732078","0","3"
"14","神奈川県","14131","川崎市川崎区","141310049001","大師河原一丁目","35.541128","139.738156","0","3"
"14","神奈川県","14131","川崎市川崎区","141310058002","中瀬二丁目","35.537619","139.727849","0","3"
"14","神奈川県","14131","川崎市川崎区","141310058001","中瀬一丁目","35.541223","139.728673","0","3"
"14","神奈川県","14131","川崎市川崎区","141310059000","鈴木町","35.538858","139.722793","0","1"
"14","神奈川県","14131","川崎市川崎区","141310060000","伊勢町","35.531981","139.721555","0","1"
"14","神奈川県","14131","川崎市川崎区","141310061000","小川町","35.527528","139.698112","0","1"
"14","神奈川県","14131","川崎市川崎区","141310042001","貝塚一丁目","35.525225","139.702012","0","3"
"14","神奈川県","14131","川崎市川崎区","141310062000","港町","35.535292","139.714131","0","1"
"14","神奈川県","14131","川崎市川崎区","141310063001","旭町一丁目","35.535443","139.709710","0","3"
"14","神奈川県","14131","川崎市川崎区","141310064002","富士見二丁目","35.527831","139.710559","0","3"
"14","神奈川県","14131","川崎市川崎区","141310065000","宮本町","35.531094","139.704116","0","1"
"14","神奈川県","14131","川崎市川崎区","141310066000","堀之内町","35.533105","139.705826","0","1"
"14","神奈川県","14131","川崎市川崎区","141310067000","榎町","35.531238","139.706405","0","1"
"14","神奈川県","14131","川崎市川崎区","141310068000","宮前町","35.528364","139.705427","0","1"
"14","神奈川県","14131","川崎市川崎区","141310069000","南町","35.525841","139.698811","0","1"
"14","神奈川県","14131","川崎市川崎区","141310070000","東田町","35.528561","139.702468","0","1"
"14","神奈川県","14131","川崎市川崎区","141310071001","砂子一丁目","35.531796","139.701441","0","3"
"14","神奈川県","14131","川崎市川崎区","141310071002","砂子二丁目","35.529262","139.700321","0","3"
"14","神奈川県","14131","川崎市川崎区","141310072002","本町二丁目","35.535091","139.705541","0","3"
"14","神奈川県","14131","川崎市川崎区","141310073000","駅前本町","35.532434","139.699600","0","1"
"14","神奈川県","14131","川崎市川崎区","141310072001","本町一丁目","35.533300","139.703119","0","3"
"14","神奈川県","14131","川崎市川崎区","141310064001","富士見一丁目","35.531636","139.710917","0","3"
"14","神奈川県","14131","川崎市川崎区","141310063002","旭町二丁目","35.532275","139.716636","0","3"
"14","神奈川県","14131","川崎市川崎区","141310074000","堤根","35.524993","139.688584","0","1"
"14","神奈川県","14131","川崎市川崎区","141310075000","日進町","35.526463","139.692935","0","1"
