"PrefCode","PrefName","MuniCode","MuniName","DistCode","DistName","lat","lon","SrcCode","CatCode"
"15","新潟県","15103","新潟市中央区","151030001000","相生町","37.925918","139.052581","0","1"
"15","新潟県","15103","新潟市中央区","151030002001","赤坂町一丁目","37.930098","139.051274","0","3"
"15","新潟県","15103","新潟市中央区","151030002002","赤坂町二丁目","37.930388","139.052714","0","3"
"15","新潟県","15103","新潟市中央区","151030002003","赤坂町三丁目","37.931033","139.054196","0","3"
"15","新潟県","15103","新潟市中央区","151030003001","明石一丁目","37.916011","139.065508","0","3"
"15","新潟県","15103","新潟市中央区","151030003002","明石二丁目","37.917127","139.068623","0","3"
"15","新潟県","15103","新潟市中央区","151030004000","曙町","37.930714","139.049376","0","1"
"15","新潟県","15103","新潟市中央区","151030005000","旭町通一番町","37.919669","139.034929","0","1"
"15","新潟県","15103","新潟市中央区","151030006000","旭町通二番町","37.922068","139.034938","0","1"
"15","新潟県","15103","新潟市中央区","151030007001","愛宕一丁目","37.887269","139.028122","0","3"
"15","新潟県","15103","新潟市中央区","151030007002","愛宕二丁目","37.887434","139.025776","0","3"
"15","新潟県","15103","新潟市中央区","151030007003","愛宕三丁目","37.889189","139.027290","0","3"
"15","新潟県","15103","新潟市中央区","151030008001","鐙一丁目","37.905201","139.067183","0","3"
"15","新潟県","15103","新潟市中央区","151030008002","鐙二丁目","37.903842","139.068433","0","3"
"15","新潟県","15103","新潟市中央区","151030008003","鐙三丁目","37.905766","139.071963","0","3"
"15","新潟県","15103","新潟市中央区","151030009001","鐙西一丁目","37.903308","139.063497","0","3"
"15","新潟県","15103","新潟市中央区","151030009002","鐙西二丁目","37.901743","139.060818","0","3"
"15","新潟県","15103","新潟市中央区","151030010000","網川原","37.897332","139.020421","0","1"
"15","新潟県","15103","新潟市中央区","151030011001","網川原一丁目","37.895852","139.021655","0","3"
"15","新潟県","15103","新潟市中央区","151030011002","網川原二丁目","37.892522","139.021697","0","3"
"15","新潟県","15103","新潟市中央区","151030012000","有明大橋町","37.903361","139.010435","0","1"
"15","新潟県","15103","新潟市中央区","151030013000","有明台","37.901194","139.010381","0","1"
"15","新潟県","15103","新潟市中央区","151030014000","医学町通一番町","37.917415","139.038444","0","1"
"15","新潟県","15103","新潟市中央区","151030015000","医学町通二番町","37.917349","139.037024","0","1"
"15","新潟県","15103","新潟市中央区","151030016000","礎町通一ノ町","37.920235","139.049572","0","1"
"15","新潟県","15103","新潟市中央区","151030017000","礎町通二ノ町","37.921263","139.050341","0","1"
"15","新潟県","15103","新潟市中央区","151030018000","礎町通三ノ町","37.922287","139.051181","0","1"
"15","新潟県","15103","新潟市中央区","151030019000","礎町通四ノ町","37.923338","139.052092","0","1"
"15","新潟県","15103","新潟市中央区","151030020000","礎町通五ノ町","37.924298","139.052851","0","1"
"15","新潟県","15103","新潟市中央区","151030021000","礎町通六ノ町","37.925075","139.053425","0","1"
"15","新潟県","15103","新潟市中央区","151030022000","礎町通上一ノ町","37.919276","139.049157","0","1"
"15","新潟県","15103","新潟市中央区","151030023000","一番堀通町","37.913048","139.038882","0","1"
"15","新潟県","15103","新潟市中央区","151030024000","稲荷町","37.932681","139.055067","0","1"
"15","新潟県","15103","新潟市中央区","151030025001","入船町一丁目","37.932383","139.057046","0","3"
"15","新潟県","15103","新潟市中央区","151030025002","入船町二丁目","37.933285","139.056972","0","3"
"15","新潟県","15103","新潟市中央区","151030025003","入船町三丁目","37.934412","139.056796","0","3"
"15","新潟県","15103","新潟市中央区","151030025004","入船町四丁目","37.940148","139.060974","0","3"
"15","新潟県","15103","新潟市中央区","151030025005","入船町五丁目","37.936670","139.056848","0","3"
"15","新潟県","15103","新潟市中央区","151030025006","入船町六丁目","37.937753","139.056984","0","3"
"15","新潟県","15103","新潟市中央区","151030026000","祝町","37.933686","139.051688","0","1"
"15","新潟県","15103","新潟市中央区","151030027000","浮洲町","37.934727","139.052442","0","1"
"15","新潟県","15103","新潟市中央区","151030028000","鵜ノ子","37.883158","139.083029","0","1"
"15","新潟県","15103","新潟市中央区","151030029000","姥ケ山","37.886313","139.083780","0","1"
"15","新潟県","15103","新潟市中央区","151030030001","姥ケ山一丁目","37.887980","139.074640","0","3"
"15","新潟県","15103","新潟市中央区","151030030002","姥ケ山二丁目","37.885684","139.076398","0","3"
"15","新潟県","15103","新潟市中央区","151030030003","姥ケ山三丁目","37.886558","139.079260","0","3"
"15","新潟県","15103","新潟市中央区","151030030004","姥ケ山四丁目","37.889502","139.079583","0","3"
"15","新潟県","15103","新潟市中央区","151030030005","姥ケ山五丁目","37.891000","139.077407","0","3"
"15","新潟県","15103","新潟市中央区","151030030006","姥ケ山六丁目","37.892456","139.080693","0","3"
"15","新潟県","15103","新潟市中央区","151030031000","海辺町一番町","37.943120","139.060616","0","1"
"15","新潟県","15103","新潟市中央区","151030032000","海辺町二番町","37.943051","139.058928","0","1"
"15","新潟県","15103","新潟市中央区","151030033000","上沼","37.881916","139.037858","0","1"
"15","新潟県","15103","新潟市中央区","151030034000","営所通一番町","37.921085","139.040442","0","1"
"15","新潟県","15103","新潟市中央区","151030035000","営所通二番町","37.922834","139.038105","0","1"
"15","新潟県","15103","新潟市中央区","151030036000","烏帽子町","37.933161","139.047297","0","1"
"15","新潟県","15103","新潟市中央区","151030037001","近江一丁目","37.903903","139.043969","0","3"
"15","新潟県","15103","新潟市中央区","151030037002","近江二丁目","37.901784","139.047492","0","3"
"15","新潟県","15103","新潟市中央区","151030037003","近江三丁目","37.901244","139.044752","0","3"
"15","新潟県","15103","新潟市中央区","151030038001","翁町一丁目","37.933559","139.047782","0","3"
"15","新潟県","15103","新潟市中央区","151030038002","翁町二丁目","37.934125","139.048498","0","3"
"15","新潟県","15103","新潟市中央区","151030039000","親松","37.878637","139.027981","0","1"
"15","新潟県","15103","新潟市中央区","151030040000","鏡が岡","37.915990","139.073402","0","1"
"15","新潟県","15103","新潟市中央区","151030041000","春日町","37.912643","139.054474","0","1"
"15","新潟県","15103","新潟市中央区","151030042000","学校裏町","37.916926","139.037978","0","1"
"15","新潟県","15103","新潟市中央区","151030043000","学校町通一番町","37.916493","139.037728","0","1"
"15","新潟県","15103","新潟市中央区","151030044000","学校町通二番町","37.917815","139.033825","0","1"
"15","新潟県","15103","新潟市中央区","151030045000","学校町通三番町","37.917759","139.028206","0","1"
"15","新潟県","15103","新潟市中央区","151030046001","上近江一丁目","37.900858","139.033168","0","3"
"15","新潟県","15103","新潟市中央区","151030046002","上近江二丁目","37.899112","139.037247","0","3"
"15","新潟県","15103","新潟市中央区","151030046003","上近江三丁目","37.898251","139.034216","0","3"
"15","新潟県","15103","新潟市中央区","151030046004","上近江四丁目","37.897771","139.030309","0","3"
"15","新潟県","15103","新潟市中央区","151030047000","上大川前通十番町","37.926489","139.049137","0","1"
"15","新潟県","15103","新潟市中央区","151030048000","上大川前通十一番町","37.927874","139.049152","0","1"
"15","新潟県","15103","新潟市中央区","151030049000","上大川前通十二番町","37.929364","139.049268","0","1"
"15","新潟県","15103","新潟市中央区","151030050000","上大川前通一番町","37.914832","139.042725","0","1"
"15","新潟県","15103","新潟市中央区","151030051000","上大川前通二番町","37.915430","139.043822","0","1"
"15","新潟県","15103","新潟市中央区","151030052000","上大川前通三番町","37.916169","139.044958","0","1"
"15","新潟県","15103","新潟市中央区","151030053000","上大川前通四番町","37.917030","139.046171","0","1"
"15","新潟県","15103","新潟市中央区","151030054000","上大川前通五番町","37.918329","139.047619","0","1"
"15","新潟県","15103","新潟市中央区","151030055000","上大川前通六番町","37.920350","139.047780","0","1"
"15","新潟県","15103","新潟市中央区","151030056000","上大川前通七番町","37.922191","139.048390","0","1"
"15","新潟県","15103","新潟市中央区","151030057000","上大川前通八番町","37.923693","139.048606","0","1"
"15","新潟県","15103","新潟市中央区","151030058000","上大川前通九番町","37.925085","139.048951","0","1"
"15","新潟県","15103","新潟市中央区","151030059001","上所一丁目","37.909486","139.041234","0","3"
"15","新潟県","15103","新潟市中央区","151030059002","上所二丁目","37.907117","139.034488","0","3"
"15","新潟県","15103","新潟市中央区","151030059003","上所三丁目","37.905490","139.041661","0","3"
"15","新潟県","15103","新潟市中央区","151030060001","上所上一丁目","37.904637","139.031810","0","3"
"15","新潟県","15103","新潟市中央区","151030060002","上所上二丁目","37.902903","139.033706","0","3"
"15","新潟県","15103","新潟市中央区","151030060003","上所上三丁目","37.901982","139.031417","0","3"
"15","新潟県","15103","新潟市中央区","151030061001","上所中一丁目","37.905585","139.036349","0","3"
"15","新潟県","15103","新潟市中央区","151030061002","上所中二丁目","37.904180","139.038449","0","3"
"15","新潟県","15103","新潟市中央区","151030061003","上所中三丁目","37.903208","139.036238","0","3"
"15","新潟県","15103","新潟市中央区","151030062000","亀田早通","37.880911","139.080047","0","1"
"15","新潟県","15103","新潟市中央区","151030063001","川岸町一丁目","37.911807","139.035208","0","3"
"15","新潟県","15103","新潟市中央区","151030063002","川岸町二丁目","37.909917","139.032623","0","3"
"15","新潟県","15103","新潟市中央区","151030063003","川岸町三丁目","37.908599","139.026074","0","3"
"15","新潟県","15103","新潟市中央区","151030064001","川端町一丁目","37.913599","139.043827","0","3"
"15","新潟県","15103","新潟市中央区","151030064002","川端町二丁目","37.914510","139.045603","0","3"
"15","新潟県","15103","新潟市中央区","151030064003","川端町三丁目","37.915217","139.046935","0","3"
"15","新潟県","15103","新潟市中央区","151030064004","川端町四丁目","37.916019","139.048118","0","3"
"15","新潟県","15103","新潟市中央区","151030064005","川端町五丁目","37.916994","139.049428","0","3"
"15","新潟県","15103","新潟市中央区","151030064006","川端町六丁目","37.919319","139.050927","0","3"
"15","新潟県","15103","新潟市中央区","151030065001","神道寺一丁目","37.899909","139.056391","0","3"
"15","新潟県","15103","新潟市中央区","151030065002","神道寺二丁目","37.897108","139.055833","0","3"
"15","新潟県","15103","新潟市中央区","151030065003","神道寺三丁目","37.899147","139.053837","0","3"
"15","新潟県","15103","新潟市中央区","151030066001","神道寺南一丁目","37.896382","139.057943","0","3"
"15","新潟県","15103","新潟市中央区","151030066002","神道寺南二丁目","37.894650","139.059083","0","3"
"15","新潟県","15103","新潟市中央区","151030067000","蒲原町","37.918837","139.067435","0","1"
"15","新潟県","15103","新潟市中央区","151030068000","北大畑町","37.925937","139.041390","0","1"
"15","新潟県","15103","新潟市中央区","151030069000","北多門町","37.924886","139.049708","0","1"
"15","新潟県","15103","新潟市中央区","151030070000","北浜通一番町","37.925757","139.042923","0","1"
"15","新潟県","15103","新潟市中央区","151030071000","北浜通二番町","37.926394","139.042567","0","1"
"15","新潟県","15103","新潟市中央区","151030072000","北毘沙門町","37.926417","139.051500","0","1"
"15","新潟県","15103","新潟市中央区","151030073000","寄附町","37.932864","139.048869","0","1"
"15","新潟県","15103","新潟市中央区","151030074000","久蔵興野","37.876576","139.040541","0","1"
"15","新潟県","15103","新潟市中央区","151030075000","窪田町","37.923451","139.026494","0","1"
"15","新潟県","15103","新潟市中央区","151030076001","窪田町一丁目","37.937214","139.052364","0","3"
"15","新潟県","15103","新潟市中央区","151030076002","窪田町二丁目","37.939253","139.054467","0","3"
"15","新潟県","15103","新潟市中央区","151030076003","窪田町三丁目","37.936715","139.052863","0","3"
"15","新潟県","15103","新潟市中央区","151030076004","窪田町四丁目","37.938448","139.054544","0","3"
"15","新潟県","15103","新潟市中央区","151030076005","窪田町五丁目","37.937143","139.054143","0","3"
"15","新潟県","15103","新潟市中央区","151030076006","窪田町六丁目","37.938765","139.055690","0","3"
"15","新潟県","15103","新潟市中央区","151030076007","窪田町七丁目","37.937578","139.055192","0","3"
"15","新潟県","15103","新潟市中央区","151030077001","京王一丁目","37.893239","139.075812","0","3"
"15","新潟県","15103","新潟市中央区","151030077002","京王二丁目","37.894188","139.079046","0","3"
"15","新潟県","15103","新潟市中央区","151030077003","京王三丁目","37.895447","139.080292","0","3"
"15","新潟県","15103","新潟市中央区","151030078001","高志一丁目","37.896425","139.074144","0","3"
"15","新潟県","15103","新潟市中央区","151030078002","高志二丁目","37.897619","139.077043","0","3"
"15","新潟県","15103","新潟市中央区","151030079001","寿町一丁目","37.934240","139.051391","0","3"
"15","新潟県","15103","新潟市中央区","151030079002","寿町二丁目","37.934944","139.050983","0","3"
"15","新潟県","15103","新潟市中央区","151030080000","湖南","37.876450","139.039176","0","1"
"15","新潟県","15103","新潟市中央区","151030081001","小張木一丁目","37.885747","139.048148","0","3"
"15","新潟県","15103","新潟市中央区","151030081002","小張木二丁目","37.886794","139.041529","0","3"
"15","新潟県","15103","新潟市中央区","151030081003","小張木三丁目","37.884386","139.042160","0","3"
"15","新潟県","15103","新潟市中央区","151030082000","幸町","37.909133","139.049509","0","1"
"15","新潟県","15103","新潟市中央区","151030083001","幸西一丁目","37.911771","139.050531","0","3"
"15","新潟県","15103","新潟市中央区","151030083002","幸西二丁目","37.909887","139.047140","0","3"
"15","新潟県","15103","新潟市中央区","151030083003","幸西三丁目","37.911642","139.045931","0","3"
"15","新潟県","15103","新潟市中央区","151030083004","幸西四丁目","37.913401","139.049106","0","3"
"15","新潟県","15103","新潟市中央区","151030084001","栄町一丁目","37.933826","139.049945","0","3"
"15","新潟県","15103","新潟市中央区","151030084002","栄町二丁目","37.934622","139.050022","0","3"
"15","新潟県","15103","新潟市中央区","151030084003","栄町三丁目","37.935551","139.049851","0","3"
"15","新潟県","15103","新潟市中央区","151030085000","魁町","37.929222","139.056342","0","1"
"15","新潟県","15103","新潟市中央区","151030086000","桜木町","37.894044","139.053251","0","1"
"15","新潟県","15103","新潟市中央区","151030087000","笹口","37.912409","139.071438","0","1"
"15","新潟県","15103","新潟市中央区","151030088001","笹口一丁目","37.911749","139.065760","0","3"
"15","新潟県","15103","新潟市中央区","151030088002","笹口二丁目","37.910230","139.065225","0","3"
"15","新潟県","15103","新潟市中央区","151030088003","笹口三丁目","37.912320","139.070034","0","3"
"15","新潟県","15103","新潟市中央区","151030089000","三和町","37.922438","139.062152","0","1"
"15","新潟県","15103","新潟市中央区","151030090000","汐見台","37.913226","139.010636","0","1"
"15","新潟県","15103","新潟市中央区","151030091001","紫竹一丁目","37.909774","139.076587","0","3"
"15","新潟県","15103","新潟市中央区","151030092001","紫竹山一丁目","37.899759","139.063910","0","3"
"15","新潟県","15103","新潟市中央区","151030092002","紫竹山二丁目","37.901371","139.068043","0","3"
"15","新潟県","15103","新潟市中央区","151030092003","紫竹山三丁目","37.902942","139.072172","0","3"
"15","新潟県","15103","新潟市中央区","151030092004","紫竹山四丁目","37.899307","139.072848","0","3"
"15","新潟県","15103","新潟市中央区","151030092005","紫竹山五丁目","37.898379","139.068946","0","3"
"15","新潟県","15103","新潟市中央区","151030092006","紫竹山六丁目","37.897220","139.065941","0","3"
"15","新潟県","15103","新潟市中央区","151030092007","紫竹山七丁目","37.896102","139.063124","0","3"
"15","新潟県","15103","新潟市中央区","151030093000","信濃町","37.908044","139.012160","0","1"
"15","新潟県","15103","新潟市中央区","151030094000","下旭町","37.920703","139.037913","0","1"
"15","新潟県","15103","新潟市中央区","151030095000","下大川前通一ノ町","37.919906","139.050238","0","1"
"15","新潟県","15103","新潟市中央区","151030096000","下大川前通二ノ町","37.920947","139.051817","0","1"
"15","新潟県","15103","新潟市中央区","151030097000","下大川前通三ノ町","37.921625","139.052892","0","1"
"15","新潟県","15103","新潟市中央区","151030098000","下大川前通四ノ町","37.922417","139.053678","0","1"
"15","新潟県","15103","新潟市中央区","151030099000","下大川前通五ノ町","37.923502","139.054351","0","1"
"15","新潟県","15103","新潟市中央区","151030100000","下大川前通六ノ町","37.924468","139.055337","0","1"
"15","新潟県","15103","新潟市中央区","151030101000","下大川前通七ノ町","37.925439","139.056032","0","1"
"15","新潟県","15103","新潟市中央区","151030102001","下所島一丁目","37.907347","139.044803","0","3"
"15","新潟県","15103","新潟市中央区","151030102002","下所島二丁目","37.905905","139.045772","0","3"
"15","新潟県","15103","新潟市中央区","151030103000","鐘木","37.878728","139.044122","0","1"
"15","新潟県","15103","新潟市中央区","151030104000","新光町","37.901591","139.020995","0","1"
"15","新潟県","15103","新潟市中央区","151030105000","新島町通一ノ町","37.920611","139.048861","0","1"
"15","新潟県","15103","新潟市中央区","151030106000","新島町通二ノ町","37.923471","139.050100","0","1"
"15","新潟県","15103","新潟市中央区","151030107000","新島町通三ノ町","37.924479","139.051838","0","1"
"15","新潟県","15103","新潟市中央区","151030108000","新島町通四ノ町","37.925498","139.053976","0","1"
"15","新潟県","15103","新潟市中央区","151030109000","新島町通五ノ町","37.925773","139.054767","0","1"
"15","新潟県","15103","新潟市中央区","151030110001","新和一丁目","37.902030","139.039250","0","3"
"15","新潟県","15103","新潟市中央区","151030110002","新和二丁目","37.900333","139.042800","0","3"
"15","新潟県","15103","新潟市中央区","151030110003","新和三丁目","37.899879","139.041133","0","3"
"15","新潟県","15103","新潟市中央区","151030110004","新和四丁目","37.899342","139.039491","0","3"
"15","新潟県","15103","新潟市中央区","151030111001","水道町一丁目","37.920872","139.026992","0","3"
"15","新潟県","15103","新潟市中央区","151030111002","水道町二丁目","37.922766","139.031469","0","3"
"15","新潟県","15103","新潟市中央区","151030112000","菅根町","37.931640","139.051789","0","1"
"15","新潟県","15103","新潟市中央区","151030113000","住吉町","37.925720","139.050238","0","1"
"15","新潟県","15103","新潟市中央区","151030114000","清五郎","37.881832","139.053083","0","1"
"15","新潟県","15103","新潟市中央区","151030115001","関新一丁目","37.908860","139.021631","0","3"
"15","新潟県","15103","新潟市中央区","151030115002","関新二丁目","37.905963","139.021371","0","3"
"15","新潟県","15103","新潟市中央区","151030115003","関新三丁目","37.906647","139.018260","0","3"
"15","新潟県","15103","新潟市中央区","151030116000","関南町","37.897436","139.012028","0","1"
"15","新潟県","15103","新潟市中央区","151030117000","関屋","37.915905","139.014650","0","1"
"15","新潟県","15103","新潟市中央区","151030118001","関屋大川前一丁目","37.902904","139.016812","0","3"
"15","新潟県","15103","新潟市中央区","151030118002","関屋大川前二丁目","37.905307","139.015028","0","3"
"15","新潟県","15103","新潟市中央区","151030119000","関屋御船蔵町","37.909908","139.020287","0","1"
"15","新潟県","15103","新潟市中央区","151030120000","関屋金鉢山町","37.909191","139.016923","0","1"
"15","新潟県","15103","新潟市中央区","151030121001","関屋金衛町一丁目","37.914124","139.016644","0","3"
"15","新潟県","15103","新潟市中央区","151030121002","関屋金衛町二丁目","37.913100","139.014680","0","3"
"15","新潟県","15103","新潟市中央区","151030122001","関屋下川原町一丁目","37.916789","139.025508","0","3"
"15","新潟県","15103","新潟市中央区","151030122002","関屋下川原町二丁目","37.915220","139.023714","0","3"
"15","新潟県","15103","新潟市中央区","151030123001","関屋昭和町一丁目","37.912237","139.016198","0","3"
"15","新潟県","15103","新潟市中央区","151030123002","関屋昭和町二丁目","37.910757","139.016953","0","3"
"15","新潟県","15103","新潟市中央区","151030123003","関屋昭和町三丁目","37.909358","139.018684","0","3"
"15","新潟県","15103","新潟市中央区","151030124001","関屋新町通一丁目","37.911049","139.024655","0","3"
"15","新潟県","15103","新潟市中央区","151030124002","関屋新町通二丁目","37.909940","139.022499","0","3"
"15","新潟県","15103","新潟市中央区","151030125001","関屋田町一丁目","37.913980","139.025163","0","3"
"15","新潟県","15103","新潟市中央区","151030125002","関屋田町二丁目","37.912968","139.024192","0","3"
"15","新潟県","15103","新潟市中央区","151030125003","関屋田町三丁目","37.912075","139.022699","0","3"
"15","新潟県","15103","新潟市中央区","151030125004","関屋田町四丁目","37.910633","139.021799","0","3"
"15","新潟県","15103","新潟市中央区","151030126000","関屋浜松町","37.908002","139.015437","0","1"
"15","新潟県","15103","新潟市中央区","151030127001","関屋本村町一丁目","37.913137","139.020396","0","3"
"15","新潟県","15103","新潟市中央区","151030127002","関屋本村町二丁目","37.910999","139.019321","0","3"
"15","新潟県","15103","新潟市中央区","151030128001","関屋松波町一丁目","37.918255","139.024670","0","3"
"15","新潟県","15103","新潟市中央区","151030128002","関屋松波町二丁目","37.917041","139.022152","0","3"
"15","新潟県","15103","新潟市中央区","151030128003","関屋松波町三丁目","37.915415","139.019387","0","3"
"15","新潟県","15103","新潟市中央区","151030129000","関屋恵町","37.902942","139.012706","0","1"
"15","新潟県","15103","新潟市中央区","151030130000","太右エ門新田","37.880298","139.034376","0","1"
"15","新潟県","15103","新潟市中央区","151030131000","高美町","37.880809","139.036860","0","1"
"15","新潟県","15103","新潟市中央区","151030132000","田中町","37.929237","139.042166","0","1"
"15","新潟県","15103","新潟市中央区","151030133001","田町一丁目","37.931693","139.052675","0","3"
"15","新潟県","15103","新潟市中央区","151030133002","田町二丁目","37.931851","139.053534","0","3"
"15","新潟県","15103","新潟市中央区","151030133003","田町三丁目","37.931482","139.054371","0","3"
"15","新潟県","15103","新潟市中央区","151030134000","俵柳","37.874950","139.041253","0","1"
"15","新潟県","15103","新潟市中央区","151030135000","忠蔵町","37.936248","139.053332","0","1"
"15","新潟県","15103","新潟市中央区","151030136000","月町","37.922673","139.050141","0","1"
"15","新潟県","15103","新潟市中央区","151030137001","附船町一丁目","37.935064","139.054790","0","3"
"15","新潟県","15103","新潟市中央区","151030137002","附船町二丁目","37.936697","139.056077","0","3"
"15","新潟県","15103","新潟市中央区","151030137003","附船町三丁目","37.937913","139.056226","0","3"
"15","新潟県","15103","新潟市中央区","151030138001","出来島一丁目","37.900332","139.024014","0","3"
"15","新潟県","15103","新潟市中央区","151030138002","出来島二丁目","37.899992","139.026363","0","3"
"15","新潟県","15103","新潟市中央区","151030139000","寺裏通一番町","37.918711","139.039234","0","1"
"15","新潟県","15103","新潟市中央区","151030140000","寺裏通二番町","37.920291","139.040360","0","1"
"15","新潟県","15103","新潟市中央区","151030141000","寺山町","37.932407","139.051703","0","1"
"15","新潟県","15103","新潟市中央区","151030142001","天神一丁目","37.910004","139.060593","0","3"
"15","新潟県","15103","新潟市中央区","151030142002","天神二丁目","37.909445","139.057778","0","3"
"15","新潟県","15103","新潟市中央区","151030143001","天神尾一丁目","37.908787","139.054648","0","3"
"15","新潟県","15103","新潟市中央区","151030143002","天神尾二丁目","37.907676","139.052217","0","3"
"15","新潟県","15103","新潟市中央区","151030144000","天明町","37.920465","139.063135","0","1"
"15","新潟県","15103","新潟市中央区","151030145001","鳥屋野一丁目","37.889229","139.022899","0","3"
"15","新潟県","15103","新潟市中央区","151030145002","鳥屋野二丁目","37.888516","139.019707","0","3"
"15","新潟県","15103","新潟市中央区","151030145003","鳥屋野三丁目","37.884324","139.020828","0","3"
"15","新潟県","15103","新潟市中央区","151030146000","豊照町","37.926989","139.054129","0","1"
"15","新潟県","15103","新潟市中央区","151030147000","中大畑町","37.925707","139.041519","0","1"
"15","新潟県","15103","新潟市中央区","151030148000","長潟","37.884427","139.064863","0","1"
"15","新潟県","15103","新潟市中央区","151030149001","長潟一丁目","37.893078","139.065008","0","3"
"15","新潟県","15103","新潟市中央区","151030149002","長潟二丁目","37.890126","139.067077","0","3"
"15","新潟県","15103","新潟市中央区","151030149003","長潟三丁目","37.887795","139.069154","0","3"
"15","新潟県","15103","新潟市中央区","151030150000","長嶺町","37.915022","139.069404","0","1"
"15","新潟県","15103","新潟市中央区","151030151000","鍋潟新田","37.876396","139.057043","0","1"
"15","新潟県","15103","新潟市中央区","151030152000","並木町","37.925515","139.052234","0","1"
"15","新潟県","15103","新潟市中央区","151030153000","西受地町","37.933251","139.049783","0","1"
"15","新潟県","15103","新潟市中央区","151030154000","西馬越","37.913633","139.072774","0","1"
"15","新潟県","15103","新潟市中央区","151030155000","西厩島町","37.924880","139.050307","0","1"
"15","新潟県","15103","新潟市中央区","151030156000","西大畑町","37.925927","139.038533","0","1"
"15","新潟県","15103","新潟市中央区","151030157000","西中町","37.920903","139.038751","0","1"
"15","新潟県","15103","新潟市中央区","151030158000","西船見町","37.931018","139.039451","0","1"
"15","新潟県","15103","新潟市中央区","151030159000","西堀通十番町","37.928564","139.044550","0","1"
"15","新潟県","15103","新潟市中央区","151030160000","西堀通十一番町","37.929482","139.045009","0","1"
"15","新潟県","15103","新潟市中央区","151030161000","西堀通一番町","37.917452","139.039676","0","1"
"15","新潟県","15103","新潟市中央区","151030162000","西堀通二番町","37.918255","139.040196","0","1"
"15","新潟県","15103","新潟市中央区","151030163000","西堀通三番町","37.919173","139.041120","0","1"
"15","新潟県","15103","新潟市中央区","151030164000","西堀通四番町","37.920248","139.041853","0","1"
"15","新潟県","15103","新潟市中央区","151030165000","西堀通五番町","37.921613","139.042753","0","1"
"15","新潟県","15103","新潟市中央区","151030166000","西堀通六番町","37.923107","139.042976","0","1"
"15","新潟県","15103","新潟市中央区","151030167000","西堀通七番町","37.924712","139.043512","0","1"
"15","新潟県","15103","新潟市中央区","151030168000","西堀通八番町","37.926232","139.043982","0","1"
"15","新潟県","15103","新潟市中央区","151030169000","西堀通九番町","37.927515","139.044269","0","1"
"15","新潟県","15103","新潟市中央区","151030170000","西堀前通十番町","37.927145","139.045319","0","1"
"15","新潟県","15103","新潟市中央区","151030171000","西堀前通十一番町","37.928338","139.045583","0","1"
"15","新潟県","15103","新潟市中央区","151030172000","西堀前通一番町","37.916381","139.039609","0","1"
"15","新潟県","15103","新潟市中央区","151030173000","西堀前通二番町","37.917122","139.040501","0","1"
"15","新潟県","15103","新潟市中央区","151030174000","西堀前通三番町","37.917960","139.041530","0","1"
"15","新潟県","15103","新潟市中央区","151030175000","西堀前通四番町","37.918679","139.042221","0","1"
"15","新潟県","15103","新潟市中央区","151030176000","西堀前通五番町","37.919801","139.043208","0","1"
"15","新潟県","15103","新潟市中央区","151030177000","西堀前通六番町","37.921279","139.043836","0","1"
"15","新潟県","15103","新潟市中央区","151030178000","西堀前通七番町","37.922842","139.044252","0","1"
"15","新潟県","15103","新潟市中央区","151030179000","西堀前通八番町","37.924415","139.044651","0","1"
"15","新潟県","15103","新潟市中央区","151030180000","西堀前通九番町","37.925852","139.045015","0","1"
"15","新潟県","15103","新潟市中央区","151030181000","西湊町通一ノ町","37.929079","139.051355","0","1"
"15","新潟県","15103","新潟市中央区","151030182000","西湊町通二ノ町","37.929564","139.052868","0","1"
"15","新潟県","15103","新潟市中央区","151030183000","西湊町通三ノ町","37.930067","139.054255","0","1"
"15","新潟県","15103","新潟市中央区","151030184000","西湊町通四ノ町","37.930556","139.055644","0","1"
"15","新潟県","15103","新潟市中央区","151030185001","沼垂西一丁目","37.920636","139.065951","0","3"
"15","新潟県","15103","新潟市中央区","151030185002","沼垂西二丁目","37.922327","139.065157","0","3"
"15","新潟県","15103","新潟市中央区","151030185003","沼垂西三丁目","37.924331","139.064418","0","3"
"15","新潟県","15103","新潟市中央区","151030186001","沼垂東一丁目","37.917745","139.071182","0","3"
"15","新潟県","15103","新潟市中央区","151030186002","沼垂東二丁目","37.919937","139.071210","0","3"
"15","新潟県","15103","新潟市中央区","151030186003","沼垂東三丁目","37.921080","139.070547","0","3"
"15","新潟県","15103","新潟市中央区","151030186004","沼垂東四丁目","37.922180","139.068399","0","3"
"15","新潟県","15103","新潟市中央区","151030186005","沼垂東五丁目","37.925024","139.066983","0","3"
"15","新潟県","15103","新潟市中央区","151030186006","沼垂東六丁目","37.925845","139.069288","0","3"
"15","新潟県","15103","新潟市中央区","151030187001","白山浦一丁目","37.915071","139.033080","0","3"
"15","新潟県","15103","新潟市中央区","151030187002","白山浦二丁目","37.913312","139.028888","0","3"
"15","新潟県","15103","新潟市中央区","151030188000","白山浦新町通","37.912547","139.026365","0","1"
"15","新潟県","15103","新潟市中央区","151030189000","艀川岸町","37.932937","139.053640","0","1"
"15","新潟県","15103","新潟市中央区","151030190001","花園一丁目","37.912470","139.062191","0","3"
"15","新潟県","15103","新潟市中央区","151030190002","花園二丁目","37.914478","139.066004","0","3"
"15","新潟県","15103","新潟市中央区","151030191000","花町","37.921719","139.049586","0","1"
"15","新潟県","15103","新潟市中央区","151030192001","浜浦町一丁目","37.911536","139.012634","0","3"
"15","新潟県","15103","新潟市中央区","151030192002","浜浦町二丁目","37.909643","139.006864","0","3"
"15","新潟県","15103","新潟市中央区","151030193001","早川町一丁目","37.929494","139.050147","0","3"
"15","新潟県","15103","新潟市中央区","151030193002","早川町二丁目","37.930373","139.050649","0","3"
"15","新潟県","15103","新潟市中央区","151030193003","早川町三丁目","37.931192","139.052535","0","3"
"15","新潟県","15103","新潟市中央区","151030194001","万代一丁目","37.916506","139.056743","0","3"
"15","新潟県","15103","新潟市中央区","151030194002","万代二丁目","37.917857","139.053903","0","3"
"15","新潟県","15103","新潟市中央区","151030194003","万代三丁目","37.921153","139.056908","0","3"
"15","新潟県","15103","新潟市中央区","151030194004","万代四丁目","37.919071","139.057848","0","3"
"15","新潟県","15103","新潟市中央区","151030194005","万代五丁目","37.918867","139.059895","0","3"
"15","新潟県","15103","新潟市中央区","151030194006","万代六丁目","37.918903","139.061848","0","3"
"15","新潟県","15103","新潟市中央区","151030195000","万代島","37.928232","139.061913","0","1"
"15","新潟県","15103","新潟市中央区","151030196000","東入船町","37.933279","139.057943","0","1"
"15","新潟県","15103","新潟市中央区","151030197000","東受地町","37.931852","139.050761","0","1"
"15","新潟県","15103","新潟市中央区","151030198000","東厩島町","37.925177","139.051169","0","1"
"15","新潟県","15103","新潟市中央区","151030199001","東大通一丁目","37.914694","139.062022","0","3"
"15","新潟県","15103","新潟市中央区","151030199002","東大通二丁目","37.916041","139.060306","0","3"
"15","新潟県","15103","新潟市中央区","151030200000","東大畑通一番町","37.924476","139.039722","0","1"
"15","新潟県","15103","新潟市中央区","151030201000","東大畑通二番町","37.925897","139.042600","0","1"
"15","新潟県","15103","新潟市中央区","151030202000","東幸町","37.907078","139.049142","0","1"
"15","新潟県","15103","新潟市中央区","151030203000","東出来島","37.901936","139.028593","0","1"
"15","新潟県","15103","新潟市中央区","151030204000","東中通一番町","37.918735","139.038547","0","1"
"15","新潟県","15103","新潟市中央区","151030205000","東中通二番町","37.920495","139.039756","0","1"
"15","新潟県","15103","新潟市中央区","151030206000","東万代町","37.917506","139.063793","0","1"
"15","新潟県","15103","新潟市中央区","151030207000","東堀通十番町","37.926837","139.046748","0","1"
"15","新潟県","15103","新潟市中央区","151030208000","東堀通十一番町","37.928117","139.046832","0","1"
"15","新潟県","15103","新潟市中央区","151030209000","東堀通十二番町","37.929391","139.047068","0","1"
"15","新潟県","15103","新潟市中央区","151030210000","東堀通十三番町","37.931184","139.046975","0","1"
"15","新潟県","15103","新潟市中央区","151030211000","東堀通一番町","37.915977","139.041261","0","1"
"15","新潟県","15103","新潟市中央区","151030212000","東堀通二番町","37.916697","139.042110","0","1"
"15","新潟県","15103","新潟市中央区","151030213000","東堀通三番町","37.917453","139.043037","0","1"
"15","新潟県","15103","新潟市中央区","151030214000","東堀通四番町","37.918188","139.043900","0","1"
"15","新潟県","15103","新潟市中央区","151030215000","東堀通五番町","37.919314","139.044668","0","1"
"15","新潟県","15103","新潟市中央区","151030216000","東堀通六番町","37.920921","139.045328","0","1"
"15","新潟県","15103","新潟市中央区","151030217000","東堀通七番町","37.922633","139.045738","0","1"
"15","新潟県","15103","新潟市中央区","151030218000","東堀通八番町","37.924116","139.046233","0","1"
"15","新潟県","15103","新潟市中央区","151030219000","東堀通九番町","37.925653","139.046741","0","1"
"15","新潟県","15103","新潟市中央区","151030220000","東堀前通十番町","37.926624","139.047219","0","1"
"15","新潟県","15103","新潟市中央区","151030221000","東堀前通十一番町","37.927939","139.047296","0","1"
"15","新潟県","15103","新潟市中央区","151030222000","東堀前通一番町","37.915557","139.041501","0","1"
"15","新潟県","15103","新潟市中央区","151030223000","東堀前通二番町","37.916301","139.042414","0","1"
"15","新潟県","15103","新潟市中央区","151030224000","東堀前通三番町","37.917195","139.043514","0","1"
"15","新潟県","15103","新潟市中央区","151030225000","東堀前通四番町","37.917950","139.044436","0","1"
"15","新潟県","15103","新潟市中央区","151030226000","東堀前通五番町","37.919184","139.045239","0","1"
"15","新潟県","15103","新潟市中央区","151030227000","東堀前通六番町","37.920875","139.045921","0","1"
"15","新潟県","15103","新潟市中央区","151030228000","東堀前通七番町","37.922470","139.046370","0","1"
"15","新潟県","15103","新潟市中央区","151030229000","東堀前通八番町","37.924015","139.046806","0","1"
"15","新潟県","15103","新潟市中央区","151030230000","東堀前通九番町","37.925381","139.047163","0","1"
"15","新潟県","15103","新潟市中央区","151030231000","東湊町通一ノ町","37.926737","139.051046","0","1"
"15","新潟県","15103","新潟市中央区","151030232000","東湊町通二ノ町","37.927382","139.052043","0","1"
"15","新潟県","15103","新潟市中央区","151030233000","東湊町通三ノ町","37.927887","139.053834","0","1"
"15","新潟県","15103","新潟市中央区","151030234000","東湊町通四ノ町","37.928191","139.054909","0","1"
"15","新潟県","15103","新潟市中央区","151030235001","日の出一丁目","37.918348","139.073259","0","3"
"15","新潟県","15103","新潟市中央区","151030235002","日の出二丁目","37.918351","139.075553","0","3"
"15","新潟県","15103","新潟市中央区","151030235003","日の出三丁目","37.920818","139.074613","0","3"
"15","新潟県","15103","新潟市中央区","151030236000","雲雀町","37.940923","139.055986","0","1"
"15","新潟県","15103","新潟市中央区","151030237001","二葉町一丁目","37.927288","139.036696","0","3"
"15","新潟県","15103","新潟市中央区","151030237002","二葉町二丁目","37.929606","139.038316","0","3"
"15","新潟県","15103","新潟市中央区","151030237003","二葉町三丁目","37.931980","139.042639","0","3"
"15","新潟県","15103","新潟市中央区","151030238001","船場町一丁目","37.926498","139.055042","0","3"
"15","新潟県","15103","新潟市中央区","151030238002","船場町二丁目","37.927708","139.055936","0","3"
"15","新潟県","15103","新潟市中央区","151030239001","船見町一丁目","37.941023","139.059136","0","3"
"15","新潟県","15103","新潟市中央区","151030239002","船見町二丁目","37.941730","139.057939","0","3"
"15","新潟県","15103","新潟市中央区","151030240000","古町通十番町","37.927002","139.046030","0","1"
"15","新潟県","15103","新潟市中央区","151030241000","古町通十一番町","37.928251","139.046180","0","1"
"15","新潟県","15103","新潟市中央区","151030242000","古町通十二番町","37.929618","139.046033","0","1"
"15","新潟県","15103","新潟市中央区","151030243000","古町通十三番町","37.931121","139.044534","0","1"
"15","新潟県","15103","新潟市中央区","151030244000","古町通一番町","37.916109","139.040100","0","1"
"15","新潟県","15103","新潟市中央区","151030245000","古町通二番町","37.916722","139.041022","0","1"
"15","新潟県","15103","新潟市中央区","151030246000","古町通三番町","37.917596","139.042110","0","1"
"15","新潟県","15103","新潟市中央区","151030247000","古町通四番町","37.918292","139.042901","0","1"
"15","新潟県","15103","新潟市中央区","151030248000","古町通五番町","37.919557","139.043892","0","1"
"15","新潟県","15103","新潟市中央区","151030249000","古町通六番町","37.921126","139.044556","0","1"
"15","新潟県","15103","新潟市中央区","151030250000","古町通七番町","37.922687","139.044966","0","1"
"15","新潟県","15103","新潟市中央区","151030251000","古町通八番町","37.924218","139.045399","0","1"
"15","新潟県","15103","新潟市中央区","151030252000","古町通九番町","37.925698","139.045806","0","1"
"15","新潟県","15103","新潟市中央区","151030253000","文京町","37.906983","139.007972","0","1"
"15","新潟県","15103","新潟市中央区","151030254001","弁天一丁目","37.913417","139.059282","0","3"
"15","新潟県","15103","新潟市中央区","151030254002","弁天二丁目","37.915481","139.057949","0","3"
"15","新潟県","15103","新潟市中央区","151030254003","弁天三丁目","37.912705","139.058105","0","3"
"15","新潟県","15103","新潟市中央区","151030255001","弁天橋通一丁目","37.894565","139.070152","0","3"
"15","新潟県","15103","新潟市中央区","151030255002","弁天橋通二丁目","37.891591","139.072367","0","3"
"15","新潟県","15103","新潟市中央区","151030255003","弁天橋通三丁目","37.889479","139.073528","0","3"
"15","新潟県","15103","新潟市中央区","151030256000","堀之内","37.905272","139.048689","0","1"
"15","新潟県","15103","新潟市中央区","151030257001","堀之内南一丁目","37.903954","139.051865","0","3"
"15","新潟県","15103","新潟市中央区","151030257002","堀之内南二丁目","37.901651","139.052819","0","3"
"15","新潟県","15103","新潟市中央区","151030257003","堀之内南三丁目","37.902361","139.049240","0","3"
"15","新潟県","15103","新潟市中央区","151030258000","堀割町","37.903868","139.008401","0","1"
"15","新潟県","15103","新潟市中央区","151030259000","本町通十番町","37.926558","139.048036","0","1"
"15","新潟県","15103","新潟市中央区","151030260000","本町通十一番町","37.927909","139.048075","0","1"
"15","新潟県","15103","新潟市中央区","151030261000","本町通十二番町","37.929364","139.048132","0","1"
"15","新潟県","15103","新潟市中央区","151030262000","本町通十三番町","37.930979","139.048354","0","1"
"15","新潟県","15103","新潟市中央区","151030263000","本町通十四番町","37.932204","139.047380","0","1"
"15","新潟県","15103","新潟市中央区","151030264000","本町通一番町","37.915151","139.041927","0","1"
"15","新潟県","15103","新潟市中央区","151030265000","本町通二番町","37.915919","139.043041","0","1"
"15","新潟県","15103","新潟市中央区","151030266000","本町通三番町","37.916762","139.044017","0","1"
"15","新潟県","15103","新潟市中央区","151030267000","本町通四番町","37.917600","139.045022","0","1"
"15","新潟県","15103","新潟市中央区","151030268000","本町通五番町","37.918943","139.045920","0","1"
"15","新潟県","15103","新潟市中央区","151030269000","本町通六番町","37.920665","139.046622","0","1"
"15","新潟県","15103","新潟市中央区","151030270000","本町通七番町","37.922373","139.047107","0","1"
"15","新潟県","15103","新潟市中央区","151030271000","本町通八番町","37.923893","139.047510","0","1"
"15","新潟県","15103","新潟市中央区","151030272000","本町通九番町","37.925240","139.047842","0","1"
"15","新潟県","15103","新潟市中央区","151030273001","本間町一丁目","37.926532","139.049866","0","3"
"15","新潟県","15103","新潟市中央区","151030273002","本間町二丁目","37.927735","139.049899","0","3"
"15","新潟県","15103","新潟市中央区","151030273003","本間町三丁目","37.928851","139.049979","0","3"
"15","新潟県","15103","新潟市中央区","151030274001","秣川岸通一丁目","37.923589","139.049569","0","3"
"15","新潟県","15103","新潟市中央区","151030274002","秣川岸通二丁目","37.924754","139.051341","0","3"
"15","新潟県","15103","新潟市中央区","151030275000","松岡町","37.930147","139.056097","0","1"
"15","新潟県","15103","新潟市中央区","151030276000","見方町","37.926850","139.052989","0","1"
"15","新潟県","15103","新潟市中央区","151030277001","美咲町一丁目","37.892550","139.015654","0","3"
"15","新潟県","15103","新潟市中央区","151030277002","美咲町二丁目","37.884903","139.016817","0","3"
"15","新潟県","15103","新潟市中央区","151030278000","水島町","37.911004","139.053125","0","1"
"15","新潟県","15103","新潟市中央区","151030279000","緑町","37.929936","139.056796","0","1"
"15","新潟県","15103","新潟市中央区","151030280000","湊町通一ノ町","37.927747","139.050791","0","1"
"15","新潟県","15103","新潟市中央区","151030281000","湊町通二ノ町","37.928232","139.052017","0","1"
"15","新潟県","15103","新潟市中央区","151030282000","湊町通三ノ町","37.928731","139.053340","0","1"
"15","新潟県","15103","新潟市中央区","151030283000","湊町通四ノ町","37.929343","139.054936","0","1"
"15","新潟県","15103","新潟市中央区","151030284000","南大畑町","37.925032","139.039633","0","1"
"15","新潟県","15103","新潟市中央区","151030285001","南笹口一丁目","37.907964","139.066329","0","3"
"15","新潟県","15103","新潟市中央区","151030285002","南笹口二丁目","37.909167","139.070614","0","3"
"15","新潟県","15103","新潟市中央区","151030286000","南多門町","37.924099","139.049540","0","1"
"15","新潟県","15103","新潟市中央区","151030287001","南出来島一丁目","37.897058","139.027282","0","3"
"15","新潟県","15103","新潟市中央区","151030287002","南出来島二丁目","37.896477","139.024258","0","3"
"15","新潟県","15103","新潟市中央区","151030288000","南長潟","37.884361","139.072995","0","1"
"15","新潟県","15103","新潟市中央区","151030289000","南浜通一番町","37.924228","139.041857","0","1"
"15","新潟県","15103","新潟市中央区","151030290000","南浜通二番町","37.925348","139.040137","0","1"
"15","新潟県","15103","新潟市中央区","151030291000","南万代町","37.913227","139.056417","0","1"
"15","新潟県","15103","新潟市中央区","151030292000","南毘沙門町","37.925974","139.051489","0","1"
"15","新潟県","15103","新潟市中央区","151030293000","南横堀町","37.920688","139.039090","0","1"
"15","新潟県","15103","新潟市中央区","151030294000","美の里","37.883404","139.078729","0","1"
"15","新潟県","15103","新潟市中央区","151030295001","室町一丁目","37.939201","139.056843","0","3"
"15","新潟県","15103","新潟市中央区","151030295002","室町二丁目","37.940679","139.057609","0","3"
"15","新潟県","15103","新潟市中央区","151030296000","女池","37.887257","139.032005","0","1"
"15","新潟県","15103","新潟市中央区","151030297001","女池一丁目","37.897072","139.050390","0","3"
"15","新潟県","15103","新潟市中央区","151030297002","女池二丁目","37.894939","139.046022","0","3"
"15","新潟県","15103","新潟市中央区","151030297003","女池三丁目","37.896772","139.045206","0","3"
"15","新潟県","15103","新潟市中央区","151030297004","女池四丁目","37.895746","139.039576","0","3"
"15","新潟県","15103","新潟市中央区","151030297005","女池五丁目","37.893265","139.041165","0","3"
"15","新潟県","15103","新潟市中央区","151030297006","女池六丁目","37.891838","139.042091","0","3"
"15","新潟県","15103","新潟市中央区","151030297007","女池七丁目","37.890039","139.042782","0","3"
"15","新潟県","15103","新潟市中央区","151030297008","女池八丁目","37.888310","139.037089","0","3"
"15","新潟県","15103","新潟市中央区","151030298001","女池上山一丁目","37.892911","139.031839","0","3"
"15","新潟県","15103","新潟市中央区","151030298002","女池上山二丁目","37.891119","139.029754","0","3"
"15","新潟県","15103","新潟市中央区","151030298003","女池上山三丁目","37.890524","139.026258","0","3"
"15","新潟県","15103","新潟市中央区","151030298004","女池上山四丁目","37.893363","139.025548","0","3"
"15","新潟県","15103","新潟市中央区","151030298005","女池上山五丁目","37.894163","139.028481","0","3"
"15","新潟県","15103","新潟市中央区","151030299001","女池北一丁目","37.895271","139.034631","0","3"
"15","新潟県","15103","新潟市中央区","151030300001","女池神明一丁目","37.890340","139.037610","0","3"
"15","新潟県","15103","新潟市中央区","151030300002","女池神明二丁目","37.889461","139.034227","0","3"
"15","新潟県","15103","新潟市中央区","151030300003","女池神明三丁目","37.888370","139.030907","0","3"
"15","新潟県","15103","新潟市中央区","151030301001","女池西一丁目","37.893494","139.035361","0","3"
"15","新潟県","15103","新潟市中央区","151030301002","女池西二丁目","37.891613","139.035880","0","3"
"15","新潟県","15103","新潟市中央区","151030302001","女池東一丁目","37.897823","139.052351","0","3"
"15","新潟県","15103","新潟市中央区","151030303001","女池南一丁目","37.894316","139.048570","0","3"
"15","新潟県","15103","新潟市中央区","151030303002","女池南二丁目","37.892531","139.048663","0","3"
"15","新潟県","15103","新潟市中央区","151030303003","女池南三丁目","37.889203","139.049569","0","3"
"15","新潟県","15103","新潟市中央区","151030304000","元祝町","37.933495","139.050780","0","1"
"15","新潟県","15103","新潟市中央区","151030305001","本馬越一丁目","37.914426","139.076467","0","3"
"15","新潟県","15103","新潟市中央区","151030305002","本馬越二丁目","37.911438","139.075369","0","3"
"15","新潟県","15103","新潟市中央区","151030306000","元下島町","37.932812","139.052899","0","1"
"15","新潟県","15103","新潟市中央区","151030307001","八千代一丁目","37.914213","139.054214","0","3"
"15","新潟県","15103","新潟市中央区","151030307002","八千代二丁目","37.915634","139.051969","0","3"
"15","新潟県","15103","新潟市中央区","151030308001","柳島町一丁目","37.927435","139.057067","0","3"
"15","新潟県","15103","新潟市中央区","151030308002","柳島町二丁目","37.930309","139.058069","0","3"
"15","新潟県","15103","新潟市中央区","151030308003","柳島町三丁目","37.932050","139.058632","0","3"
"15","新潟県","15103","新潟市中央区","151030308004","柳島町四丁目","37.934268","139.059260","0","3"
"15","新潟県","15103","新潟市中央区","151030309001","山田町一丁目","37.939110","139.057411","0","3"
"15","新潟県","15103","新潟市中央区","151030309002","山田町二丁目","37.940545","139.058081","0","3"
"15","新潟県","15103","新潟市中央区","151030310000","山二ツ","37.889217","139.089485","0","1"
"15","新潟県","15103","新潟市中央区","151030311001","山二ツ一丁目","37.894097","139.083142","0","3"
"15","新潟県","15103","新潟市中央区","151030311002","山二ツ二丁目","37.896197","139.085292","0","3"
"15","新潟県","15103","新潟市中央区","151030311003","山二ツ三丁目","37.894233","139.086813","0","3"
"15","新潟県","15103","新潟市中央区","151030311004","山二ツ四丁目","37.891643","139.086289","0","3"
"15","新潟県","15103","新潟市中央区","151030311005","山二ツ五丁目","37.893575","139.091854","0","3"
"15","新潟県","15103","新潟市中央区","151030312000","弥生町","37.905730","139.013611","0","1"
"15","新潟県","15103","新潟市中央区","151030313000","夕栄町","37.930924","139.050293","0","1"
"15","新潟県","15103","新潟市中央区","151030314000","雪町","37.923700","139.051153","0","1"
"15","新潟県","15103","新潟市中央区","151030315000","横一番町","37.917197","139.042224","0","1"
"15","新潟県","15103","新潟市中央区","151030316001","横七番町通一丁目","37.931677","139.049716","0","3"
"15","新潟県","15103","新潟市中央区","151030316002","横七番町通二丁目","37.932425","139.050628","0","3"
"15","新潟県","15103","新潟市中央区","151030316003","横七番町通三丁目","37.933150","139.052043","0","3"
"15","新潟県","15103","新潟市中央区","151030316004","横七番町通四丁目","37.933565","139.052937","0","3"
"15","新潟県","15103","新潟市中央区","151030316005","横七番町通五丁目","37.933946","139.053672","0","3"
"15","新潟県","15103","新潟市中央区","151030317000","横六番町","37.930298","139.049474","0","1"
"15","新潟県","15103","新潟市中央区","151030318000","芳町","37.926180","139.053431","0","1"
"15","新潟県","15103","新潟市中央区","151030319001","四ッ屋町一丁目","37.932819","139.045251","0","3"
"15","新潟県","15103","新潟市中央区","151030319002","四ッ屋町二丁目","37.933940","139.046046","0","3"
"15","新潟県","15103","新潟市中央区","151030319003","四ッ屋町三丁目","37.934451","139.047570","0","3"
"15","新潟県","15103","新潟市中央区","151030320000","米山","37.907290","139.056015","0","1"
"15","新潟県","15103","新潟市中央区","151030321001","米山一丁目","37.909077","139.061178","0","3"
"15","新潟県","15103","新潟市中央区","151030321002","米山二丁目","37.908314","139.058239","0","3"
"15","新潟県","15103","新潟市中央区","151030321003","米山三丁目","37.906768","139.062107","0","3"
"15","新潟県","15103","新潟市中央区","151030321004","米山四丁目","37.905966","139.059165","0","3"
"15","新潟県","15103","新潟市中央区","151030321005","米山五丁目","37.905130","139.056142","0","3"
"15","新潟県","15103","新潟市中央区","151030321006","米山六丁目","37.902711","139.057135","0","3"
"15","新潟県","15103","新潟市中央区","151030322000","寄合町","37.932021","139.051261","0","1"
"15","新潟県","15103","新潟市中央区","151030323000","寄居町","37.922895","139.040555","0","1"
"15","新潟県","15103","新潟市中央区","151030324001","竜が島一丁目","37.934171","139.067312","0","3"
"15","新潟県","15103","新潟市中央区","151030324002","竜が島二丁目","37.926121","139.072454","0","3"
"15","新潟県","15103","新潟市中央区","151030325001","和合町一丁目","37.899830","139.052156","0","3"
"15","新潟県","15103","新潟市中央区","151030325002","和合町二丁目","37.899156","139.049516","0","3"
"15","新潟県","15103","新潟市中央区","151030325003","和合町三丁目","37.898545","139.047310","0","3"
"15","新潟県","15103","新潟市中央区","151030326000","鳥屋野","37.884466","139.031999","0","1"
"15","新潟県","15103","新潟市中央区","151030327003","鳥屋野南三丁目","37.884583","139.028564","0","3"
"15","新潟県","15103","新潟市中央区","151030145004","鳥屋野四丁目","37.885575","139.024047","0","3"
"15","新潟県","15103","新潟市中央区","151030328000","大島","37.879548","139.023144","0","1"
"15","新潟県","15103","新潟市中央区","151030327001","鳥屋野南一丁目","37.882451","139.022378","0","3"
"15","新潟県","15103","新潟市中央区","151030327002","鳥屋野南二丁目","37.883385","139.025187","0","3"
