"PrefCode","PrefName","MuniCode","MuniName","DistCode","DistName","lat","lon","SrcCode","CatCode"
"15","新潟県","15106","新潟市南区","151060001000","赤渋","37.794141","139.055763","0","1"
"15","新潟県","15106","新潟市南区","151060002000","朝捲","37.785444","139.043740","0","1"
"15","新潟県","15106","新潟市南区","151060003000","味方","37.786665","138.998625","0","1"
"15","新潟県","15106","新潟市南区","151060004000","鯵潟","37.776582","139.021460","0","1"
"15","新潟県","15106","新潟市南区","151060005001","鯵潟一丁目","37.776821","139.013161","0","3"
"15","新潟県","15106","新潟市南区","151060006000","天野","37.839572","139.031970","0","1"
"15","新潟県","15106","新潟市南区","151060007000","飯島","37.723570","139.027769","0","1"
"15","新潟県","15106","新潟市南区","151060008000","居宿","37.812293","138.995842","0","1"
"15","新潟県","15106","新潟市南区","151060009000","和泉","37.760124","139.032868","0","1"
"15","新潟県","15106","新潟市南区","151060010000","犬帰新田","37.817238","139.057243","0","1"
"15","新潟県","15106","新潟市南区","151060011000","茨曽根","37.716670","139.007980","0","1"
"15","新潟県","15106","新潟市南区","151060012000","鋳物師興野","37.731035","139.056031","0","1"
"15","新潟県","15106","新潟市南区","151060013000","兎新田","37.697415","139.029288","0","1"
"15","新潟県","15106","新潟市南区","151060014000","牛崎","37.729147","139.039453","0","1"
"15","新潟県","15106","新潟市南区","151060015000","臼井","37.774121","139.055004","0","1"
"15","新潟県","15106","新潟市南区","151060016000","臼井ノ内小平次新田","37.773511","139.058873","0","1"
"15","新潟県","15106","新潟市南区","151060017000","獺ケ通","37.832998","139.050060","0","1"
"15","新潟県","15106","新潟市南区","151060018000","浦梨","37.753324","139.025486","0","1"
"15","新潟県","15106","新潟市南区","151060019000","大倉","37.806187","139.004044","0","1"
"15","新潟県","15106","新潟市南区","151060020000","大倉新田","37.806644","139.002207","0","1"
"15","新潟県","15106","新潟市南区","151060021001","大通一丁目","37.840356","139.019297","0","3"
"15","新潟県","15106","新潟市南区","151060021002","大通二丁目","37.839872","139.020973","0","3"
"15","新潟県","15106","新潟市南区","151060022001","大通黄金一丁目","37.826218","139.021101","0","3"
"15","新潟県","15106","新潟市南区","151060022002","大通黄金二丁目","37.824669","139.022730","0","3"
"15","新潟県","15106","新潟市南区","151060022003","大通黄金三丁目","37.825899","139.020404","0","3"
"15","新潟県","15106","新潟市南区","151060022004","大通黄金四丁目","37.824219","139.020700","0","3"
"15","新潟県","15106","新潟市南区","151060022005","大通黄金五丁目","37.822711","139.021196","0","3"
"15","新潟県","15106","新潟市南区","151060022006","大通黄金六丁目","37.821143","139.023244","0","3"
"15","新潟県","15106","新潟市南区","151060022007","大通黄金七丁目","37.820851","139.020766","0","3"
"15","新潟県","15106","新潟市南区","151060023001","大通南一丁目","37.828519","139.020507","0","3"
"15","新潟県","15106","新潟市南区","151060023002","大通南二丁目","37.828530","139.023285","0","3"
"15","新潟県","15106","新潟市南区","151060023003","大通南三丁目","37.831067","139.020780","0","3"
"15","新潟県","15106","新潟市南区","151060023004","大通南四丁目","37.831180","139.023137","0","3"
"15","新潟県","15106","新潟市南区","151060024000","大別當","37.717764","138.990537","0","1"
"15","新潟県","15106","新潟市南区","151060025000","沖新保","37.723975","139.019604","0","1"
"15","新潟県","15106","新潟市南区","151060026000","上浦","37.758310","139.059222","0","1"
"15","新潟県","15106","新潟市南区","151060027000","上木山","37.745531","139.030335","0","1"
"15","新潟県","15106","新潟市南区","151060028000","上塩俵","37.817405","139.017124","0","1"
"15","新潟県","15106","新潟市南区","151060029000","上新田","37.681570","138.988167","0","1"
"15","新潟県","15106","新潟市南区","151060030000","上道潟","37.729333","139.018190","0","1"
"15","新潟県","15106","新潟市南区","151060031000","上八枚","37.747475","139.061108","0","1"
"15","新潟県","15106","新潟市南区","151060032000","上曲通","37.744586","138.998513","0","1"
"15","新潟県","15106","新潟市南区","151060033000","神屋","37.784312","139.023900","0","1"
"15","新潟県","15106","新潟市南区","151060034000","北田中","37.815041","139.023657","0","1"
"15","新潟県","15106","新潟市南区","151060035000","木滑","37.748966","138.987642","0","1"
"15","新潟県","15106","新潟市南区","151060036000","櫛笥","37.742263","139.048835","0","1"
"15","新潟県","15106","新潟市南区","151060037000","蜘手興野","37.735876","139.051157","0","1"
"15","新潟県","15106","新潟市南区","151060038000","小坂","37.786045","139.023610","0","1"
"15","新潟県","15106","新潟市南区","151060039000","小蔵子","37.778035","139.044418","0","1"
"15","新潟県","15106","新潟市南区","151060040000","山王","37.801954","139.007374","0","1"
"15","新潟県","15106","新潟市南区","151060041000","山王新田","37.800737","139.007529","0","1"
"15","新潟県","15106","新潟市南区","151060042000","七軒","37.771840","139.022425","0","1"
"15","新潟県","15106","新潟市南区","151060043000","七軒町","37.771577","139.012618","0","1"
"15","新潟県","15106","新潟市南区","151060044000","清水","37.709215","138.995509","0","1"
"15","新潟県","15106","新潟市南区","151060045000","下木山","37.751536","139.032653","0","1"
"15","新潟県","15106","新潟市南区","151060046000","下道潟","37.733197","139.021782","0","1"
"15","新潟県","15106","新潟市南区","151060047000","下八枚","37.763103","139.059874","0","1"
"15","新潟県","15106","新潟市南区","151060048000","下八枚ノ内小見新田","37.773156","139.061760","0","1"
"15","新潟県","15106","新潟市南区","151060049000","下曲通","37.750298","139.002737","0","1"
"15","新潟県","15106","新潟市南区","151060050000","下山崎","37.808015","139.009941","0","1"
"15","新潟県","15106","新潟市南区","151060051000","十五間","37.780942","139.024270","0","1"
"15","新潟県","15106","新潟市南区","151060052000","十二道島","37.738950","139.055949","0","1"
"15","新潟県","15106","新潟市南区","151060053000","上下諏訪木","37.760805","139.022737","0","1"
"15","新潟県","15106","新潟市南区","151060054000","庄瀬","37.717723","139.033969","0","1"
"15","新潟県","15106","新潟市南区","151060055000","次郎右エ門興野","37.743235","139.059274","0","1"
"15","新潟県","15106","新潟市南区","151060056000","白根","37.765284","139.039993","0","1"
"15","新潟県","15106","新潟市南区","151060057001","白根東町一丁目","37.768867","139.023632","0","3"
"15","新潟県","15106","新潟市南区","151060058000","白根魚町","37.765626","139.014019","0","1"
"15","新潟県","15106","新潟市南区","151060059000","白根水道町","37.754343","139.011904","0","1"
"15","新潟県","15106","新潟市南区","151060060000","白根ノ内七軒","37.764259","139.023543","0","1"
"15","新潟県","15106","新潟市南区","151060061000","白根日の出町","37.755862","139.015199","0","1"
"15","新潟県","15106","新潟市南区","151060062000","白根古川","37.773996","139.034512","0","1"
"15","新潟県","15106","新潟市南区","151060063000","白根四ツ興野","37.773445","139.014425","0","1"
"15","新潟県","15106","新潟市南区","151060064001","新生町一丁目","37.750519","139.055929","0","3"
"15","新潟県","15106","新潟市南区","151060064002","新生町二丁目","37.750324","139.057277","0","3"
"15","新潟県","15106","新潟市南区","151060064003","新生町三丁目","37.751580","139.056567","0","3"
"15","新潟県","15106","新潟市南区","151060065001","新山崎町一丁目","37.808101","139.005992","0","3"
"15","新潟県","15106","新潟市南区","151060065002","新山崎町二丁目","37.808163","139.007436","0","3"
"15","新潟県","15106","新潟市南区","151060065003","新山崎町三丁目","37.809062","139.005794","0","3"
"15","新潟県","15106","新潟市南区","151060066000","親和町","37.766239","139.021101","0","1"
"15","新潟県","15106","新潟市南区","151060067000","杉菜","37.766139","139.022898","0","1"
"15","新潟県","15106","新潟市南区","151060068000","助次右エ門組","37.748478","139.023660","0","1"
"15","新潟県","15106","新潟市南区","151060069000","蔵主","37.741058","139.032215","0","1"
"15","新潟県","15106","新潟市南区","151060070000","大郷","37.805921","139.059321","0","1"
"15","新潟県","15106","新潟市南区","151060071000","田尾","37.746998","139.040769","0","1"
"15","新潟県","15106","新潟市南区","151060072000","高井興野","37.800070","139.021729","0","1"
"15","新潟県","15106","新潟市南区","151060073001","高井東一丁目","37.796484","139.016507","0","3"
"15","新潟県","15106","新潟市南区","151060073002","高井東二丁目","37.798517","139.017216","0","3"
"15","新潟県","15106","新潟市南区","151060073003","高井東三丁目","37.799286","139.019740","0","3"
"15","新潟県","15106","新潟市南区","151060074000","田中","37.754130","139.019448","0","1"
"15","新潟県","15106","新潟市南区","151060075000","月潟","37.728614","138.992812","0","1"
"15","新潟県","15106","新潟市南区","151060076000","釣寄","37.746004","138.975638","0","1"
"15","新潟県","15106","新潟市南区","151060077000","釣寄新","37.745512","138.980254","0","1"
"15","新潟県","15106","新潟市南区","151060078000","天王新田","37.741429","139.039147","0","1"
"15","新潟県","15106","新潟市南区","151060079000","戸石","37.752399","139.061396","0","1"
"15","新潟県","15106","新潟市南区","151060080000","戸頭","37.743213","139.014138","0","1"
"15","新潟県","15106","新潟市南区","151060081000","中小見","37.773602","139.067650","0","1"
"15","新潟県","15106","新潟市南区","151060082000","中塩俵","37.829458","139.011651","0","1"
"15","新潟県","15106","新潟市南区","151060083000","中山","37.775111","139.050874","0","1"
"15","新潟県","15106","新潟市南区","151060084000","七穂","37.800311","138.994658","0","1"
"15","新潟県","15106","新潟市南区","151060085000","鍋潟","37.758035","139.040837","0","1"
"15","新潟県","15106","新潟市南区","151060086000","新飯田","37.692959","138.984673","0","1"
"15","新潟県","15106","新潟市南区","151060087000","西笠巻","37.797832","139.044329","0","1"
"15","新潟県","15106","新潟市南区","151060088000","西笠巻新田","37.805595","139.044473","0","1"
"15","新潟県","15106","新潟市南区","151060089000","西萱場","37.735573","138.997709","0","1"
"15","新潟県","15106","新潟市南区","151060090000","西酒屋","37.828528","139.055015","0","1"
"15","新潟県","15106","新潟市南区","151060091000","西白根","37.763532","139.002650","0","1"
"15","新潟県","15106","新潟市南区","151060092000","根岸","37.795671","139.025180","0","1"
"15","新潟県","15106","新潟市南区","151060093000","能登","37.768113","139.029386","0","1"
"15","新潟県","15106","新潟市南区","151060094001","能登一丁目","37.768679","139.013224","0","3"
"15","新潟県","15106","新潟市南区","151060094002","能登二丁目","37.768605","139.016001","0","3"
"15","新潟県","15106","新潟市南区","151060095000","東笠巻","37.816702","139.051176","0","1"
"15","新潟県","15106","新潟市南区","151060096000","東笠巻新田","37.816302","139.041525","0","1"
"15","新潟県","15106","新潟市南区","151060097000","東萱場","37.733625","139.009078","0","1"
"15","新潟県","15106","新潟市南区","151060098000","東長嶋","37.735237","138.984596","0","1"
"15","新潟県","15106","新潟市南区","151060099000","菱潟","37.725442","139.052201","0","1"
"15","新潟県","15106","新潟市南区","151060100000","菱潟新田","37.726132","139.044189","0","1"
"15","新潟県","15106","新潟市南区","151060101000","引越","37.788960","139.035400","0","1"
"15","新潟県","15106","新潟市南区","151060102000","平潟","37.736699","139.034682","0","1"
"15","新潟県","15106","新潟市南区","151060103000","平潟新田","37.736527","139.024555","0","1"
"15","新潟県","15106","新潟市南区","151060104000","福島","37.742990","138.973884","0","1"
"15","新潟県","15106","新潟市南区","151060105000","古川新田","37.702902","139.029161","0","1"
"15","新潟県","15106","新潟市南区","151060106000","平成町","37.753061","139.014461","0","1"
"15","新潟県","15106","新潟市南区","151060107000","保坂","37.788739","139.023189","0","1"
"15","新潟県","15106","新潟市南区","151060108000","堀掛","37.779727","139.059725","0","1"
"15","新潟県","15106","新潟市南区","151060109000","真木","37.709022","139.024449","0","1"
"15","新潟県","15106","新潟市南区","151060110000","松橋","37.822871","139.006605","0","1"
"15","新潟県","15106","新潟市南区","151060111000","万年","37.736952","139.044618","0","1"
"15","新潟県","15106","新潟市南区","151060112000","山崎興野","37.809602","139.020672","0","1"
"15","新潟県","15106","新潟市南区","151060113000","吉江","37.794696","139.008814","0","1"
"15","新潟県","15106","新潟市南区","151060114000","吉田新田","37.798072","139.008273","0","1"
"15","新潟県","15106","新潟市南区","151060115000","大通西","37.835543","139.017606","0","1"
"15","新潟県","15106","新潟市南区","151060023005","大通南五丁目","37.831771","139.019296","0","3"
"15","新潟県","15106","新潟市南区","151060116000","鷲ノ木新田","37.834293","139.029255","0","1"
"15","新潟県","15106","新潟市南区","151060117000","下塩俵","37.834803","139.014643","0","1"
"15","新潟県","15106","新潟市南区","151060023006","大通南六丁目","37.834892","139.019748","0","3"
