"PrefCode","PrefName","MuniCode","MuniName","DistCode","DistName","lat","lon","SrcCode","CatCode"
"16","富山県","16209","小矢部市","162090001000","赤倉","36.658977","136.887375","0","1"
"16","富山県","16209","小矢部市","162090002000","浅地","36.635735","136.874679","0","1"
"16","富山県","16209","小矢部市","162090003000","荒間","36.713005","136.821934","0","1"
"16","富山県","16209","小矢部市","162090004000","安養寺","36.631275","136.869401","0","1"
"16","富山県","16209","小矢部市","162090005000","安楽寺","36.673516","136.840346","0","1"
"16","富山県","16209","小矢部市","162090006000","石王丸","36.692375","136.893627","0","1"
"16","富山県","16209","小矢部市","162090007000","石坂","36.657626","136.846841","0","1"
"16","富山県","16209","小矢部市","162090008001","今石動町一丁目","36.677101","136.876030","0","3"
"16","富山県","16209","小矢部市","162090008002","今石動町二丁目","36.674648","136.877310","0","3"
"16","富山県","16209","小矢部市","162090009000","岩尾滝","36.701355","136.820441","0","1"
"16","富山県","16209","小矢部市","162090010000","岩崎","36.699674","136.855324","0","1"
"16","富山県","16209","小矢部市","162090011000","岩武","36.623646","136.900453","0","1"
"16","富山県","16209","小矢部市","162090012000","宇治新","36.689467","136.888924","0","1"
"16","富山県","16209","小矢部市","162090013000","臼谷","36.611652","136.821591","0","1"
"16","富山県","16209","小矢部市","162090014000","内御堂","36.642980","136.894327","0","1"
"16","富山県","16209","小矢部市","162090015000","内山","36.617754","136.791673","0","1"
"16","富山県","16209","小矢部市","162090016000","上野本","36.675766","136.858121","0","1"
"16","富山県","16209","小矢部市","162090017000","小神","36.669963","136.879917","0","1"
"16","富山県","16209","小矢部市","162090018000","小矢部町","36.675771","136.871948","0","1"
"16","富山県","16209","小矢部市","162090019000","金屋本江","36.664814","136.899197","0","1"
"16","富山県","16209","小矢部市","162090020000","鴨島","36.614119","136.900263","0","1"
"16","富山県","16209","小矢部市","162090021000","嘉例谷","36.720105","136.804955","0","1"
"16","富山県","16209","小矢部市","162090022000","川開新","36.623909","136.824711","0","1"
"16","富山県","16209","小矢部市","162090023000","観音町","36.677812","136.863556","0","1"
"16","富山県","16209","小矢部市","162090024000","北一","36.641432","136.829941","0","1"
"16","富山県","16209","小矢部市","162090025000","北屋敷","36.721658","136.847806","0","1"
"16","富山県","16209","小矢部市","162090026000","経田","36.637754","136.885496","0","1"
"16","富山県","16209","小矢部市","162090027000","清沢","36.620001","136.894733","0","1"
"16","富山県","16209","小矢部市","162090028000","清原","36.706062","136.855756","0","1"
"16","富山県","16209","小矢部市","162090029000","久利須","36.733470","136.832434","0","1"
"16","富山県","16209","小矢部市","162090030000","興法寺","36.609770","136.884639","0","1"
"16","富山県","16209","小矢部市","162090031000","五社","36.683120","136.919788","0","1"
"16","富山県","16209","小矢部市","162090032000","胡麻島","36.646593","136.884728","0","1"
"16","富山県","16209","小矢部市","162090033000","小森谷","36.616291","136.846278","0","1"
"16","富山県","16209","小矢部市","162090034000","五郎丸","36.630398","136.813910","0","1"
"16","富山県","16209","小矢部市","162090035000","坂又","36.683771","136.885418","0","1"
"16","富山県","16209","小矢部市","162090036000","桜町","36.686704","136.862034","0","1"
"16","富山県","16209","小矢部市","162090037000","七社","36.675670","136.928553","0","1"
"16","富山県","16209","小矢部市","162090038000","渋江","36.640962","136.859585","0","1"
"16","富山県","16209","小矢部市","162090039000","島","36.659587","136.873536","0","1"
"16","富山県","16209","小矢部市","162090040000","清水","36.619228","136.904140","0","1"
"16","富山県","16209","小矢部市","162090041000","下川崎","36.607110","136.898661","0","1"
"16","富山県","16209","小矢部市","162090042000","下後亟","36.650901","136.903904","0","1"
"16","富山県","16209","小矢部市","162090043000","下島","36.653125","136.874905","0","1"
"16","富山県","16209","小矢部市","162090044000","下中","36.665820","136.909257","0","1"
"16","富山県","16209","小矢部市","162090045000","下屋敷","36.724448","136.854689","0","1"
"16","富山県","16209","小矢部市","162090046000","城山町","36.681942","136.860723","0","1"
"16","富山県","16209","小矢部市","162090047000","新富町","36.677313","136.871658","0","1"
"16","富山県","16209","小矢部市","162090048000","新西","36.628580","136.896002","0","1"
"16","富山県","16209","小矢部市","162090049000","末沢新","36.624687","136.822586","0","1"
"16","富山県","16209","小矢部市","162090050000","末友","36.618281","136.834826","0","1"
"16","富山県","16209","小矢部市","162090051000","菅ケ原","36.721425","136.836230","0","1"
"16","富山県","16209","小矢部市","162090052000","杉谷内","36.614558","136.854529","0","1"
"16","富山県","16209","小矢部市","162090053000","千石","36.709597","136.806094","0","1"
"16","富山県","16209","小矢部市","162090054000","高木","36.626987","136.882034","0","1"
"16","富山県","16209","小矢部市","162090055000","高木出","36.664851","136.883402","0","1"
"16","富山県","16209","小矢部市","162090056000","高坂","36.714211","136.852023","0","1"
"16","富山県","16209","小矢部市","162090057000","田川","36.705456","136.879070","0","1"
"16","富山県","16209","小矢部市","162090058000","棚田","36.638358","136.842700","0","1"
"16","富山県","16209","小矢部市","162090059000","谷坪野","36.693458","136.820859","0","1"
"16","富山県","16209","小矢部市","162090060000","中央町","36.676792","136.867435","0","1"
"16","富山県","16209","小矢部市","162090061000","長","36.647356","136.856209","0","1"
"16","富山県","16209","小矢部市","162090062000","津沢","36.622350","136.897224","0","1"
"16","富山県","16209","小矢部市","162090063001","津沢一丁目","36.625329","136.898081","0","3"
"16","富山県","16209","小矢部市","162090064000","峠","36.708179","136.830035","0","1"
"16","富山県","16209","小矢部市","162090065000","道坪野","36.684942","136.834447","0","1"
"16","富山県","16209","小矢部市","162090066000","道明","36.676076","136.913735","0","1"
"16","富山県","16209","小矢部市","162090067000","道林寺","36.649274","136.850363","0","1"
"16","富山県","16209","小矢部市","162090068000","戸久","36.615539","136.863423","0","1"
"16","富山県","16209","小矢部市","162090069000","茄子島","36.666566","136.872611","0","1"
"16","富山県","16209","小矢部市","162090070000","名畑","36.635353","136.861940","0","1"
"16","富山県","16209","小矢部市","162090071000","西川原","36.642131","136.880991","0","1"
"16","富山県","16209","小矢部市","162090072000","西町","36.675295","136.862587","0","1"
"16","富山県","16209","小矢部市","162090073000","西中","36.654410","136.910992","0","1"
"16","富山県","16209","小矢部市","162090074000","西中野","36.687923","136.878409","0","1"
"16","富山県","16209","小矢部市","162090075000","西島","36.631027","136.891498","0","1"
"16","富山県","16209","小矢部市","162090076000","西福町","36.681806","136.881058","0","1"
"16","富山県","16209","小矢部市","162090077000","二ノ滝","36.717566","136.847631","0","1"
"16","富山県","16209","小矢部市","162090078000","糠子島","36.699387","136.847596","0","1"
"16","富山県","16209","小矢部市","162090079000","野寺","36.664345","136.890790","0","1"
"16","富山県","16209","小矢部市","162090080000","蓮沼","36.655894","136.857628","0","1"
"16","富山県","16209","小矢部市","162090081000","畠中町","36.680236","136.872966","0","1"
"16","富山県","16209","小矢部市","162090082000","八伏","36.645131","136.804632","0","1"
"16","富山県","16209","小矢部市","162090083000","八講田","36.639364","136.813154","0","1"
"16","富山県","16209","小矢部市","162090084000","埴生","36.666517","136.838847","0","1"
"16","富山県","16209","小矢部市","162090085000","原牧","36.712767","136.860479","0","1"
"16","富山県","16209","小矢部市","162090086000","東福町","36.678605","136.885250","0","1"
"16","富山県","16209","小矢部市","162090087000","平桜","36.628423","136.845816","0","1"
"16","富山県","16209","小矢部市","162090088000","平田","36.639808","136.849725","0","1"
"16","富山県","16209","小矢部市","162090089000","福上","36.647465","136.877514","0","1"
"16","富山県","16209","小矢部市","162090090000","福久","36.670816","136.873510","0","1"
"16","富山県","16209","小矢部市","162090091000","藤森","36.634136","136.856023","0","1"
"16","富山県","16209","小矢部市","162090092000","フロンティアパーク","36.627621","136.820285","0","1"
"16","富山県","16209","小矢部市","162090093000","別所滝","36.707753","136.850989","0","1"
"16","富山県","16209","小矢部市","162090094000","法楽寺","36.700049","136.867891","0","1"
"16","富山県","16209","小矢部市","162090095000","松尾","36.646448","136.837046","0","1"
"16","富山県","16209","小矢部市","162090096000","松永","36.654314","136.837215","0","1"
"16","富山県","16209","小矢部市","162090097000","水落","36.674107","136.906395","0","1"
"16","富山県","16209","小矢部市","162090098000","水島","36.637161","136.906891","0","1"
"16","富山県","16209","小矢部市","162090099000","水牧","36.671042","136.890402","0","1"
"16","富山県","16209","小矢部市","162090100000","嶺","36.703974","136.861292","0","1"
"16","富山県","16209","小矢部市","162090101000","峯坪野","36.687759","136.827259","0","1"
"16","富山県","16209","小矢部市","162090102000","蓑輪","36.618573","136.885379","0","1"
"16","富山県","16209","小矢部市","162090103000","宮須","36.696141","136.863648","0","1"
"16","富山県","16209","小矢部市","162090104000","宮中","36.693089","136.858697","0","1"
"16","富山県","16209","小矢部市","162090105000","名ケ滝","36.716621","136.834433","0","1"
"16","富山県","16209","小矢部市","162090106000","メルヘンランド","36.660799","136.848848","0","1"
"16","富山県","16209","小矢部市","162090107000","森屋","36.727203","136.842731","0","1"
"16","富山県","16209","小矢部市","162090108000","矢水町","36.655261","136.866659","0","1"
"16","富山県","16209","小矢部市","162090109000","八和町","36.681719","136.868405","0","1"
"16","富山県","16209","小矢部市","162090110000","柳原","36.680243","136.901694","0","1"
"16","富山県","16209","小矢部市","162090111000","矢波","36.695343","136.848813","0","1"
"16","富山県","16209","小矢部市","162090112000","屋波牧","36.690854","136.848683","0","1"
"16","富山県","16209","小矢部市","162090113000","横谷","36.691647","136.864132","0","1"
"16","富山県","16209","小矢部市","162090114000","了輪","36.707096","136.841632","0","1"
"16","富山県","16209","小矢部市","162090115000","六郎谷","36.721278","136.866161","0","1"
"16","富山県","16209","小矢部市","162090116000","論田","36.699635","136.827398","0","1"
"16","富山県","16209","小矢部市","162090117000","和沢","36.653101","136.885336","0","1"
"16","富山県","16209","小矢部市","162090118000","鷲島","36.661225","136.879137","0","1"
"16","富山県","16209","小矢部市","162090119000","石名田","36.685875","136.907793","0","1"
"16","富山県","16209","小矢部市","162090120000","岡","36.696345","136.902655","0","1"
"16","富山県","16209","小矢部市","162090121000","地崎","36.689764","136.903849","0","1"
"16","富山県","16209","小矢部市","162090122000","芹川","36.681534","136.894239","0","1"
"16","富山県","16209","小矢部市","162090123000","本町","36.674429","136.868290","0","1"
"16","富山県","16209","小矢部市","162090124000","泉町","36.672693","136.870456","0","1"
"16","富山県","16209","小矢部市","162090125000","石動町","36.672959","136.864077","0","1"
"16","富山県","16209","小矢部市","162090126000","後谷","36.676395","136.853794","0","1"
"16","富山県","16209","小矢部市","162090127000","野端","36.670779","136.856912","0","1"
"16","富山県","16209","小矢部市","162090128000","綾子","36.666327","136.863257","0","1"
"16","富山県","16209","小矢部市","162090129000","今石動町","36.677956","136.860013","0","1"
