"PrefCode","PrefName","MuniCode","MuniName","DistCode","DistName","lat","lon","SrcCode","CatCode"
"16","富山県","16204","魚津市","162040001000","相木","36.821946","137.419049","0","1"
"16","富山県","16204","魚津市","162040002000","相木新","36.822855","137.420957","0","1"
"16","富山県","16204","魚津市","162040003000","青島","36.836517","137.407877","0","1"
"16","富山県","16204","魚津市","162040004000","青柳","36.822509","137.445625","0","1"
"16","富山県","16204","魚津市","162040005000","山女","36.778701","137.499829","0","1"
"16","富山県","16204","魚津市","162040006000","浅生","36.774745","137.404932","0","1"
"16","富山県","16204","魚津市","162040007000","有山","36.770328","137.408250","0","1"
"16","富山県","16204","魚津市","162040008000","池谷","36.769320","137.443603","0","1"
"16","富山県","16204","魚津市","162040009000","石垣","36.793373","137.463766","0","1"
"16","富山県","16204","魚津市","162040010000","石垣新","36.810911","137.436236","0","1"
"16","富山県","16204","魚津市","162040011000","出","36.795707","137.410072","0","1"
"16","富山県","16204","魚津市","162040012000","印田","36.816197","137.428271","0","1"
"16","富山県","16204","魚津市","162040013000","上野","36.781241","137.412215","0","1"
"16","富山県","16204","魚津市","162040014000","駅前新町","36.823316","137.405312","0","1"
"16","富山県","16204","魚津市","162040015000","江口","36.835908","137.420739","0","1"
"16","富山県","16204","魚津市","162040016000","大字石垣新村","36.795499","137.460630","0","1"
"16","富山県","16204","魚津市","162040017000","大字大谷村","36.795104","137.451465","0","1"
"16","富山県","16204","魚津市","162040018000","大字下村木町","36.819536","137.408365","0","1"
"16","富山県","16204","魚津市","162040019000","大字田地方町","36.810422","137.398704","0","1"
"16","富山県","16204","魚津市","162040020000","大字六郎丸村","36.797120","137.448589","0","1"
"16","富山県","16204","魚津市","162040021000","大熊","36.742611","137.440702","0","1"
"16","富山県","16204","魚津市","162040022000","大沢","36.812839","137.501127","0","1"
"16","富山県","16204","魚津市","162040023000","大菅沼","36.777472","137.468316","0","1"
"16","富山県","16204","魚津市","162040024000","岡経田","36.843471","137.414709","0","1"
"16","富山県","16204","魚津市","162040025000","小川寺","36.821405","137.471811","0","1"
"16","富山県","16204","魚津市","162040026000","貝田新","36.803499","137.462871","0","1"
"16","富山県","16204","魚津市","162040027000","鹿熊","36.754785","137.441402","0","1"
"16","富山県","16204","魚津市","162040028000","金浦町","36.819063","137.399672","0","1"
"16","富山県","16204","魚津市","162040029000","金山谷","36.772412","137.430885","0","1"
"16","富山県","16204","魚津市","162040030001","上口一丁目","36.807315","137.393863","0","3"
"16","富山県","16204","魚津市","162040030002","上口二丁目","36.809569","137.395145","0","3"
"16","富山県","16204","魚津市","162040031000","上村木","36.822340","137.413841","0","1"
"16","富山県","16204","魚津市","162040032001","上村木一丁目","36.823855","137.408673","0","3"
"16","富山県","16204","魚津市","162040032002","上村木二丁目","36.822913","137.411800","0","3"
"16","富山県","16204","魚津市","162040033000","鴨川町","36.817778","137.401081","0","1"
"16","富山県","16204","魚津市","162040034000","川原","36.791222","137.404205","0","1"
"16","富山県","16204","魚津市","162040035000","川縁","36.794043","137.398853","0","1"
"16","富山県","16204","魚津市","162040036000","川原波","36.728920","137.463171","0","1"
"16","富山県","16204","魚津市","162040037000","観音堂","36.783857","137.420867","0","1"
"16","富山県","16204","魚津市","162040038000","北鬼江","36.832037","137.403650","0","1"
"16","富山県","16204","魚津市","162040039001","北鬼江一丁目","36.829019","137.408168","0","3"
"16","富山県","16204","魚津市","162040039002","北鬼江二丁目","36.829510","137.404721","0","3"
"16","富山県","16204","魚津市","162040040000","北中","36.834580","137.404872","0","1"
"16","富山県","16204","魚津市","162040041000","北山","36.772921","137.446946","0","1"
"16","富山県","16204","魚津市","162040042000","吉島","36.828592","137.418953","0","1"
"16","富山県","16204","魚津市","162040043001","吉島一丁目","36.826940","137.411041","0","3"
"16","富山県","16204","魚津市","162040043002","吉島二丁目","36.826361","137.413593","0","3"
"16","富山県","16204","魚津市","162040044000","木下新","36.847751","137.431985","0","1"
"16","富山県","16204","魚津市","162040045000","黒沢","36.821359","137.491279","0","1"
"16","富山県","16204","魚津市","162040046000","黒谷","36.782644","137.491354","0","1"
"16","富山県","16204","魚津市","162040047000","慶野","36.800807","137.404546","0","1"
"16","富山県","16204","魚津市","162040048000","小菅沼","36.766623","137.439771","0","1"
"16","富山県","16204","魚津市","162040049000","寿町","36.857882","137.412999","0","1"
"16","富山県","16204","魚津市","162040050000","佐伯","36.794473","137.405560","0","1"
"16","富山県","16204","魚津市","162040051000","三ケ","36.718475","137.555405","0","1"
"16","富山県","16204","魚津市","162040052000","三田","36.818475","137.421850","0","1"
"16","富山県","16204","魚津市","162040053000","持光寺","36.844894","137.422773","0","1"
"16","富山県","16204","魚津市","162040054000","島尻","36.785629","137.474239","0","1"
"16","富山県","16204","魚津市","162040055000","下椿","36.771874","137.415976","0","1"
"16","富山県","16204","魚津市","162040056000","釈迦堂","36.822330","137.394734","0","1"
"16","富山県","16204","魚津市","162040057001","釈迦堂一丁目","36.826662","137.407242","0","3"
"16","富山県","16204","魚津市","162040058001","新角川一丁目","36.811557","137.394748","0","3"
"16","富山県","16204","魚津市","162040058002","新角川二丁目","36.811113","137.397377","0","3"
"16","富山県","16204","魚津市","162040059001","新金屋一丁目","36.820536","137.404832","0","3"
"16","富山県","16204","魚津市","162040059002","新金屋二丁目","36.821393","137.407967","0","3"
"16","富山県","16204","魚津市","162040060000","新経田","36.848385","137.419035","0","1"
"16","富山県","16204","魚津市","162040061000","新宿","36.813971","137.398554","0","1"
"16","富山県","16204","魚津市","162040062000","真成寺町","36.816285","137.397644","0","1"
"16","富山県","16204","魚津市","162040063000","末広町","36.820659","137.399321","0","1"
"16","富山県","16204","魚津市","162040064000","住吉","36.803537","137.399579","0","1"
"16","富山県","16204","魚津市","162040065000","諏訪町","36.817976","137.394498","0","1"
"16","富山県","16204","魚津市","162040066000","大海寺新","36.795378","137.444008","0","1"
"16","富山県","16204","魚津市","162040067000","大海寺野","36.809201","137.423412","0","1"
"16","富山県","16204","魚津市","162040068000","大光寺","36.809003","137.407482","0","1"
"16","富山県","16204","魚津市","162040069000","高畠","36.833010","137.411503","0","1"
"16","富山県","16204","魚津市","162040070000","立石","36.830450","137.429458","0","1"
"16","富山県","16204","魚津市","162040071001","中央通り一丁目","36.818048","137.397758","0","3"
"16","富山県","16204","魚津市","162040071002","中央通り二丁目","36.818591","137.400653","0","3"
"16","富山県","16204","魚津市","162040072000","坪野","36.771355","137.456387","0","1"
"16","富山県","16204","魚津市","162040073000","天神野新","36.832338","137.441817","0","1"
"16","富山県","16204","魚津市","162040074000","天王","36.846206","137.416045","0","1"
"16","富山県","16204","魚津市","162040075000","道坂","36.807917","137.455274","0","1"
"16","富山県","16204","魚津市","162040076000","東城","36.795154","137.488771","0","1"
"16","富山県","16204","魚津市","162040077000","東蔵","36.768676","137.495770","0","1"
"16","富山県","16204","魚津市","162040078000","友道","36.813106","137.408218","0","1"
"16","富山県","16204","魚津市","162040079000","虎谷","36.715206","137.461691","0","1"
"16","富山県","16204","魚津市","162040080000","長引野","36.828661","137.475281","0","1"
"16","富山県","16204","魚津市","162040081000","並木町","36.818477","137.402906","0","1"
"16","富山県","16204","魚津市","162040082000","二ケ","36.762760","137.533704","0","1"
"16","富山県","16204","魚津市","162040083000","西尾崎","36.839733","137.425820","0","1"
"16","富山県","16204","魚津市","162040084000","鉢","36.731611","137.442253","0","1"
"16","富山県","16204","魚津市","162040085000","浜経田","36.851040","137.417847","0","1"
"16","富山県","16204","魚津市","162040086000","稗畠","36.785219","137.438379","0","1"
"16","富山県","16204","魚津市","162040087000","東尾崎","36.836687","137.431778","0","1"
"16","富山県","16204","魚津市","162040088000","東山","36.811518","137.460694","0","1"
"16","富山県","16204","魚津市","162040089000","火の宮町","36.820255","137.396997","0","1"
"16","富山県","16204","魚津市","162040090000","平沢","36.755113","137.490891","0","1"
"16","富山県","16204","魚津市","162040091000","袋","36.815088","137.438573","0","1"
"16","富山県","16204","魚津市","162040092000","布施爪","36.832495","137.475278","0","1"
"16","富山県","16204","魚津市","162040093000","双葉町","36.816419","137.398232","0","1"
"16","富山県","16204","魚津市","162040094000","仏田","36.840863","137.410005","0","1"
"16","富山県","16204","魚津市","162040095000","仏又","36.837256","137.411926","0","1"
"16","富山県","16204","魚津市","162040096000","古鹿熊","36.747766","137.460702","0","1"
"16","富山県","16204","魚津市","162040097000","文化町","36.816263","137.399871","0","1"
"16","富山県","16204","魚津市","162040098000","平伝寺","36.849340","137.421877","0","1"
"16","富山県","16204","魚津市","162040099000","蛇田","36.837084","137.447639","0","1"
"16","富山県","16204","魚津市","162040100000","本江","36.816901","137.413990","0","1"
"16","富山県","16204","魚津市","162040101001","本江一丁目","36.816691","137.407656","0","3"
"16","富山県","16204","魚津市","162040102000","本江新町","36.819090","137.405593","0","1"
"16","富山県","16204","魚津市","162040103001","本町一丁目","36.813628","137.395911","0","3"
"16","富山県","16204","魚津市","162040103002","本町二丁目","36.816108","137.395248","0","3"
"16","富山県","16204","魚津市","162040104000","舛方","36.760602","137.416894","0","1"
"16","富山県","16204","魚津市","162040105000","舛田","36.785345","137.415103","0","1"
"16","富山県","16204","魚津市","162040106000","松倉","36.731043","137.482793","0","1"
"16","富山県","16204","魚津市","162040107000","緑町","36.823142","137.402628","0","1"
"16","富山県","16204","魚津市","162040108000","港町","36.820699","137.394253","0","1"
"16","富山県","16204","魚津市","162040109000","宮津","36.798893","137.421552","0","1"
"16","富山県","16204","魚津市","162040110000","村木","36.822613","137.396590","0","1"
"16","富山県","16204","魚津市","162040111000","村木町","36.820759","137.401574","0","1"
"16","富山県","16204","魚津市","162040112000","室田","36.787594","137.427234","0","1"
"16","富山県","16204","魚津市","162040113000","本新","36.826562","137.398321","0","1"
"16","富山県","16204","魚津市","162040114000","本新町","36.825583","137.402779","0","1"
"16","富山県","16204","魚津市","162040115000","弥源寺","36.796428","137.402373","0","1"
"16","富山県","16204","魚津市","162040116000","湯上","36.792070","137.420907","0","1"
"16","富山県","16204","魚津市","162040117000","横枕","36.813537","137.447209","0","1"
"16","富山県","16204","魚津市","162040118000","吉野","36.785407","137.404418","0","1"
"16","富山県","16204","魚津市","162040119000","六郎丸","36.821732","137.432588","0","1"
"16","富山県","16204","魚津市","162040120000","東町","36.853865","137.415201","0","1"
"16","富山県","16204","魚津市","162040121000","経田中町","36.850060","137.415713","0","1"
"16","富山県","16204","魚津市","162040122000","経田西町","36.847164","137.413075","0","1"
