"PrefCode","PrefName","MuniCode","MuniName","DistCode","DistName","lat","lon","SrcCode","CatCode"
"17","石川県","17212","野々市市","172120001001","粟田一丁目","36.510221","136.612654","0","3"
"17","石川県","17212","野々市市","172120001002","粟田二丁目","36.512755","136.612783","0","3"
"17","石川県","17212","野々市市","172120001003","粟田三丁目","36.515681","136.613734","0","3"
"17","石川県","17212","野々市市","172120001004","粟田四丁目","36.516479","136.611592","0","3"
"17","石川県","17212","野々市市","172120001005","粟田五丁目","36.514064","136.608439","0","3"
"17","石川県","17212","野々市市","172120001006","粟田六丁目","36.510383","136.608398","0","3"
"17","石川県","17212","野々市市","172120002001","稲荷一丁目","36.534511","136.604571","0","3"
"17","石川県","17212","野々市市","172120002002","稲荷二丁目","36.534308","136.602129","0","3"
"17","石川県","17212","野々市市","172120002003","稲荷三丁目","36.534483","136.600027","0","3"
"17","石川県","17212","野々市市","172120003000","扇が丘","36.527559","136.625559","0","1"
"17","石川県","17212","野々市市","172120004002","御経塚二丁目","36.548681","136.597717","0","3"
"17","石川県","17212","野々市市","172120004003","御経塚三丁目","36.551772","136.597016","0","3"
"17","石川県","17212","野々市市","172120004004","御経塚四丁目","36.550936","136.600623","0","3"
"17","石川県","17212","野々市市","172120005001","押越一丁目","36.539342","136.610585","0","3"
"17","石川県","17212","野々市市","172120005002","押越二丁目","36.540010","136.607673","0","3"
"17","石川県","17212","野々市市","172120006001","押野一丁目","36.542740","136.614705","0","3"
"17","石川県","17212","野々市市","172120006002","押野二丁目","36.540096","136.613554","0","3"
"17","石川県","17212","野々市市","172120006003","押野三丁目","36.540270","136.617270","0","3"
"17","石川県","17212","野々市市","172120006004","押野四丁目","36.540124","136.621310","0","3"
"17","石川県","17212","野々市市","172120006005","押野五丁目","36.543876","136.620723","0","3"
"17","石川県","17212","野々市市","172120006006","押野六丁目","36.545329","136.617677","0","3"
"17","石川県","17212","野々市市","172120006007","押野七丁目","36.544911","136.614225","0","3"
"17","石川県","17212","野々市市","172120007001","上林一丁目","36.499550","136.601343","0","3"
"17","石川県","17212","野々市市","172120007002","上林二丁目","36.502410","136.599673","0","3"
"17","石川県","17212","野々市市","172120007003","上林三丁目","36.503566","136.603058","0","3"
"17","石川県","17212","野々市市","172120007004","上林四丁目","36.504848","136.605668","0","3"
"17","石川県","17212","野々市市","172120007005","上林五丁目","36.500579","136.605947","0","3"
"17","石川県","17212","野々市市","172120008001","清金一丁目","36.512842","136.595101","0","3"
"17","石川県","17212","野々市市","172120008002","清金二丁目","36.516618","136.595869","0","3"
"17","石川県","17212","野々市市","172120008003","清金三丁目","36.518896","136.595680","0","3"
"17","石川県","17212","野々市市","172120009000","位川","36.524709","136.605798","0","1"
"17","石川県","17212","野々市市","172120010001","三納一丁目","36.518216","136.609562","0","3"
"17","石川県","17212","野々市市","172120010002","三納二丁目","36.521696","136.609701","0","3"
"17","石川県","17212","野々市市","172120010003","三納三丁目","36.524550","136.609701","0","3"
"17","石川県","17212","野々市市","172120011001","下林一丁目","36.518634","136.603047","0","3"
"17","石川県","17212","野々市市","172120011002","下林二丁目","36.518763","136.599429","0","3"
"17","石川県","17212","野々市市","172120011003","下林三丁目","36.523577","136.600010","0","3"
"17","石川県","17212","野々市市","172120011004","下林四丁目","36.523429","136.603787","0","3"
"17","石川県","17212","野々市市","172120012001","新庄一丁目","36.499015","136.611929","0","3"
"17","石川県","17212","野々市市","172120012002","新庄二丁目","36.499044","136.609053","0","3"
"17","石川県","17212","野々市市","172120012003","新庄三丁目","36.504065","136.610762","0","3"
"17","石川県","17212","野々市市","172120012004","新庄四丁目","36.507204","136.612914","0","3"
"17","石川県","17212","野々市市","172120012005","新庄五丁目","36.507468","136.610625","0","3"
"17","石川県","17212","野々市市","172120012006","新庄六丁目","36.505800","136.607966","0","3"
"17","石川県","17212","野々市市","172120013001","末松一丁目","36.505583","136.595277","0","3"
"17","石川県","17212","野々市市","172120013002","末松二丁目","36.506302","136.591042","0","3"
"17","石川県","17212","野々市市","172120013003","末松三丁目","36.510093","136.594204","0","3"
"17","石川県","17212","野々市市","172120014000","菅原町","36.526720","136.615924","0","1"
"17","石川県","17212","野々市市","172120015000","住吉町","36.526991","136.619505","0","1"
"17","石川県","17212","野々市市","172120016000","高橋町","36.532092","136.625841","0","1"
"17","石川県","17212","野々市市","172120017001","太平寺一丁目","36.527844","136.606441","0","3"
"17","石川県","17212","野々市市","172120017002","太平寺二丁目","36.527389","136.603276","0","3"
"17","石川県","17212","野々市市","172120017003","太平寺三丁目","36.530589","136.604642","0","3"
"17","石川県","17212","野々市市","172120017004","太平寺四丁目","36.530646","136.606558","0","3"
"17","石川県","17212","野々市市","172120018001","藤平田一丁目","36.518648","136.606717","0","3"
"17","石川県","17212","野々市市","172120018002","藤平田二丁目","36.521871","136.607307","0","3"
"17","石川県","17212","野々市市","172120019000","長池","36.543572","136.593938","0","1"
"17","石川県","17212","野々市市","172120020001","中林一丁目","36.508414","136.605028","0","3"
"17","石川県","17212","野々市市","172120020002","中林二丁目","36.506289","136.599645","0","3"
"17","石川県","17212","野々市市","172120020003","中林三丁目","36.509716","136.600094","0","3"
"17","石川県","17212","野々市市","172120020004","中林四丁目","36.513926","136.600130","0","3"
"17","石川県","17212","野々市市","172120020005","中林五丁目","36.511716","136.604433","0","3"
"17","石川県","17212","野々市市","172120021000","白山町","36.527753","136.612357","0","1"
"17","石川県","17212","野々市市","172120022000","藤平","36.515339","136.604663","0","1"
"17","石川県","17212","野々市市","172120023001","堀内一丁目","36.525782","136.596341","0","3"
"17","石川県","17212","野々市市","172120023002","堀内二丁目","36.526270","136.598881","0","3"
"17","石川県","17212","野々市市","172120023003","堀内三丁目","36.527639","136.601142","0","3"
"17","石川県","17212","野々市市","172120023004","堀内四丁目","36.531096","136.602156","0","3"
"17","石川県","17212","野々市市","172120024001","本町一丁目","36.536784","136.620643","0","3"
"17","石川県","17212","野々市市","172120024002","本町二丁目","36.531709","136.619997","0","3"
"17","石川県","17212","野々市市","172120024003","本町三丁目","36.531781","136.616333","0","3"
"17","石川県","17212","野々市市","172120024004","本町四丁目","36.531306","136.612568","0","3"
"17","石川県","17212","野々市市","172120024005","本町五丁目","36.529578","136.609628","0","3"
"17","石川県","17212","野々市市","172120024006","本町六丁目","36.535406","136.608078","0","3"
"17","石川県","17212","野々市市","172120025000","柳町","36.527342","136.582884","0","1"
"17","石川県","17212","野々市市","172120026001","矢作一丁目","36.520316","136.613901","0","3"
"17","石川県","17212","野々市市","172120026002","矢作二丁目","36.520687","136.611913","0","3"
"17","石川県","17212","野々市市","172120026003","矢作三丁目","36.524283","136.612625","0","3"
"17","石川県","17212","野々市市","172120026004","矢作四丁目","36.523860","136.614431","0","3"
"17","石川県","17212","野々市市","172120027000","横宮町","36.535893","136.616924","0","1"
"17","石川県","17212","野々市市","172120028000","若松町","36.535894","136.612710","0","1"
"17","石川県","17212","野々市市","172120004001","御経塚一丁目","36.544616","136.597727","0","3"
"17","石川県","17212","野々市市","172120004005","御経塚五丁目","36.545086","136.601287","0","3"
"17","石川県","17212","野々市市","172120029003","野代三丁目","36.542657","136.603509","0","3"
"17","石川県","17212","野々市市","172120029002","野代二丁目","36.540385","136.603487","0","3"
"17","石川県","17212","野々市市","172120029001","野代一丁目","36.538645","136.602928","0","3"
"17","石川県","17212","野々市市","172120002004","稲荷四丁目","36.537090","136.603105","0","3"
"17","石川県","17212","野々市市","172120030002","二日市二丁目","36.540625","136.601478","0","3"
"17","石川県","17212","野々市市","172120030001","二日市一丁目","36.541701","136.597070","0","3"
"17","石川県","17212","野々市市","172120030003","二日市三丁目","36.541114","136.599818","0","3"
"17","石川県","17212","野々市市","172120030005","二日市五丁目","36.539048","136.595586","0","3"
"17","石川県","17212","野々市市","172120030004","二日市四丁目","36.537927","136.597810","0","3"
"17","石川県","17212","野々市市","172120031001","三日市一丁目","36.535565","136.594777","0","3"
"17","石川県","17212","野々市市","172120032003","徳用三丁目","36.535415","136.590741","0","3"
"17","石川県","17212","野々市市","172120033000","蓮花寺町","36.527897","136.593047","0","1"
"17","石川県","17212","野々市市","172120031002","三日市二丁目","36.534102","136.595092","0","3"
"17","石川県","17212","野々市市","172120032002","徳用二丁目","36.533601","136.591068","0","3"
"17","石川県","17212","野々市市","172120034002","郷二丁目","36.533640","136.586084","0","3"
"17","石川県","17212","野々市市","172120034001","郷一丁目","36.534448","136.587738","0","3"
"17","石川県","17212","野々市市","172120035000","田尻町","36.530548","136.596391","0","1"
"17","石川県","17212","野々市市","172120023005","堀内五丁目","36.531126","136.599125","0","3"
"17","石川県","17212","野々市市","172120031003","三日市三丁目","36.534266","136.598101","0","3"
