"PrefCode","PrefName","MuniCode","MuniName","DistCode","DistName","lat","lon","SrcCode","CatCode"
"21","岐阜県","21211","美濃加茂市","212110001000","伊深町","35.513452","137.010952","0","1"
"21","岐阜県","21211","美濃加茂市","212110002000","太田町","35.445106","137.016171","0","1"
"21","岐阜県","21211","美濃加茂市","212110003001","太田本町一丁目","35.438086","137.018941","0","3"
"21","岐阜県","21211","美濃加茂市","212110003002","太田本町二丁目","35.437987","137.015828","0","3"
"21","岐阜県","21211","美濃加茂市","212110003003","太田本町三丁目","35.437853","137.013445","0","3"
"21","岐阜県","21211","美濃加茂市","212110003004","太田本町四丁目","35.437630","137.011225","0","3"
"21","岐阜県","21211","美濃加茂市","212110003005","太田本町五丁目","35.436894","137.009158","0","3"
"21","岐阜県","21211","美濃加茂市","212110004001","大手町一丁目","35.446569","137.019030","0","3"
"21","岐阜県","21211","美濃加茂市","212110004002","大手町二丁目","35.448115","137.019542","0","3"
"21","岐阜県","21211","美濃加茂市","212110005001","加茂川町一丁目","35.442270","137.009164","0","3"
"21","岐阜県","21211","美濃加茂市","212110005002","加茂川町二丁目","35.440113","137.008720","0","3"
"21","岐阜県","21211","美濃加茂市","212110005003","加茂川町三丁目","35.440306","137.005801","0","3"
"21","岐阜県","21211","美濃加茂市","212110006000","加茂野町市橋","35.470223","136.964526","0","1"
"21","岐阜県","21211","美濃加茂市","212110007000","加茂野町稲辺","35.452811","136.966350","0","1"
"21","岐阜県","21211","美濃加茂市","212110008000","加茂野町今泉","35.464948","136.977793","0","1"
"21","岐阜県","21211","美濃加茂市","212110009000","加茂野町加茂野","35.454089","136.983446","0","1"
"21","岐阜県","21211","美濃加茂市","212110010000","加茂野町鷹之巣","35.465191","136.969620","0","1"
"21","岐阜県","21211","美濃加茂市","212110011001","川合町一丁目","35.443453","137.044373","0","3"
"21","岐阜県","21211","美濃加茂市","212110011002","川合町二丁目","35.448026","137.046201","0","3"
"21","岐阜県","21211","美濃加茂市","212110011003","川合町三丁目","35.446194","137.048895","0","3"
"21","岐阜県","21211","美濃加茂市","212110011004","川合町四丁目","35.449316","137.050473","0","3"
"21","岐阜県","21211","美濃加茂市","212110012001","草笛町一丁目","35.444949","137.010309","0","3"
"21","岐阜県","21211","美濃加茂市","212110012002","草笛町二丁目","35.444373","137.006782","0","3"
"21","岐阜県","21211","美濃加茂市","212110012003","草笛町三丁目","35.443076","137.004143","0","3"
"21","岐阜県","21211","美濃加茂市","212110012004","草笛町四丁目","35.440370","137.003119","0","3"
"21","岐阜県","21211","美濃加茂市","212110013000","古井町下古井","35.440930","137.023764","0","1"
"21","岐阜県","21211","美濃加茂市","212110014001","島町一丁目","35.441489","137.027905","0","3"
"21","岐阜県","21211","美濃加茂市","212110014002","島町二丁目","35.438322","137.027162","0","3"
"21","岐阜県","21211","美濃加茂市","212110015001","清水町一丁目","35.445259","137.031902","0","3"
"21","岐阜県","21211","美濃加茂市","212110015002","清水町二丁目","35.442665","137.031283","0","3"
"21","岐阜県","21211","美濃加茂市","212110016000","下米田町今","35.458207","137.064021","0","1"
"21","岐阜県","21211","美濃加茂市","212110017000","下米田町小山","35.452459","137.056008","0","1"
"21","岐阜県","21211","美濃加茂市","212110018000","下米田町為岡","35.473022","137.071341","0","1"
"21","岐阜県","21211","美濃加茂市","212110019000","下米田町西脇","35.466424","137.059153","0","1"
"21","岐阜県","21211","美濃加茂市","212110020000","下米田町信友","35.465800","137.079070","0","1"
"21","岐阜県","21211","美濃加茂市","212110021000","下米田町則光","35.463687","137.068284","0","1"
"21","岐阜県","21211","美濃加茂市","212110022000","下米田町東栃井","35.475752","137.066655","0","1"
"21","岐阜県","21211","美濃加茂市","212110023000","下米田町山本","35.473176","137.078551","0","1"
"21","岐阜県","21211","美濃加茂市","212110024001","新池町一丁目","35.452096","137.023515","0","3"
"21","岐阜県","21211","美濃加茂市","212110024002","新池町二丁目","35.453396","137.027205","0","3"
"21","岐阜県","21211","美濃加茂市","212110024003","新池町三丁目","35.453923","137.030119","0","3"
"21","岐阜県","21211","美濃加茂市","212110025001","田島町一丁目","35.446620","137.022658","0","3"
"21","岐阜県","21211","美濃加茂市","212110025002","田島町二丁目","35.449184","137.023078","0","3"
"21","岐阜県","21211","美濃加茂市","212110025003","田島町三丁目","35.449756","137.026749","0","3"
"21","岐阜県","21211","美濃加茂市","212110025004","田島町四丁目","35.447729","137.027564","0","3"
"21","岐阜県","21211","美濃加茂市","212110026001","中部台一丁目","35.456233","137.019389","0","3"
"21","岐阜県","21211","美濃加茂市","212110026002","中部台二丁目","35.459613","137.019753","0","3"
"21","岐阜県","21211","美濃加茂市","212110026003","中部台三丁目","35.461048","137.019926","0","3"
"21","岐阜県","21211","美濃加茂市","212110026004","中部台四丁目","35.460636","137.022404","0","3"
"21","岐阜県","21211","美濃加茂市","212110026005","中部台五丁目","35.462453","137.019283","0","3"
"21","岐阜県","21211","美濃加茂市","212110026006","中部台六丁目","35.463759","137.016603","0","3"
"21","岐阜県","21211","美濃加茂市","212110026007","中部台七丁目","35.464540","137.019665","0","3"
"21","岐阜県","21211","美濃加茂市","212110026008","中部台八丁目","35.463345","137.022403","0","3"
"21","岐阜県","21211","美濃加茂市","212110026009","中部台九丁目","35.466486","137.019016","0","3"
"21","岐阜県","21211","美濃加茂市","212110027001","中富町一丁目","35.443442","137.025280","0","3"
"21","岐阜県","21211","美濃加茂市","212110027002","中富町二丁目","35.445851","137.028130","0","3"
"21","岐阜県","21211","美濃加茂市","212110027003","中富町三丁目","35.442839","137.028030","0","3"
"21","岐阜県","21211","美濃加茂市","212110028001","西町一丁目","35.446515","137.004517","0","3"
"21","岐阜県","21211","美濃加茂市","212110028002","西町二丁目","35.445274","137.001568","0","3"
"21","岐阜県","21211","美濃加茂市","212110028003","西町三丁目","35.443457","137.000234","0","3"
"21","岐阜県","21211","美濃加茂市","212110028004","西町四丁目","35.443204","136.995248","0","3"
"21","岐阜県","21211","美濃加茂市","212110028005","西町五丁目","35.447420","136.997146","0","3"
"21","岐阜県","21211","美濃加茂市","212110028006","西町六丁目","35.449911","136.995167","0","3"
"21","岐阜県","21211","美濃加茂市","212110028007","西町七丁目","35.452406","136.997592","0","3"
"21","岐阜県","21211","美濃加茂市","212110028008","西町八丁目","35.448597","137.002153","0","3"
"21","岐阜県","21211","美濃加茂市","212110029001","野笹町一丁目","35.443974","137.034596","0","3"
"21","岐阜県","21211","美濃加茂市","212110029002","野笹町二丁目","35.443671","137.037906","0","3"
"21","岐阜県","21211","美濃加茂市","212110030001","蜂屋台一丁目","35.468393","137.016535","0","3"
"21","岐阜県","21211","美濃加茂市","212110030002","蜂屋台二丁目","35.469342","137.012532","0","3"
"21","岐阜県","21211","美濃加茂市","212110031000","蜂屋町上蜂屋","35.478175","137.019444","0","1"
"21","岐阜県","21211","美濃加茂市","212110032000","蜂屋町下蜂屋","35.475900","136.992214","0","1"
"21","岐阜県","21211","美濃加茂市","212110033000","蜂屋町矢田","35.455942","137.010497","0","1"
"21","岐阜県","21211","美濃加茂市","212110034001","深田町一丁目","35.435305","137.007425","0","3"
"21","岐阜県","21211","美濃加茂市","212110034002","深田町二丁目","35.432865","137.005247","0","3"
"21","岐阜県","21211","美濃加茂市","212110034003","深田町三丁目","35.435729","137.004371","0","3"
"21","岐阜県","21211","美濃加茂市","212110035001","本郷町一丁目","35.447980","137.038717","0","3"
"21","岐阜県","21211","美濃加茂市","212110035002","本郷町二丁目","35.449057","137.035853","0","3"
"21","岐阜県","21211","美濃加茂市","212110035003","本郷町三丁目","35.449735","137.032043","0","3"
"21","岐阜県","21211","美濃加茂市","212110035004","本郷町四丁目","35.455677","137.031966","0","3"
"21","岐阜県","21211","美濃加茂市","212110035005","本郷町五丁目","35.455802","137.035013","0","3"
"21","岐阜県","21211","美濃加茂市","212110035006","本郷町六丁目","35.456455","137.038303","0","3"
"21","岐阜県","21211","美濃加茂市","212110035007","本郷町七丁目","35.458168","137.041919","0","3"
"21","岐阜県","21211","美濃加茂市","212110035008","本郷町八丁目","35.453570","137.045841","0","3"
"21","岐阜県","21211","美濃加茂市","212110035009","本郷町九丁目","35.450942","137.042866","0","3"
"21","岐阜県","21211","美濃加茂市","212110036001","前平町一丁目","35.450989","137.008411","0","3"
"21","岐阜県","21211","美濃加茂市","212110036002","前平町二丁目","35.450585","137.004320","0","3"
"21","岐阜県","21211","美濃加茂市","212110037000","牧野","35.447827","137.066102","0","1"
"21","岐阜県","21211","美濃加茂市","212110038001","御門町一丁目","35.439181","137.030736","0","3"
"21","岐阜県","21211","美濃加茂市","212110038002","御門町二丁目","35.439793","137.036783","0","3"
"21","岐阜県","21211","美濃加茂市","212110039000","三和町川浦","35.528043","137.051121","0","1"
"21","岐阜県","21211","美濃加茂市","212110040000","三和町廿屋","35.534098","137.026606","0","1"
"21","岐阜県","21211","美濃加茂市","212110041001","森山町一丁目","35.455007","137.048854","0","3"
"21","岐阜県","21211","美濃加茂市","212110041002","森山町二丁目","35.458147","137.045971","0","3"
"21","岐阜県","21211","美濃加茂市","212110041003","森山町三丁目","35.460631","137.050522","0","3"
"21","岐阜県","21211","美濃加茂市","212110041004","森山町四丁目","35.456183","137.051904","0","3"
"21","岐阜県","21211","美濃加茂市","212110041005","森山町五丁目","35.462273","137.045763","0","3"
"21","岐阜県","21211","美濃加茂市","212110041006","森山町六丁目","35.464112","137.048863","0","3"
"21","岐阜県","21211","美濃加茂市","212110042001","山手町一丁目","35.451419","137.019033","0","3"
"21","岐阜県","21211","美濃加茂市","212110042002","山手町二丁目","35.451484","137.015193","0","3"
"21","岐阜県","21211","美濃加茂市","212110042003","山手町三丁目","35.451638","137.011903","0","3"
"21","岐阜県","21211","美濃加茂市","212110043000","山之上町","35.483766","137.036726","0","1"
"21","岐阜県","21211","美濃加茂市","212110044000","蜂屋町中蜂屋","35.474686","137.004290","0","1"
"21","岐阜県","21211","美濃加茂市","212110045000","加茂野町木野","35.459291","136.990300","0","1"
"21","岐阜県","21211","美濃加茂市","212110046000","蜂屋町伊瀬","35.465631","136.990026","0","1"
"21","岐阜県","21211","美濃加茂市","212110047002","あじさいヶ丘二丁目","35.461623","137.006589","0","3"
"21","岐阜県","21211","美濃加茂市","212110048000","山崎町","35.462007","137.003132","0","1"
"21","岐阜県","21211","美濃加茂市","212110036003","前平町三丁目","35.453186","137.003889","0","3"
"21","岐阜県","21211","美濃加茂市","212110047003","あじさいヶ丘三丁目","35.458631","137.006860","0","3"
"21","岐阜県","21211","美濃加茂市","212110047001","あじさいヶ丘一丁目","35.459458","137.005206","0","3"
