"PrefCode","PrefName","MuniCode","MuniName","DistCode","DistName","lat","lon","SrcCode","CatCode"
"21","岐阜県","21214","可児市","212140001001","愛岐ケ丘一丁目","35.394266","137.014561","0","3"
"21","岐阜県","21214","可児市","212140001002","愛岐ケ丘二丁目","35.397571","137.015598","0","3"
"21","岐阜県","21214","可児市","212140001003","愛岐ケ丘三丁目","35.396186","137.019430","0","3"
"21","岐阜県","21214","可児市","212140001004","愛岐ケ丘四丁目","35.395656","137.016670","0","3"
"21","岐阜県","21214","可児市","212140001005","愛岐ケ丘五丁目","35.393836","137.017718","0","3"
"21","岐阜県","21214","可児市","212140002000","石井","35.426588","137.070359","0","1"
"21","岐阜県","21214","可児市","212140003000","石森","35.430940","137.083094","0","1"
"21","岐阜県","21214","可児市","212140004000","今","35.381444","137.049924","0","1"
"21","岐阜県","21214","可児市","212140005000","今渡","35.430717","137.036481","0","1"
"21","岐阜県","21214","可児市","212140006000","大森","35.395207","137.078131","0","1"
"21","岐阜県","21214","可児市","212140007001","大森台一丁目","35.411042","137.062510","0","3"
"21","岐阜県","21214","可児市","212140007002","大森台二丁目","35.409432","137.061858","0","3"
"21","岐阜県","21214","可児市","212140008000","柿下","35.397478","137.101934","0","1"
"21","岐阜県","21214","可児市","212140009000","柿田","35.429701","137.097867","0","1"
"21","岐阜県","21214","可児市","212140010001","帷子新町一丁目","35.405924","137.013237","0","3"
"21","岐阜県","21214","可児市","212140010002","帷子新町二丁目","35.403432","137.011361","0","3"
"21","岐阜県","21214","可児市","212140010003","帷子新町三丁目","35.402421","137.009006","0","3"
"21","岐阜県","21214","可児市","212140011001","桂ケ丘一丁目","35.389197","137.087376","0","3"
"21","岐阜県","21214","可児市","212140011002","桂ケ丘二丁目","35.391270","137.089637","0","3"
"21","岐阜県","21214","可児市","212140011003","桂ケ丘三丁目","35.392798","137.085808","0","3"
"21","岐阜県","21214","可児市","212140012000","兼山","35.457564","137.093310","0","1"
"21","岐阜県","21214","可児市","212140013000","川合","35.439649","137.061264","0","1"
"21","岐阜県","21214","可児市","212140014001","川合北一丁目","35.443406","137.055421","0","3"
"21","岐阜県","21214","可児市","212140014002","川合北二丁目","35.442375","137.051935","0","3"
"21","岐阜県","21214","可児市","212140014003","川合北三丁目","35.440913","137.050124","0","3"
"21","岐阜県","21214","可児市","212140015000","久々利","35.403872","137.110827","0","1"
"21","岐阜県","21214","可児市","212140016000","久々利柿下入会","35.393631","137.131297","0","1"
"21","岐阜県","21214","可児市","212140017001","光陽台一丁目","35.388763","137.015022","0","3"
"21","岐阜県","21214","可児市","212140017002","光陽台二丁目","35.386069","137.013973","0","3"
"21","岐阜県","21214","可児市","212140017003","光陽台三丁目","35.387576","137.011481","0","3"
"21","岐阜県","21214","可児市","212140017004","光陽台四丁目","35.385133","137.012175","0","3"
"21","岐阜県","21214","可児市","212140017005","光陽台五丁目","35.384118","137.013795","0","3"
"21","岐阜県","21214","可児市","212140017006","光陽台六丁目","35.383539","137.011067","0","3"
"21","岐阜県","21214","可児市","212140017007","光陽台七丁目","35.385646","137.010243","0","3"
"21","岐阜県","21214","可児市","212140018000","坂戸","35.414591","137.036193","0","1"
"21","岐阜県","21214","可児市","212140019001","桜ケ丘一丁目","35.372438","137.114235","0","3"
"21","岐阜県","21214","可児市","212140019002","桜ケ丘二丁目","35.373850","137.114522","0","3"
"21","岐阜県","21214","可児市","212140019003","桜ケ丘三丁目","35.374611","137.117492","0","3"
"21","岐阜県","21214","可児市","212140019004","桜ケ丘四丁目","35.376802","137.117062","0","3"
"21","岐阜県","21214","可児市","212140019005","桜ケ丘五丁目","35.380766","137.114435","0","3"
"21","岐阜県","21214","可児市","212140019006","桜ケ丘六丁目","35.378441","137.112777","0","3"
"21","岐阜県","21214","可児市","212140019007","桜ケ丘七丁目","35.378789","137.109579","0","3"
"21","岐阜県","21214","可児市","212140020001","皐ケ丘一丁目","35.381630","137.103105","0","3"
"21","岐阜県","21214","可児市","212140020002","皐ケ丘二丁目","35.381301","137.108380","0","3"
"21","岐阜県","21214","可児市","212140020003","皐ケ丘三丁目","35.382700","137.109112","0","3"
"21","岐阜県","21214","可児市","212140020004","皐ケ丘四丁目","35.384964","137.110334","0","3"
"21","岐阜県","21214","可児市","212140020005","皐ケ丘五丁目","35.387225","137.106086","0","3"
"21","岐阜県","21214","可児市","212140020006","皐ケ丘六丁目","35.385456","137.106087","0","3"
"21","岐阜県","21214","可児市","212140020007","皐ケ丘七丁目","35.382795","137.105792","0","3"
"21","岐阜県","21214","可児市","212140020008","皐ケ丘八丁目","35.384004","137.102410","0","3"
"21","岐阜県","21214","可児市","212140020009","皐ケ丘九丁目","35.387551","137.102475","0","3"
"21","岐阜県","21214","可児市","212140021000","塩","35.411835","137.025429","0","1"
"21","岐阜県","21214","可児市","212140022001","清水ケ丘一丁目","35.399448","137.042070","0","3"
"21","岐阜県","21214","可児市","212140022002","清水ケ丘二丁目","35.397321","137.043118","0","3"
"21","岐阜県","21214","可児市","212140022003","清水ケ丘三丁目","35.394903","137.043833","0","3"
"21","岐阜県","21214","可児市","212140022004","清水ケ丘四丁目","35.393322","137.044823","0","3"
"21","岐阜県","21214","可児市","212140022005","清水ケ丘五丁目","35.391901","137.046002","0","3"
"21","岐阜県","21214","可児市","212140022006","清水ケ丘六丁目","35.389628","137.047086","0","3"
"21","岐阜県","21214","可児市","212140023000","下恵土","35.423150","137.053521","0","1"
"21","岐阜県","21214","可児市","212140024000","下切","35.401694","137.057969","0","1"
"21","岐阜県","21214","可児市","212140025000","下切谷迫間入会","35.399502","137.046815","0","1"
"21","岐阜県","21214","可児市","212140026000","塩河","35.384486","137.039475","0","1"
"21","岐阜県","21214","可児市","212140027000","菅刈","35.401543","137.003667","0","1"
"21","岐阜県","21214","可児市","212140028000","瀬田","35.426661","137.086540","0","1"
"21","岐阜県","21214","可児市","212140029001","禅台寺一丁目","35.424131","137.047702","0","3"
"21","岐阜県","21214","可児市","212140029002","禅台寺二丁目","35.422593","137.048908","0","3"
"21","岐阜県","21214","可児市","212140029003","禅台寺三丁目","35.422941","137.047672","0","3"
"21","岐阜県","21214","可児市","212140029004","禅台寺四丁目","35.422250","137.046907","0","3"
"21","岐阜県","21214","可児市","212140029005","禅台寺五丁目","35.424501","137.045977","0","3"
"21","岐阜県","21214","可児市","212140029006","禅台寺六丁目","35.423132","137.044778","0","3"
"21","岐阜県","21214","可児市","212140030001","徳野南一丁目","35.419534","137.041127","0","3"
"21","岐阜県","21214","可児市","212140030002","徳野南二丁目","35.421580","137.037511","0","3"
"21","岐阜県","21214","可児市","212140031000","土田","35.425242","137.018430","0","1"
"21","岐阜県","21214","可児市","212140032000","中恵土","35.431842","137.065006","0","1"
"21","岐阜県","21214","可児市","212140033001","長坂一丁目","35.399182","137.007621","0","3"
"21","岐阜県","21214","可児市","212140033002","長坂二丁目","35.395956","137.007636","0","3"
"21","岐阜県","21214","可児市","212140033003","長坂三丁目","35.396173","137.005537","0","3"
"21","岐阜県","21214","可児市","212140033004","長坂四丁目","35.393406","137.005030","0","3"
"21","岐阜県","21214","可児市","212140033005","長坂五丁目","35.392084","137.006241","0","3"
"21","岐阜県","21214","可児市","212140033006","長坂六丁目","35.388945","137.005191","0","3"
"21","岐阜県","21214","可児市","212140033007","長坂七丁目","35.390539","137.003276","0","3"
"21","岐阜県","21214","可児市","212140033008","長坂八丁目","35.387484","137.003375","0","3"
"21","岐阜県","21214","可児市","212140034000","長洞","35.386196","137.018992","0","1"
"21","岐阜県","21214","可児市","212140035001","虹ケ丘一丁目","35.412842","137.018364","0","3"
"21","岐阜県","21214","可児市","212140035002","虹ケ丘二丁目","35.414184","137.016326","0","3"
"21","岐阜県","21214","可児市","212140035003","虹ケ丘三丁目","35.411694","137.016568","0","3"
"21","岐阜県","21214","可児市","212140035004","虹ケ丘四丁目","35.412546","137.013895","0","3"
"21","岐阜県","21214","可児市","212140035005","虹ケ丘五丁目","35.409904","137.014180","0","3"
"21","岐阜県","21214","可児市","212140035006","虹ケ丘六丁目","35.408812","137.012572","0","3"
"21","岐阜県","21214","可児市","212140036000","西帷子","35.407281","136.997587","0","1"
"21","岐阜県","21214","可児市","212140037000","二野","35.409602","137.085824","0","1"
"21","岐阜県","21214","可児市","212140038000","羽崎","35.415258","137.081951","0","1"
"21","岐阜県","21214","可児市","212140039001","鳩吹台一丁目","35.406810","137.001330","0","3"
"21","岐阜県","21214","可児市","212140039002","鳩吹台二丁目","35.406022","136.998648","0","3"
"21","岐阜県","21214","可児市","212140039003","鳩吹台三丁目","35.404873","136.999426","0","3"
"21","岐阜県","21214","可児市","212140039004","鳩吹台四丁目","35.404141","136.996523","0","3"
"21","岐阜県","21214","可児市","212140039005","鳩吹台五丁目","35.402491","136.998533","0","3"
"21","岐阜県","21214","可児市","212140039006","鳩吹台六丁目","35.401451","136.996094","0","3"
"21","岐阜県","21214","可児市","212140039007","鳩吹台七丁目","35.399505","136.997761","0","3"
"21","岐阜県","21214","可児市","212140039008","鳩吹台八丁目","35.397073","136.997011","0","3"
"21","岐阜県","21214","可児市","212140040001","羽生ケ丘一丁目","35.417194","137.088179","0","3"
"21","岐阜県","21214","可児市","212140040002","羽生ケ丘二丁目","35.418253","137.090504","0","3"
"21","岐阜県","21214","可児市","212140040003","羽生ケ丘三丁目","35.418363","137.087539","0","3"
"21","岐阜県","21214","可児市","212140040004","羽生ケ丘四丁目","35.419633","137.085722","0","3"
"21","岐阜県","21214","可児市","212140040005","羽生ケ丘五丁目","35.418895","137.083813","0","3"
"21","岐阜県","21214","可児市","212140041000","東帷子","35.393983","137.011062","0","1"
"21","岐阜県","21214","可児市","212140042001","姫ケ丘一丁目","35.405768","137.049613","0","3"
"21","岐阜県","21214","可児市","212140042002","姫ケ丘二丁目","35.403350","137.046468","0","3"
"21","岐阜県","21214","可児市","212140042003","姫ケ丘三丁目","35.400281","137.051202","0","3"
"21","岐阜県","21214","可児市","212140042004","姫ケ丘四丁目","35.392419","137.049871","0","3"
"21","岐阜県","21214","可児市","212140043000","平貝戸","35.433394","137.089035","0","1"
"21","岐阜県","21214","可児市","212140044000","広見","35.419313","137.064373","0","1"
"21","岐阜県","21214","可児市","212140045001","広見一丁目","35.425673","137.061514","0","3"
"21","岐阜県","21214","可児市","212140045002","広見二丁目","35.425659","137.059028","0","3"
"21","岐阜県","21214","可児市","212140045003","広見三丁目","35.424034","137.061523","0","3"
"21","岐阜県","21214","可児市","212140045004","広見四丁目","35.424004","137.058769","0","3"
"21","岐阜県","21214","可児市","212140045005","広見五丁目","35.424562","137.064251","0","3"
"21","岐阜県","21214","可児市","212140045006","広見六丁目","35.421841","137.064282","0","3"
"21","岐阜県","21214","可児市","212140045007","広見七丁目","35.421411","137.066817","0","3"
"21","岐阜県","21214","可児市","212140046010","広眺ケ丘十丁目","35.419767","137.082770","0","3"
"21","岐阜県","21214","可児市","212140046001","広眺ケ丘一丁目","35.421903","137.072610","0","3"
"21","岐阜県","21214","可児市","212140046002","広眺ケ丘二丁目","35.423130","137.072002","0","3"
"21","岐阜県","21214","可児市","212140046003","広眺ケ丘三丁目","35.422757","137.073931","0","3"
"21","岐阜県","21214","可児市","212140046004","広眺ケ丘四丁目","35.421128","137.073700","0","3"
"21","岐阜県","21214","可児市","212140046005","広眺ケ丘五丁目","35.422191","137.075776","0","3"
"21","岐阜県","21214","可児市","212140046006","広眺ケ丘六丁目","35.420264","137.079205","0","3"
"21","岐阜県","21214","可児市","212140046007","広眺ケ丘七丁目","35.421591","137.078033","0","3"
"21","岐阜県","21214","可児市","212140046008","広眺ケ丘八丁目","35.421596","137.081773","0","3"
"21","岐阜県","21214","可児市","212140046009","広眺ケ丘九丁目","35.420862","137.082207","0","3"
"21","岐阜県","21214","可児市","212140047000","渕之上","35.435305","137.096302","0","1"
"21","岐阜県","21214","可児市","212140048001","星見台一丁目","35.385947","137.083444","0","3"
"21","岐阜県","21214","可児市","212140048002","星見台二丁目","35.384538","137.085051","0","3"
"21","岐阜県","21214","可児市","212140049001","松伏一丁目","35.386309","137.077072","0","3"
"21","岐阜県","21214","可児市","212140049002","松伏二丁目","35.387506","137.075227","0","3"
"21","岐阜県","21214","可児市","212140049003","松伏三丁目","35.389525","137.074256","0","3"
"21","岐阜県","21214","可児市","212140049004","松伏四丁目","35.388385","137.076253","0","3"
"21","岐阜県","21214","可児市","212140049005","松伏五丁目","35.388920","137.077791","0","3"
"21","岐阜県","21214","可児市","212140050001","美里ケ丘一丁目","35.405406","137.037346","0","3"
"21","岐阜県","21214","可児市","212140050002","美里ケ丘二丁目","35.406232","137.037792","0","3"
"21","岐阜県","21214","可児市","212140051001","みずきケ丘一丁目","35.398112","137.055513","0","3"
"21","岐阜県","21214","可児市","212140051002","みずきケ丘二丁目","35.396178","137.052976","0","3"
"21","岐阜県","21214","可児市","212140051003","みずきケ丘三丁目","35.396644","137.056772","0","3"
"21","岐阜県","21214","可児市","212140051004","みずきケ丘四丁目","35.395191","137.054188","0","3"
"21","岐阜県","21214","可児市","212140052001","緑一丁目","35.398333","137.002920","0","3"
"21","岐阜県","21214","可児市","212140052002","緑二丁目","35.395996","137.002917","0","3"
"21","岐阜県","21214","可児市","212140052003","緑三丁目","35.396354","137.001491","0","3"
"21","岐阜県","21214","可児市","212140052004","緑四丁目","35.393517","137.001503","0","3"
"21","岐阜県","21214","可児市","212140052005","緑五丁目","35.394327","137.000309","0","3"
"21","岐阜県","21214","可児市","212140052006","緑六丁目","35.393420","136.998732","0","3"
"21","岐阜県","21214","可児市","212140052007","緑七丁目","35.395808","137.000051","0","3"
"21","岐阜県","21214","可児市","212140053001","緑ケ丘一丁目","35.412652","137.072956","0","3"
"21","岐阜県","21214","可児市","212140053002","緑ケ丘二丁目","35.410594","137.074445","0","3"
"21","岐阜県","21214","可児市","212140053003","緑ケ丘三丁目","35.407807","137.078346","0","3"
"21","岐阜県","21214","可児市","212140053004","緑ケ丘四丁目","35.409452","137.078953","0","3"
"21","岐阜県","21214","可児市","212140053005","緑ケ丘五丁目","35.411569","137.076489","0","3"
"21","岐阜県","21214","可児市","212140054000","室原","35.387004","137.027281","0","1"
"21","岐阜県","21214","可児市","212140055000","矢戸","35.402057","137.030117","0","1"
"21","岐阜県","21214","可児市","212140056000","谷迫間","35.407571","137.042180","0","1"
"21","岐阜県","21214","可児市","212140057001","若葉台一丁目","35.402136","137.014524","0","3"
"21","岐阜県","21214","可児市","212140057002","若葉台二丁目","35.401494","137.016194","0","3"
"21","岐阜県","21214","可児市","212140057003","若葉台三丁目","35.399551","137.018447","0","3"
"21","岐阜県","21214","可児市","212140057005","若葉台五丁目","35.403969","137.017819","0","3"
"21","岐阜県","21214","可児市","212140057006","若葉台六丁目","35.404960","137.018469","0","3"
"21","岐阜県","21214","可児市","212140057007","若葉台七丁目","35.406786","137.017892","0","3"
"21","岐阜県","21214","可児市","212140057008","若葉台八丁目","35.406046","137.020294","0","3"
"21","岐阜県","21214","可児市","212140057009","若葉台九丁目","35.403281","137.020353","0","3"
"21","岐阜県","21214","可児市","212140057004","若葉台四丁目","35.401027","137.018151","0","3"
