"PrefCode","PrefName","MuniCode","MuniName","DistCode","DistName","lat","lon","SrcCode","CatCode"
"21","岐阜県","21302","羽島郡岐南町","213020001001","石原瀬一丁目","35.378917","136.765645","0","3"
"21","岐阜県","21302","羽島郡岐南町","213020001002","石原瀬二丁目","35.377394","136.765730","0","3"
"21","岐阜県","21302","羽島郡岐南町","213020002001","上印食一丁目","35.398165","136.789000","0","3"
"21","岐阜県","21302","羽島郡岐南町","213020002002","上印食二丁目","35.398634","136.786194","0","3"
"21","岐阜県","21302","羽島郡岐南町","213020002003","上印食三丁目","35.397033","136.786795","0","3"
"21","岐阜県","21302","羽島郡岐南町","213020002004","上印食四丁目","35.395409","136.787406","0","3"
"21","岐阜県","21302","羽島郡岐南町","213020002005","上印食五丁目","35.393703","136.787589","0","3"
"21","岐阜県","21302","羽島郡岐南町","213020002006","上印食六丁目","35.391940","136.788835","0","3"
"21","岐阜県","21302","羽島郡岐南町","213020002007","上印食七丁目","35.392185","136.786347","0","3"
"21","岐阜県","21302","羽島郡岐南町","213020002008","上印食八丁目","35.389572","136.788869","0","3"
"21","岐阜県","21302","羽島郡岐南町","213020002009","上印食九丁目","35.389589","136.786303","0","3"
"21","岐阜県","21302","羽島郡岐南町","213020003001","下印食一丁目","35.393548","136.770955","0","3"
"21","岐阜県","21302","羽島郡岐南町","213020003002","下印食二丁目","35.390905","136.770495","0","3"
"21","岐阜県","21302","羽島郡岐南町","213020003003","下印食三丁目","35.389052","136.770501","0","3"
"21","岐阜県","21302","羽島郡岐南町","213020003004","下印食四丁目","35.391720","136.768741","0","3"
"21","岐阜県","21302","羽島郡岐南町","213020003005","下印食五丁目","35.389089","136.768273","0","3"
"21","岐阜県","21302","羽島郡岐南町","213020004000","徳田","35.379311","136.763758","0","1"
"21","岐阜県","21302","羽島郡岐南町","213020005001","徳田一丁目","35.387703","136.775718","0","3"
"21","岐阜県","21302","羽島郡岐南町","213020005002","徳田二丁目","35.386447","136.774076","0","3"
"21","岐阜県","21302","羽島郡岐南町","213020005003","徳田三丁目","35.383103","136.776631","0","3"
"21","岐阜県","21302","羽島郡岐南町","213020005004","徳田四丁目","35.383394","136.772161","0","3"
"21","岐阜県","21302","羽島郡岐南町","213020005005","徳田五丁目","35.380678","136.776053","0","3"
"21","岐阜県","21302","羽島郡岐南町","213020005006","徳田六丁目","35.381097","136.771015","0","3"
"21","岐阜県","21302","羽島郡岐南町","213020005007","徳田七丁目","35.378794","136.771681","0","3"
"21","岐阜県","21302","羽島郡岐南町","213020005008","徳田八丁目","35.376275","136.770784","0","3"
"21","岐阜県","21302","羽島郡岐南町","213020005009","徳田九丁目","35.377792","136.766959","0","3"
"21","岐阜県","21302","羽島郡岐南町","213020006001","徳田西一丁目","35.386862","136.769726","0","3"
"21","岐阜県","21302","羽島郡岐南町","213020006002","徳田西二丁目","35.384324","136.770036","0","3"
"21","岐阜県","21302","羽島郡岐南町","213020006003","徳田西三丁目","35.384381","136.766996","0","3"
"21","岐阜県","21302","羽島郡岐南町","213020006004","徳田西四丁目","35.381159","136.767343","0","3"
"21","岐阜県","21302","羽島郡岐南町","213020007001","野中一丁目","35.387122","136.801278","0","3"
"21","岐阜県","21302","羽島郡岐南町","213020007002","野中二丁目","35.386760","136.797777","0","3"
"21","岐阜県","21302","羽島郡岐南町","213020007003","野中三丁目","35.385080","136.801328","0","3"
"21","岐阜県","21302","羽島郡岐南町","213020007004","野中四丁目","35.384480","136.797808","0","3"
"21","岐阜県","21302","羽島郡岐南町","213020007005","野中五丁目","35.382870","136.802083","0","3"
"21","岐阜県","21302","羽島郡岐南町","213020007006","野中六丁目","35.382509","136.798128","0","3"
"21","岐阜県","21302","羽島郡岐南町","213020007007","野中七丁目","35.380900","136.801865","0","3"
"21","岐阜県","21302","羽島郡岐南町","213020007008","野中八丁目","35.380632","136.798785","0","3"
"21","岐阜県","21302","羽島郡岐南町","213020008001","伏屋一丁目","35.386950","136.791077","0","3"
"21","岐阜県","21302","羽島郡岐南町","213020008002","伏屋二丁目","35.386942","136.787181","0","3"
"21","岐阜県","21302","羽島郡岐南町","213020008003","伏屋三丁目","35.383478","136.794667","0","3"
"21","岐阜県","21302","羽島郡岐南町","213020008004","伏屋四丁目","35.383504","136.791242","0","3"
"21","岐阜県","21302","羽島郡岐南町","213020008005","伏屋五丁目","35.383539","136.788448","0","3"
"21","岐阜県","21302","羽島郡岐南町","213020008006","伏屋六丁目","35.383668","136.785895","0","3"
"21","岐阜県","21302","羽島郡岐南町","213020008007","伏屋七丁目","35.379070","136.793796","0","3"
"21","岐阜県","21302","羽島郡岐南町","213020008008","伏屋八丁目","35.379490","136.790855","0","3"
"21","岐阜県","21302","羽島郡岐南町","213020008009","伏屋九丁目","35.379582","136.788689","0","3"
"21","岐阜県","21302","羽島郡岐南町","213020009001","平島一丁目","35.382852","136.817921","0","3"
"21","岐阜県","21302","羽島郡岐南町","213020009002","平島二丁目","35.385923","136.814837","0","3"
"21","岐阜県","21302","羽島郡岐南町","213020009003","平島三丁目","35.382658","136.814160","0","3"
"21","岐阜県","21302","羽島郡岐南町","213020009004","平島四丁目","35.385202","136.811411","0","3"
"21","岐阜県","21302","羽島郡岐南町","213020009005","平島五丁目","35.386904","136.808135","0","3"
"21","岐阜県","21302","羽島郡岐南町","213020009006","平島六丁目","35.385338","136.808626","0","3"
"21","岐阜県","21302","羽島郡岐南町","213020009007","平島七丁目","35.383416","136.808838","0","3"
"21","岐阜県","21302","羽島郡岐南町","213020009008","平島八丁目","35.385503","136.805261","0","3"
"21","岐阜県","21302","羽島郡岐南町","213020009009","平島九丁目","35.383196","136.805914","0","3"
"21","岐阜県","21302","羽島郡岐南町","213020010001","平成一丁目","35.386965","136.783376","0","3"
"21","岐阜県","21302","羽島郡岐南町","213020010002","平成二丁目","35.386948","136.781034","0","3"
"21","岐阜県","21302","羽島郡岐南町","213020010003","平成三丁目","35.386864","136.778919","0","3"
"21","岐阜県","21302","羽島郡岐南町","213020010004","平成四丁目","35.384345","136.783322","0","3"
"21","岐阜県","21302","羽島郡岐南町","213020010005","平成五丁目","35.384317","136.780442","0","3"
"21","岐阜県","21302","羽島郡岐南町","213020010006","平成六丁目","35.381416","136.783713","0","3"
"21","岐阜県","21302","羽島郡岐南町","213020010007","平成七丁目","35.382119","136.780941","0","3"
"21","岐阜県","21302","羽島郡岐南町","213020011001","三宅一丁目","35.396113","136.791365","0","3"
"21","岐阜県","21302","羽島郡岐南町","213020011002","三宅二丁目","35.393952","136.792534","0","3"
"21","岐阜県","21302","羽島郡岐南町","213020011003","三宅三丁目","35.392673","136.796484","0","3"
"21","岐阜県","21302","羽島郡岐南町","213020011004","三宅四丁目","35.390915","136.798533","0","3"
"21","岐阜県","21302","羽島郡岐南町","213020011005","三宅五丁目","35.391714","136.792643","0","3"
"21","岐阜県","21302","羽島郡岐南町","213020011006","三宅六丁目","35.389451","136.796819","0","3"
"21","岐阜県","21302","羽島郡岐南町","213020011007","三宅七丁目","35.389283","136.792625","0","3"
"21","岐阜県","21302","羽島郡岐南町","213020011008","三宅八丁目","35.389188","136.800459","0","3"
"21","岐阜県","21302","羽島郡岐南町","213020011009","三宅九丁目","35.387200","136.794511","0","3"
"21","岐阜県","21302","羽島郡岐南町","213020012001","みやまち一丁目","35.394974","136.772852","0","3"
"21","岐阜県","21302","羽島郡岐南町","213020012002","みやまち二丁目","35.393178","136.773392","0","3"
"21","岐阜県","21302","羽島郡岐南町","213020012003","みやまち三丁目","35.391800","136.773700","0","3"
"21","岐阜県","21302","羽島郡岐南町","213020012004","みやまち四丁目","35.389886","136.774146","0","3"
"21","岐阜県","21302","羽島郡岐南町","213020013001","薬師寺一丁目","35.379163","136.777113","0","3"
"21","岐阜県","21302","羽島郡岐南町","213020013002","薬師寺二丁目","35.378938","136.775115","0","3"
"21","岐阜県","21302","羽島郡岐南町","213020013003","薬師寺三丁目","35.377115","136.775763","0","3"
"21","岐阜県","21302","羽島郡岐南町","213020013004","薬師寺四丁目","35.375475","136.771732","0","3"
"21","岐阜県","21302","羽島郡岐南町","213020013005","薬師寺五丁目","35.375346","136.774140","0","3"
"21","岐阜県","21302","羽島郡岐南町","213020013006","薬師寺六丁目","35.374515","136.776294","0","3"
"21","岐阜県","21302","羽島郡岐南町","213020013007","薬師寺七丁目","35.374245","136.774363","0","3"
"21","岐阜県","21302","羽島郡岐南町","213020013008","薬師寺八丁目","35.374037","136.771869","0","3"
"21","岐阜県","21302","羽島郡岐南町","213020013009","薬師寺九丁目","35.371198","136.775993","0","3"
"21","岐阜県","21302","羽島郡岐南町","213020014001","八剣一丁目","35.392391","136.783526","0","3"
"21","岐阜県","21302","羽島郡岐南町","213020014002","八剣二丁目","35.393366","136.780530","0","3"
"21","岐阜県","21302","羽島郡岐南町","213020014003","八剣三丁目","35.393583","136.778240","0","3"
"21","岐阜県","21302","羽島郡岐南町","213020014004","八剣四丁目","35.394218","136.776140","0","3"
"21","岐阜県","21302","羽島郡岐南町","213020014005","八剣五丁目","35.391655","136.780417","0","3"
"21","岐阜県","21302","羽島郡岐南町","213020014006","八剣六丁目","35.391911","136.777259","0","3"
"21","岐阜県","21302","羽島郡岐南町","213020014007","八剣七丁目","35.389506","136.783472","0","3"
"21","岐阜県","21302","羽島郡岐南町","213020014008","八剣八丁目","35.389603","136.780151","0","3"
"21","岐阜県","21302","羽島郡岐南町","213020014009","八剣九丁目","35.389702","136.777466","0","3"
"21","岐阜県","21302","羽島郡岐南町","213020015001","八剣北一丁目","35.398181","136.783815","0","3"
"21","岐阜県","21302","羽島郡岐南町","213020015002","八剣北二丁目","35.397760","136.781881","0","3"
"21","岐阜県","21302","羽島郡岐南町","213020015003","八剣北三丁目","35.397063","136.779915","0","3"
"21","岐阜県","21302","羽島郡岐南町","213020015004","八剣北四丁目","35.394968","136.784162","0","3"
"21","岐阜県","21302","羽島郡岐南町","213020015005","八剣北五丁目","35.395097","136.782399","0","3"
"21","岐阜県","21302","羽島郡岐南町","213020015006","八剣北六丁目","35.395083","136.780633","0","3"
"21","岐阜県","21302","羽島郡岐南町","213020015007","八剣北七丁目","35.395527","136.777732","0","3"
"21","岐阜県","21302","羽島郡岐南町","213020016001","若宮地一丁目","35.380426","136.796531","0","3"
"21","岐阜県","21302","羽島郡岐南町","213020016002","若宮地二丁目","35.378873","136.797933","0","3"
"21","岐阜県","21302","羽島郡岐南町","213020016003","若宮地三丁目","35.376914","136.798061","0","3"
