"PrefCode","PrefName","MuniCode","MuniName","DistCode","DistName","lat","lon","SrcCode","CatCode"
"22","静岡県","22214","藤枝市","222140001000","青木","34.856244","138.248834","0","1"
"22","静岡県","22214","藤枝市","222140002001","青木一丁目","34.854607","138.249883","0","3"
"22","静岡県","22214","藤枝市","222140002002","青木二丁目","34.857989","138.251323","0","3"
"22","静岡県","22214","藤枝市","222140002003","青木三丁目","34.854661","138.252800","0","3"
"22","静岡県","22214","藤枝市","222140003001","青葉町一丁目","34.845078","138.241125","0","3"
"22","静岡県","22214","藤枝市","222140003002","青葉町二丁目","34.844003","138.244183","0","3"
"22","静岡県","22214","藤枝市","222140003003","青葉町三丁目","34.842240","138.239599","0","3"
"22","静岡県","22214","藤枝市","222140003004","青葉町四丁目","34.841119","138.244198","0","3"
"22","静岡県","22214","藤枝市","222140003005","青葉町五丁目","34.839143","138.243214","0","3"
"22","静岡県","22214","藤枝市","222140004000","旭が丘","34.875345","138.244817","0","1"
"22","静岡県","22214","藤枝市","222140005000","五十海","34.882071","138.264868","0","1"
"22","静岡県","22214","藤枝市","222140006001","五十海一丁目","34.878530","138.259701","0","3"
"22","静岡県","22214","藤枝市","222140006002","五十海二丁目","34.880049","138.258614","0","3"
"22","静岡県","22214","藤枝市","222140006003","五十海三丁目","34.882471","138.261269","0","3"
"22","静岡県","22214","藤枝市","222140006004","五十海四丁目","34.880937","138.262582","0","3"
"22","静岡県","22214","藤枝市","222140007000","泉町","34.831847","138.261254","0","1"
"22","静岡県","22214","藤枝市","222140008000","稲川","34.862538","138.263024","0","1"
"22","静岡県","22214","藤枝市","222140009001","稲川一丁目","34.865377","138.254588","0","3"
"22","静岡県","22214","藤枝市","222140010000","潮","34.898556","138.272043","0","1"
"22","静岡県","22214","藤枝市","222140011000","内瀬戸","34.853968","138.223557","0","1"
"22","静岡県","22214","藤枝市","222140012001","駅前一丁目","34.850503","138.253170","0","3"
"22","静岡県","22214","藤枝市","222140012002","駅前二丁目","34.851887","138.252091","0","3"
"22","静岡県","22214","藤枝市","222140012003","駅前三丁目","34.849702","138.248172","0","3"
"22","静岡県","22214","藤枝市","222140013001","大洲一丁目","34.833068","138.246695","0","3"
"22","静岡県","22214","藤枝市","222140013002","大洲二丁目","34.830541","138.248711","0","3"
"22","静岡県","22214","藤枝市","222140013003","大洲三丁目","34.830802","138.253701","0","3"
"22","静岡県","22214","藤枝市","222140013004","大洲四丁目","34.828952","138.259171","0","3"
"22","静岡県","22214","藤枝市","222140013005","大洲五丁目","34.825757","138.254786","0","3"
"22","静岡県","22214","藤枝市","222140014001","大手一丁目","34.873603","138.265979","0","3"
"22","静岡県","22214","藤枝市","222140014002","大手二丁目","34.875558","138.268177","0","3"
"22","静岡県","22214","藤枝市","222140015001","岡出山一丁目","34.867498","138.256024","0","3"
"22","静岡県","22214","藤枝市","222140015002","岡出山二丁目","34.868072","138.258973","0","3"
"22","静岡県","22214","藤枝市","222140015003","岡出山三丁目","34.869452","138.261127","0","3"
"22","静岡県","22214","藤枝市","222140016000","岡部町青羽根","34.977976","138.228825","0","1"
"22","静岡県","22214","藤枝市","222140017000","岡部町入野","34.916866","138.258889","0","1"
"22","静岡県","22214","藤枝市","222140018000","岡部町内谷","34.909189","138.288552","0","1"
"22","静岡県","22214","藤枝市","222140019000","岡部町岡部","34.920766","138.297388","0","1"
"22","静岡県","22214","藤枝市","222140020000","岡部町桂島","34.934944","138.272257","0","1"
"22","静岡県","22214","藤枝市","222140021000","岡部町子持坂","34.912418","138.271530","0","1"
"22","静岡県","22214","藤枝市","222140022000","岡部町玉取","34.989553","138.243260","0","1"
"22","静岡県","22214","藤枝市","222140023000","岡部町殿","34.950769","138.259576","0","1"
"22","静岡県","22214","藤枝市","222140024000","岡部町新舟","34.956446","138.240162","0","1"
"22","静岡県","22214","藤枝市","222140025000","岡部町野田沢","34.961207","138.273790","0","1"
"22","静岡県","22214","藤枝市","222140026000","岡部町羽佐間","34.945728","138.268887","0","1"
"22","静岡県","22214","藤枝市","222140027000","岡部町宮島","34.969805","138.255509","0","1"
"22","静岡県","22214","藤枝市","222140028000","岡部町三輪","34.906347","138.303499","0","1"
"22","静岡県","22214","藤枝市","222140029000","岡部町村良","34.919037","138.266423","0","1"
"22","静岡県","22214","藤枝市","222140030001","音羽町一丁目","34.870410","138.239382","0","3"
"22","静岡県","22214","藤枝市","222140030002","音羽町二丁目","34.872599","138.237857","0","3"
"22","静岡県","22214","藤枝市","222140030003","音羽町三丁目","34.874654","138.237499","0","3"
"22","静岡県","22214","藤枝市","222140030004","音羽町四丁目","34.875231","138.241630","0","3"
"22","静岡県","22214","藤枝市","222140030005","音羽町五丁目","34.875483","138.238591","0","3"
"22","静岡県","22214","藤枝市","222140030006","音羽町六丁目","34.878471","138.236284","0","3"
"22","静岡県","22214","藤枝市","222140031000","鬼島","34.886755","138.280004","0","1"
"22","静岡県","22214","藤枝市","222140032000","上青島","34.843328","138.224027","0","1"
"22","静岡県","22214","藤枝市","222140033000","上当間","34.884023","138.287363","0","1"
"22","静岡県","22214","藤枝市","222140034000","上藪田","34.892258","138.254265","0","1"
"22","静岡県","22214","藤枝市","222140035000","仮宿","34.900534","138.276889","0","1"
"22","静岡県","22214","藤枝市","222140036000","鬼岩寺","34.873717","138.248993","0","1"
"22","静岡県","22214","藤枝市","222140037000","北方","34.929649","138.242475","0","1"
"22","静岡県","22214","藤枝市","222140038000","久兵衛市右衛門請新田","34.840350","138.221819","0","1"
"22","静岡県","22214","藤枝市","222140039001","清里一丁目","34.894318","138.262392","0","3"
"22","静岡県","22214","藤枝市","222140039002","清里二丁目","34.898377","138.261014","0","3"
"22","静岡県","22214","藤枝市","222140040000","源助","34.825228","138.225947","0","1"
"22","静岡県","22214","藤枝市","222140041001","小石川町一丁目","34.852396","138.257355","0","3"
"22","静岡県","22214","藤枝市","222140041002","小石川町二丁目","34.855383","138.256454","0","3"
"22","静岡県","22214","藤枝市","222140041003","小石川町三丁目","34.856110","138.260573","0","3"
"22","静岡県","22214","藤枝市","222140041004","小石川町四丁目","34.854261","138.263784","0","3"
"22","静岡県","22214","藤枝市","222140042000","光洋台","34.847414","138.223260","0","1"
"22","静岡県","22214","藤枝市","222140043000","郡","34.875297","138.272494","0","1"
"22","静岡県","22214","藤枝市","222140044001","郡一丁目","34.871183","138.263894","0","3"
"22","静岡県","22214","藤枝市","222140045000","五平","34.828591","138.242476","0","1"
"22","静岡県","22214","藤枝市","222140046000","志太","34.865226","138.228085","0","1"
"22","静岡県","22214","藤枝市","222140047001","志太一丁目","34.860876","138.249857","0","3"
"22","静岡県","22214","藤枝市","222140047002","志太二丁目","34.862149","138.246912","0","3"
"22","静岡県","22214","藤枝市","222140047003","志太三丁目","34.865381","138.247500","0","3"
"22","静岡県","22214","藤枝市","222140047004","志太四丁目","34.863253","138.251744","0","3"
"22","静岡県","22214","藤枝市","222140047005","志太五丁目","34.860912","138.254253","0","3"
"22","静岡県","22214","藤枝市","222140048000","下青島","34.846842","138.240760","0","1"
"22","静岡県","22214","藤枝市","222140049000","下当間","34.889797","138.289845","0","1"
"22","静岡県","22214","藤枝市","222140050000","下之郷","34.901095","138.239021","0","1"
"22","静岡県","22214","藤枝市","222140051000","下藪田","34.890719","138.266901","0","1"
"22","静岡県","22214","藤枝市","222140052001","城南一丁目","34.865800","138.268198","0","3"
"22","静岡県","22214","藤枝市","222140052002","城南二丁目","34.866532","138.272440","0","3"
"22","静岡県","22214","藤枝市","222140052003","城南三丁目","34.867431","138.275717","0","3"
"22","静岡県","22214","藤枝市","222140053000","新南新屋","34.856707","138.245333","0","1"
"22","静岡県","22214","藤枝市","222140054001","末広一丁目","34.840824","138.236789","0","3"
"22","静岡県","22214","藤枝市","222140054002","末広二丁目","34.842220","138.234619","0","3"
"22","静岡県","22214","藤枝市","222140054003","末広三丁目","34.842208","138.229615","0","3"
"22","静岡県","22214","藤枝市","222140054004","末広四丁目","34.840661","138.227016","0","3"
"22","静岡県","22214","藤枝市","222140055000","助宗","34.898244","138.216601","0","1"
"22","静岡県","22214","藤枝市","222140056001","駿河台一丁目","34.864342","138.235796","0","3"
"22","静岡県","22214","藤枝市","222140056002","駿河台二丁目","34.862402","138.235200","0","3"
"22","静岡県","22214","藤枝市","222140056003","駿河台三丁目","34.863079","138.230891","0","3"
"22","静岡県","22214","藤枝市","222140056004","駿河台四丁目","34.861419","138.229077","0","3"
"22","静岡県","22214","藤枝市","222140056005","駿河台五丁目","34.857553","138.228753","0","3"
"22","静岡県","22214","藤枝市","222140057001","青南町一丁目","34.837366","138.242307","0","3"
"22","静岡県","22214","藤枝市","222140057002","青南町二丁目","34.834112","138.242145","0","3"
"22","静岡県","22214","藤枝市","222140057003","青南町三丁目","34.831401","138.232520","0","3"
"22","静岡県","22214","藤枝市","222140057004","青南町四丁目","34.835398","138.235290","0","3"
"22","静岡県","22214","藤枝市","222140057005","青南町五丁目","34.839164","138.236720","0","3"
"22","静岡県","22214","藤枝市","222140058000","瀬古","34.870403","138.234842","0","1"
"22","静岡県","22214","藤枝市","222140059001","瀬古一丁目","34.866548","138.241927","0","3"
"22","静岡県","22214","藤枝市","222140059002","瀬古二丁目","34.864615","138.241590","0","3"
"22","静岡県","22214","藤枝市","222140059003","瀬古三丁目","34.867984","138.237040","0","3"
"22","静岡県","22214","藤枝市","222140060000","瀬戸新屋","34.849604","138.241599","0","1"
"22","静岡県","22214","藤枝市","222140061000","瀬戸ノ谷","34.970712","138.193066","0","1"
"22","静岡県","22214","藤枝市","222140062000","善左衛門","34.821321","138.235801","0","1"
"22","静岡県","22214","藤枝市","222140063001","善左衛門一丁目","34.824608","138.240701","0","3"
"22","静岡県","22214","藤枝市","222140063002","善左衛門二丁目","34.824219","138.246266","0","3"
"22","静岡県","22214","藤枝市","222140063003","善左衛門三丁目","34.822148","138.251153","0","3"
"22","静岡県","22214","藤枝市","222140064000","大新島","34.831118","138.272978","0","1"
"22","静岡県","22214","藤枝市","222140065001","大西町一丁目","34.830878","138.240228","0","3"
"22","静岡県","22214","藤枝市","222140065002","大西町二丁目","34.828031","138.238678","0","3"
"22","静岡県","22214","藤枝市","222140065003","大西町三丁目","34.827669","138.231070","0","3"
"22","静岡県","22214","藤枝市","222140066000","大東町","34.825704","138.269356","0","1"
"22","静岡県","22214","藤枝市","222140067001","高岡一丁目","34.841474","138.253612","0","3"
"22","静岡県","22214","藤枝市","222140067002","高岡二丁目","34.839222","138.253852","0","3"
"22","静岡県","22214","藤枝市","222140067003","高岡三丁目","34.840216","138.249716","0","3"
"22","静岡県","22214","藤枝市","222140067004","高岡四丁目","34.836471","138.251496","0","3"
"22","静岡県","22214","藤枝市","222140068000","高洲","34.837446","138.260311","0","1"
"22","静岡県","22214","藤枝市","222140069001","高洲一丁目","34.841047","138.265479","0","3"
"22","静岡県","22214","藤枝市","222140070000","高田","34.907888","138.262410","0","1"
"22","静岡県","22214","藤枝市","222140071000","高柳","34.847707","138.275127","0","1"
"22","静岡県","22214","藤枝市","222140072001","高柳一丁目","34.852154","138.265768","0","3"
"22","静岡県","22214","藤枝市","222140072002","高柳二丁目","34.849188","138.265711","0","3"
"22","静岡県","22214","藤枝市","222140072003","高柳三丁目","34.845191","138.264318","0","3"
"22","静岡県","22214","藤枝市","222140072004","高柳四丁目","34.843683","138.267153","0","3"
"22","静岡県","22214","藤枝市","222140073000","滝沢","34.916216","138.179892","0","1"
"22","静岡県","22214","藤枝市","222140074001","立花一丁目","34.869608","138.266229","0","3"
"22","静岡県","22214","藤枝市","222140074002","立花二丁目","34.872470","138.269278","0","3"
"22","静岡県","22214","藤枝市","222140074003","立花三丁目","34.870052","138.271233","0","3"
"22","静岡県","22214","藤枝市","222140075001","田中一丁目","34.871210","138.274013","0","3"
"22","静岡県","22214","藤枝市","222140075002","田中二丁目","34.872585","138.276357","0","3"
"22","静岡県","22214","藤枝市","222140075003","田中三丁目","34.870994","138.278928","0","3"
"22","静岡県","22214","藤枝市","222140076001","田沼一丁目","34.848303","138.255843","0","3"
"22","静岡県","22214","藤枝市","222140076002","田沼二丁目","34.849609","138.259503","0","3"
"22","静岡県","22214","藤枝市","222140076003","田沼三丁目","34.845764","138.257797","0","3"
"22","静岡県","22214","藤枝市","222140076004","田沼四丁目","34.842650","138.258810","0","3"
"22","静岡県","22214","藤枝市","222140076005","田沼五丁目","34.840521","138.258242","0","3"
"22","静岡県","22214","藤枝市","222140077001","茶町一丁目","34.871115","138.248360","0","3"
"22","静岡県","22214","藤枝市","222140077002","茶町二丁目","34.869081","138.245702","0","3"
"22","静岡県","22214","藤枝市","222140077003","茶町三丁目","34.871695","138.243898","0","3"
"22","静岡県","22214","藤枝市","222140077004","茶町四丁目","34.873177","138.244146","0","3"
"22","静岡県","22214","藤枝市","222140078000","忠兵衛","34.836260","138.247214","0","1"
"22","静岡県","22214","藤枝市","222140079000","築地","34.859794","138.274639","0","1"
"22","静岡県","22214","藤枝市","222140080001","築地一丁目","34.858418","138.267778","0","3"
"22","静岡県","22214","藤枝市","222140081000","築地上","34.855219","138.272281","0","1"
"22","静岡県","22214","藤枝市","222140082000","寺島","34.889195","138.212061","0","1"
"22","静岡県","22214","藤枝市","222140083001","天王町一丁目","34.877236","138.261230","0","3"
"22","静岡県","22214","藤枝市","222140083002","天王町二丁目","34.877532","138.263741","0","3"
"22","静岡県","22214","藤枝市","222140083003","天王町三丁目","34.879012","138.266882","0","3"
"22","静岡県","22214","藤枝市","222140084000","時ケ谷","34.884880","138.251888","0","1"
"22","静岡県","22214","藤枝市","222140085000","中ノ合","34.905232","138.247835","0","1"
"22","静岡県","22214","藤枝市","222140086000","中藪田","34.898597","138.265220","0","1"
"22","静岡県","22214","藤枝市","222140087000","西方","34.934266","138.223537","0","1"
"22","静岡県","22214","藤枝市","222140088000","若王子","34.875380","138.254295","0","1"
"22","静岡県","22214","藤枝市","222140089001","若王子一丁目","34.876226","138.258848","0","3"
"22","静岡県","22214","藤枝市","222140089002","若王子二丁目","34.877427","138.254968","0","3"
"22","静岡県","22214","藤枝市","222140089003","若王子三丁目","34.878797","138.255636","0","3"
"22","静岡県","22214","藤枝市","222140090000","花倉","34.901590","138.230252","0","1"
"22","静岡県","22214","藤枝市","222140091000","原","34.881265","138.237809","0","1"
"22","静岡県","22214","藤枝市","222140092000","東町","34.858763","138.260066","0","1"
"22","静岡県","22214","藤枝市","222140093000","兵太夫","34.841198","138.274975","0","1"
"22","静岡県","22214","藤枝市","222140094000","平島","34.877415","138.285134","0","1"
"22","静岡県","22214","藤枝市","222140095001","藤枝一丁目","34.867212","138.252026","0","3"
"22","静岡県","22214","藤枝市","222140095002","藤枝二丁目","34.867704","138.250580","0","3"
"22","静岡県","22214","藤枝市","222140095003","藤枝三丁目","34.871231","138.251868","0","3"
"22","静岡県","22214","藤枝市","222140095004","藤枝四丁目","34.869212","138.254096","0","3"
"22","静岡県","22214","藤枝市","222140095005","藤枝五丁目","34.871301","138.255851","0","3"
"22","静岡県","22214","藤枝市","222140096001","藤岡一丁目","34.881849","138.266859","0","3"
"22","静岡県","22214","藤枝市","222140096002","藤岡二丁目","34.882176","138.269452","0","3"
"22","静岡県","22214","藤枝市","222140096003","藤岡三丁目","34.885943","138.267885","0","3"
"22","静岡県","22214","藤枝市","222140096004","藤岡四丁目","34.887937","138.268780","0","3"
"22","静岡県","22214","藤枝市","222140096005","藤岡五丁目","34.883773","138.264872","0","3"
"22","静岡県","22214","藤枝市","222140097000","堀之内","34.878692","138.223421","0","1"
"22","静岡県","22214","藤枝市","222140098001","堀之内一丁目","34.872584","138.231949","0","3"
"22","静岡県","22214","藤枝市","222140099000","本郷","34.920507","138.206099","0","1"
"22","静岡県","22214","藤枝市","222140100001","本町一丁目","34.872184","138.259500","0","3"
"22","静岡県","22214","藤枝市","222140100002","本町二丁目","34.873447","138.261731","0","3"
"22","静岡県","22214","藤枝市","222140100003","本町三丁目","34.875480","138.264829","0","3"
"22","静岡県","22214","藤枝市","222140100004","本町四丁目","34.877541","138.269079","0","3"
"22","静岡県","22214","藤枝市","222140101000","前島","34.837065","138.247733","0","1"
"22","静岡県","22214","藤枝市","222140102001","前島一丁目","34.847726","138.250454","0","3"
"22","静岡県","22214","藤枝市","222140102002","前島二丁目","34.845412","138.251118","0","3"
"22","静岡県","22214","藤枝市","222140102003","前島三丁目","34.842065","138.248344","0","3"
"22","静岡県","22214","藤枝市","222140103000","益津","34.865627","138.259612","0","1"
"22","静岡県","22214","藤枝市","222140104000","益津下","34.864535","138.265313","0","1"
"22","静岡県","22214","藤枝市","222140105000","水上","34.854014","138.241772","0","1"
"22","静岡県","22214","藤枝市","222140106000","水守","34.878777","138.277423","0","1"
"22","静岡県","22214","藤枝市","222140107001","水守一丁目","34.881307","138.271152","0","3"
"22","静岡県","22214","藤枝市","222140107002","水守二丁目","34.879733","138.273660","0","3"
"22","静岡県","22214","藤枝市","222140107003","水守三丁目","34.881876","138.276812","0","3"
"22","静岡県","22214","藤枝市","222140108001","緑町一丁目","34.867394","138.261789","0","3"
"22","静岡県","22214","藤枝市","222140108002","緑町二丁目","34.866476","138.264064","0","3"
"22","静岡県","22214","藤枝市","222140109000","緑の丘","34.853329","138.236533","0","1"
"22","静岡県","22214","藤枝市","222140110000","南新屋","34.856762","138.247828","0","1"
"22","静岡県","22214","藤枝市","222140111000","南清里","34.891342","138.263128","0","1"
"22","静岡県","22214","藤枝市","222140112001","南駿河台一丁目","34.861251","138.242124","0","3"
"22","静岡県","22214","藤枝市","222140112002","南駿河台二丁目","34.859612","138.238772","0","3"
"22","静岡県","22214","藤枝市","222140112003","南駿河台三丁目","34.857859","138.235067","0","3"
"22","静岡県","22214","藤枝市","222140112004","南駿河台四丁目","34.860437","138.233846","0","3"
"22","静岡県","22214","藤枝市","222140112005","南駿河台五丁目","34.859021","138.230790","0","3"
"22","静岡県","22214","藤枝市","222140112006","南駿河台六丁目","34.856671","138.231889","0","3"
"22","静岡県","22214","藤枝市","222140113000","宮原","34.894126","138.198615","0","1"
"22","静岡県","22214","藤枝市","222140114000","谷稲葉","34.874706","138.210931","0","1"
"22","静岡県","22214","藤枝市","222140115000","弥左衛門","34.825711","138.259442","0","1"
"22","静岡県","22214","藤枝市","222140116000","八幡","34.887803","138.274946","0","1"
"22","静岡県","22214","藤枝市","222140117000","横内","34.897323","138.285900","0","1"
"22","静岡県","22214","藤枝市","222140118000","与左衛門","34.837121","138.270833","0","1"
