"PrefCode","PrefName","MuniCode","MuniName","DistCode","DistName","lat","lon","SrcCode","CatCode"
"23","愛知県","23102","名古屋市東区","231020001000","相生町","35.180876","136.921890","0","1"
"23","愛知県","23102","名古屋市東区","231020002001","葵一丁目","35.172034","136.921786","0","3"
"23","愛知県","23102","名古屋市東区","231020002002","葵二丁目","35.172083","136.925789","0","3"
"23","愛知県","23102","名古屋市東区","231020002003","葵三丁目","35.171623","136.929520","0","3"
"23","愛知県","23102","名古屋市東区","231020003000","赤塚町","35.183773","136.923032","0","1"
"23","愛知県","23102","名古屋市東区","231020004000","飯田町","35.179177","136.918544","0","1"
"23","愛知県","23102","名古屋市東区","231020005001","泉一丁目","35.176396","136.911307","0","3"
"23","愛知県","23102","名古屋市東区","231020005002","泉二丁目","35.176388","136.915793","0","3"
"23","愛知県","23102","名古屋市東区","231020005003","泉三丁目","35.176592","136.919002","0","3"
"23","愛知県","23102","名古屋市東区","231020006001","大曽根一丁目","35.188574","136.927772","0","3"
"23","愛知県","23102","名古屋市東区","231020006002","大曽根二丁目","35.188795","136.931387","0","3"
"23","愛知県","23102","名古屋市東区","231020007000","大松町","35.179646","136.936472","0","1"
"23","愛知県","23102","名古屋市東区","231020008000","上竪杉町","35.179695","136.910819","0","1"
"23","愛知県","23102","名古屋市東区","231020009001","車道町一丁目","35.177324","136.930073","0","3"
"23","愛知県","23102","名古屋市東区","231020009002","車道町二丁目","35.178388","136.930989","0","3"
"23","愛知県","23102","名古屋市東区","231020009003","車道町三丁目","35.179239","136.930714","0","3"
"23","愛知県","23102","名古屋市東区","231020010000","黒門町","35.177760","136.932943","0","1"
"23","愛知県","23102","名古屋市東区","231020011001","古出来一丁目","35.180732","136.939674","0","3"
"23","愛知県","23102","名古屋市東区","231020011002","古出来二丁目","35.182896","136.940735","0","3"
"23","愛知県","23102","名古屋市東区","231020011003","古出来三丁目","35.182690","136.941228","0","3"
"23","愛知県","23102","名古屋市東区","231020012004","三の丸四丁目","35.185792","136.907892","0","3"
"23","愛知県","23102","名古屋市東区","231020013001","橦木町一丁目","35.179710","136.912420","0","3"
"23","愛知県","23102","名古屋市東区","231020013002","橦木町二丁目","35.179783","136.915226","0","3"
"23","愛知県","23102","名古屋市東区","231020013003","橦木町三丁目","35.180023","136.918848","0","3"
"23","愛知県","23102","名古屋市東区","231020014001","白壁一丁目","35.181954","136.911342","0","3"
"23","愛知県","23102","名古屋市東区","231020014002","白壁二丁目","35.184347","136.910824","0","3"
"23","愛知県","23102","名古屋市東区","231020014003","白壁三丁目","35.185420","136.914819","0","3"
"23","愛知県","23102","名古屋市東区","231020014004","白壁四丁目","35.182532","136.916184","0","3"
"23","愛知県","23102","名古屋市東区","231020014005","白壁五丁目","35.182755","136.920702","0","3"
"23","愛知県","23102","名古屋市東区","231020015001","新出来一丁目","35.181972","136.930376","0","3"
"23","愛知県","23102","名古屋市東区","231020015002","新出来二丁目","35.181525","136.932569","0","3"
"23","愛知県","23102","名古屋市東区","231020016001","砂田橋一丁目","35.187515","136.956678","0","3"
"23","愛知県","23102","名古屋市東区","231020016002","砂田橋二丁目","35.190194","136.957457","0","3"
"23","愛知県","23102","名古屋市東区","231020016003","砂田橋三丁目","35.189384","136.960743","0","3"
"23","愛知県","23102","名古屋市東区","231020016004","砂田橋四丁目","35.188586","136.963599","0","3"
"23","愛知県","23102","名古屋市東区","231020016005","砂田橋五丁目","35.186518","136.961152","0","3"
"23","愛知県","23102","名古屋市東区","231020017000","代官町","35.176770","136.922757","0","1"
"23","愛知県","23102","名古屋市東区","231020018001","大幸一丁目","35.192201","136.946946","0","3"
"23","愛知県","23102","名古屋市東区","231020018002","大幸二丁目","35.191963","136.948815","0","3"
"23","愛知県","23102","名古屋市東区","231020018003","大幸三丁目","35.192034","136.954942","0","3"
"23","愛知県","23102","名古屋市東区","231020018004","大幸四丁目","35.190637","136.953836","0","3"
"23","愛知県","23102","名古屋市東区","231020019001","大幸南一丁目","35.187440","136.948577","0","3"
"23","愛知県","23102","名古屋市東区","231020019002","大幸南二丁目","35.186526","136.952806","0","3"
"23","愛知県","23102","名古屋市東区","231020020002","主税町二丁目","35.180843","136.912393","0","3"
"23","愛知県","23102","名古屋市東区","231020020003","主税町三丁目","35.181008","136.915119","0","3"
"23","愛知県","23102","名古屋市東区","231020020004","主税町四丁目","35.181218","136.919053","0","3"
"23","愛知県","23102","名古屋市東区","231020021001","筒井一丁目","35.178977","136.927962","0","3"
"23","愛知県","23102","名古屋市東区","231020021002","筒井二丁目","35.175630","136.926910","0","3"
"23","愛知県","23102","名古屋市東区","231020021003","筒井三丁目","35.174710","136.931663","0","3"
"23","愛知県","23102","名古屋市東区","231020022004","筒井町四丁目","35.177230","136.930985","0","3"
"23","愛知県","23102","名古屋市東区","231020023001","出来町一丁目","35.181311","136.934743","0","3"
"23","愛知県","23102","名古屋市東区","231020023002","出来町二丁目","35.183283","136.936568","0","3"
"23","愛知県","23102","名古屋市東区","231020023003","出来町三丁目","35.183453","136.938690","0","3"
"23","愛知県","23102","名古屋市東区","231020024001","徳川一丁目","35.181251","136.924503","0","3"
"23","愛知県","23102","名古屋市東区","231020024002","徳川二丁目","35.186076","136.927678","0","3"
"23","愛知県","23102","名古屋市東区","231020025000","徳川町","35.184522","136.932158","0","1"
"23","愛知県","23102","名古屋市東区","231020026001","豊前町一丁目","35.178169","136.936140","0","3"
"23","愛知県","23102","名古屋市東区","231020026002","豊前町二丁目","35.177028","136.935212","0","3"
"23","愛知県","23102","名古屋市東区","231020026003","豊前町三丁目","35.176007","136.934591","0","3"
"23","愛知県","23102","名古屋市東区","231020027001","西新町一丁目","35.170050","136.912773","0","3"
"23","愛知県","23102","名古屋市東区","231020028000","東大曽根町","35.188125","136.933521","0","1"
"23","愛知県","23102","名古屋市東区","231020029000","東片端町","35.178933","136.913674","0","1"
"23","愛知県","23102","名古屋市東区","231020030001","東桜一丁目","35.172267","136.911633","0","3"
"23","愛知県","23102","名古屋市東区","231020030002","東桜二丁目","35.171876","136.916736","0","3"
"23","愛知県","23102","名古屋市東区","231020031000","東新町","35.170080","136.913724","0","1"
"23","愛知県","23102","名古屋市東区","231020032000","東外堀町","35.180230","136.909824","0","1"
"23","愛知県","23102","名古屋市東区","231020033008","久屋町八丁目","35.169681","136.909651","0","3"
"23","愛知県","23102","名古屋市東区","231020034000","百人町","35.179602","136.933150","0","1"
"23","愛知県","23102","名古屋市東区","231020035005","武平町五丁目","35.169720","136.910369","0","3"
"23","愛知県","23102","名古屋市東区","231020036000","前浪町","35.185032","136.952583","0","1"
"23","愛知県","23102","名古屋市東区","231020037000","明倫町","35.183412","136.935406","0","1"
"23","愛知県","23102","名古屋市東区","231020038001","矢田一丁目","35.194536","136.938922","0","3"
"23","愛知県","23102","名古屋市東区","231020038002","矢田二丁目","35.194254","136.940982","0","3"
"23","愛知県","23102","名古屋市東区","231020038003","矢田三丁目","35.196435","136.944151","0","3"
"23","愛知県","23102","名古屋市東区","231020038004","矢田四丁目","35.194122","136.944270","0","3"
"23","愛知県","23102","名古屋市東区","231020038005","矢田五丁目","35.191913","136.943271","0","3"
"23","愛知県","23102","名古屋市東区","231020039000","矢田町","35.196773","136.946962","0","1"
"23","愛知県","23102","名古屋市東区","231020040000","矢田東","35.191274","136.945260","0","1"
"23","愛知県","23102","名古屋市東区","231020041001","矢田南一丁目","35.185111","136.940202","0","3"
"23","愛知県","23102","名古屋市東区","231020041002","矢田南二丁目","35.183828","136.943274","0","3"
"23","愛知県","23102","名古屋市東区","231020041003","矢田南三丁目","35.185471","136.943321","0","3"
"23","愛知県","23102","名古屋市東区","231020041004","矢田南四丁目","35.188566","136.944621","0","3"
"23","愛知県","23102","名古屋市東区","231020041005","矢田南五丁目","35.188883","136.939854","0","3"
"23","愛知県","23102","名古屋市東区","231020042000","山口町","35.184154","136.926691","0","1"
"23","愛知県","23102","名古屋市東区","231020043001","芳野一丁目","35.184952","136.921391","0","3"
"23","愛知県","23102","名古屋市東区","231020043002","芳野二丁目","35.187090","136.921906","0","3"
"23","愛知県","23102","名古屋市東区","231020043003","芳野三丁目","35.186425","136.925263","0","3"
