"PrefCode","PrefName","MuniCode","MuniName","DistCode","DistName","lat","lon","SrcCode","CatCode"
"23","愛知県","23113","名古屋市守山区","231130001000","青葉台","35.227782","136.994092","0","1"
"23","愛知県","23113","名古屋市守山区","231130002000","青山台","35.229325","137.015779","0","1"
"23","愛知県","23113","名古屋市守山区","231130003001","天子田一丁目","35.197505","136.998596","0","3"
"23","愛知県","23113","名古屋市守山区","231130003002","天子田二丁目","35.199044","137.003865","0","3"
"23","愛知県","23113","名古屋市守山区","231130003003","天子田三丁目","35.200031","137.008705","0","3"
"23","愛知県","23113","名古屋市守山区","231130003004","天子田四丁目","35.199365","137.012272","0","3"
"23","愛知県","23113","名古屋市守山区","231130004000","泉が丘","35.234150","137.013907","0","1"
"23","愛知県","23113","名古屋市守山区","231130005000","市場","35.196856","136.950119","0","1"
"23","愛知県","23113","名古屋市守山区","231130006000","今尻町","35.203807","137.008985","0","1"
"23","愛知県","23113","名古屋市守山区","231130007000","大字牛牧","35.218027","136.988445","0","1"
"23","愛知県","23113","名古屋市守山区","231130008000","大字小幡","35.216556","136.991346","0","1"
"23","愛知県","23113","名古屋市守山区","231130009000","大字上志段味","35.248870","137.046853","0","1"
"23","愛知県","23113","名古屋市守山区","231130010000","大字川","35.216805","136.958640","0","1"
"23","愛知県","23113","名古屋市守山区","231130011000","大字吉根","35.225169","137.002310","0","1"
"23","愛知県","23113","名古屋市守山区","231130012000","大字下志段味","35.241391","137.016946","0","1"
"23","愛知県","23113","名古屋市守山区","231130013000","大字瀬古","35.215008","136.934879","0","1"
"23","愛知県","23113","名古屋市守山区","231130014000","大字中志段味","35.244630","137.030957","0","1"
"23","愛知県","23113","名古屋市守山区","231130015000","太田井","35.197565","136.988720","0","1"
"23","愛知県","23113","名古屋市守山区","231130016000","大谷町","35.200638","136.984021","0","1"
"23","愛知県","23113","名古屋市守山区","231130017000","大牧町","35.203065","136.959480","0","1"
"23","愛知県","23113","名古屋市守山区","231130018001","大森一丁目","35.203016","136.994635","0","3"
"23","愛知県","23113","名古屋市守山区","231130018002","大森二丁目","35.208688","136.993212","0","3"
"23","愛知県","23113","名古屋市守山区","231130018003","大森三丁目","35.207324","136.999446","0","3"
"23","愛知県","23113","名古屋市守山区","231130018004","大森四丁目","35.204282","136.999412","0","3"
"23","愛知県","23113","名古屋市守山区","231130018005","大森五丁目","35.208415","137.003615","0","3"
"23","愛知県","23113","名古屋市守山区","231130019001","大森北一丁目","35.220221","137.005249","0","3"
"23","愛知県","23113","名古屋市守山区","231130019002","大森北二丁目","35.223419","137.009991","0","3"
"23","愛知県","23113","名古屋市守山区","231130020001","大森八龍一丁目","35.214178","136.999756","0","3"
"23","愛知県","23113","名古屋市守山区","231130020002","大森八龍二丁目","35.217358","136.999033","0","3"
"23","愛知県","23113","名古屋市守山区","231130021000","大屋敷","35.202690","136.965598","0","1"
"23","愛知県","23113","名古屋市守山区","231130022001","小幡一丁目","35.202931","136.977844","0","3"
"23","愛知県","23113","名古屋市守山区","231130022002","小幡二丁目","35.206522","136.978058","0","3"
"23","愛知県","23113","名古屋市守山区","231130022003","小幡三丁目","35.210057","136.979695","0","3"
"23","愛知県","23113","名古屋市守山区","231130022004","小幡四丁目","35.207621","136.982236","0","3"
"23","愛知県","23113","名古屋市守山区","231130022005","小幡五丁目","35.203706","136.982655","0","3"
"23","愛知県","23113","名古屋市守山区","231130023000","小幡太田","35.193534","136.977482","0","1"
"23","愛知県","23113","名古屋市守山区","231130024000","小幡北","35.214427","136.985785","0","1"
"23","愛知県","23113","名古屋市守山区","231130025000","小幡常燈","35.197588","136.973641","0","1"
"23","愛知県","23113","名古屋市守山区","231130026000","小幡千代田","35.192940","136.972537","0","1"
"23","愛知県","23113","名古屋市守山区","231130027001","小幡中一丁目","35.201023","136.972516","0","3"
"23","愛知県","23113","名古屋市守山区","231130027002","小幡中二丁目","35.204279","136.972558","0","3"
"23","愛知県","23113","名古屋市守山区","231130027003","小幡中三丁目","35.206917","136.972578","0","3"
"23","愛知県","23113","名古屋市守山区","231130028001","小幡南一丁目","35.198383","136.976066","0","3"
"23","愛知県","23113","名古屋市守山区","231130028002","小幡南二丁目","35.199200","136.978669","0","3"
"23","愛知県","23113","名古屋市守山区","231130028003","小幡南三丁目","35.200012","136.981257","0","3"
"23","愛知県","23113","名古屋市守山区","231130029000","小幡宮ノ腰","35.193290","136.975337","0","1"
"23","愛知県","23113","名古屋市守山区","231130030001","金屋一丁目","35.204231","136.951521","0","3"
"23","愛知県","23113","名古屋市守山区","231130030002","金屋二丁目","35.203993","136.955714","0","3"
"23","愛知県","23113","名古屋市守山区","231130031000","川上町","35.215576","136.971980","0","1"
"23","愛知県","23113","名古屋市守山区","231130032000","川北町","35.213306","136.963736","0","1"
"23","愛知県","23113","名古屋市守山区","231130033001","川西一丁目","35.210462","136.929906","0","3"
"23","愛知県","23113","名古屋市守山区","231130033002","川西二丁目","35.213147","136.930843","0","3"
"23","愛知県","23113","名古屋市守山区","231130034000","川東山","35.218936","136.978601","0","1"
"23","愛知県","23113","名古屋市守山区","231130035000","川宮町","35.212407","136.960524","0","1"
"23","愛知県","23113","名古屋市守山区","231130036000","川村町","35.212266","136.966176","0","1"
"23","愛知県","23113","名古屋市守山区","231130037001","桔梗平一丁目","35.228586","136.993230","0","3"
"23","愛知県","23113","名古屋市守山区","231130037002","桔梗平二丁目","35.233682","136.994982","0","3"
"23","愛知県","23113","名古屋市守山区","231130037003","桔梗平三丁目","35.235425","136.993284","0","3"
"23","愛知県","23113","名古屋市守山区","231130038001","喜多山一丁目","35.205291","136.990407","0","3"
"23","愛知県","23113","名古屋市守山区","231130038002","喜多山二丁目","35.206766","136.989378","0","3"
"23","愛知県","23113","名古屋市守山区","231130039000","喜多山南","35.201888","136.989542","0","1"
"23","愛知県","23113","名古屋市守山区","231130040001","吉根一丁目","35.234095","136.998244","0","3"
"23","愛知県","23113","名古屋市守山区","231130040002","吉根二丁目","35.236500","137.000502","0","3"
"23","愛知県","23113","名古屋市守山区","231130040003","吉根三丁目","35.238144","136.997756","0","3"
"23","愛知県","23113","名古屋市守山区","231130041000","吉根南","35.232337","136.999361","0","1"
"23","愛知県","23113","名古屋市守山区","231130042001","幸心一丁目","35.206500","136.945533","0","3"
"23","愛知県","23113","名古屋市守山区","231130042002","幸心二丁目","35.209805","136.947316","0","3"
"23","愛知県","23113","名古屋市守山区","231130042003","幸心三丁目","35.214326","136.949429","0","3"
"23","愛知県","23113","名古屋市守山区","231130042004","幸心四丁目","35.213091","136.952682","0","3"
"23","愛知県","23113","名古屋市守山区","231130043000","御膳洞","35.212785","137.002956","0","1"
"23","愛知県","23113","名古屋市守山区","231130044000","小六町","35.192442","136.968128","0","1"
"23","愛知県","23113","名古屋市守山区","231130045001","笹ヶ根一丁目","35.231479","137.005183","0","3"
"23","愛知県","23113","名古屋市守山区","231130045002","笹ヶ根二丁目","35.232927","137.003834","0","3"
"23","愛知県","23113","名古屋市守山区","231130045003","笹ヶ根三丁目","35.234770","137.003107","0","3"
"23","愛知県","23113","名古屋市守山区","231130046000","更屋敷","35.192711","136.959299","0","1"
"23","愛知県","23113","名古屋市守山区","231130047001","四軒家一丁目","35.194795","137.011912","0","3"
"23","愛知県","23113","名古屋市守山区","231130047002","四軒家二丁目","35.191737","137.014887","0","3"
"23","愛知県","23113","名古屋市守山区","231130048000","城南町","35.201161","136.968061","0","1"
"23","愛知県","23113","名古屋市守山区","231130049000","白沢町","35.213057","136.971314","0","1"
"23","愛知県","23113","名古屋市守山区","231130050000","城土町","35.212943","136.976027","0","1"
"23","愛知県","23113","名古屋市守山区","231130051000","新城","35.196799","136.969071","0","1"
"23","愛知県","23113","名古屋市守山区","231130052000","新守町","35.208273","136.953142","0","1"
"23","愛知県","23113","名古屋市守山区","231130053000","新守西","35.208722","136.950354","0","1"
"23","愛知県","23113","名古屋市守山区","231130054000","新守山","35.202576","136.944720","0","1"
"23","愛知県","23113","名古屋市守山区","231130055001","翠松園一丁目","35.210423","136.988086","0","3"
"23","愛知県","23113","名古屋市守山区","231130055002","翠松園二丁目","35.211483","136.991720","0","3"
"23","愛知県","23113","名古屋市守山区","231130055003","翠松園三丁目","35.214645","136.993222","0","3"
"23","愛知県","23113","名古屋市守山区","231130056001","瀬古一丁目","35.209715","136.934237","0","3"
"23","愛知県","23113","名古屋市守山区","231130056002","瀬古二丁目","35.214072","136.935650","0","3"
"23","愛知県","23113","名古屋市守山区","231130056003","瀬古三丁目","35.214225","136.942305","0","3"
"23","愛知県","23113","名古屋市守山区","231130057001","瀬古東一丁目","35.206432","136.941158","0","3"
"23","愛知県","23113","名古屋市守山区","231130057002","瀬古東二丁目","35.208361","136.942773","0","3"
"23","愛知県","23113","名古屋市守山区","231130057003","瀬古東三丁目","35.211552","136.941812","0","3"
"23","愛知県","23113","名古屋市守山区","231130058000","大永寺町","35.207626","136.958457","0","1"
"23","愛知県","23113","名古屋市守山区","231130059000","高島町","35.209839","136.970943","0","1"
"23","愛知県","23113","名古屋市守山区","231130060000","茶臼前","35.205749","136.985901","0","1"
"23","愛知県","23113","名古屋市守山区","231130061000","長栄","35.196081","136.963784","0","1"
"23","愛知県","23113","名古屋市守山区","231130062001","鼓が丘一丁目","35.228333","137.010491","0","3"
"23","愛知県","23113","名古屋市守山区","231130062002","鼓が丘二丁目","35.231430","137.011052","0","3"
"23","愛知県","23113","名古屋市守山区","231130063000","鳥神町","35.208046","136.955791","0","1"
"23","愛知県","23113","名古屋市守山区","231130064001","鳥羽見一丁目","35.198659","136.946862","0","3"
"23","愛知県","23113","名古屋市守山区","231130064002","鳥羽見二丁目","35.201569","136.949627","0","3"
"23","愛知県","23113","名古屋市守山区","231130064003","鳥羽見三丁目","35.199200","136.950997","0","3"
"23","愛知県","23113","名古屋市守山区","231130065001","苗代一丁目","35.193937","136.979866","0","3"
"23","愛知県","23113","名古屋市守山区","231130065002","苗代二丁目","35.194175","136.983198","0","3"
"23","愛知県","23113","名古屋市守山区","231130066000","中新","35.197238","136.971577","0","1"
"23","愛知県","23113","名古屋市守山区","231130067000","永森町","35.206316","136.960607","0","1"
"23","愛知県","23113","名古屋市守山区","231130068000","西川原町","35.212887","136.956230","0","1"
"23","愛知県","23113","名古屋市守山区","231130069000","西島町","35.200186","136.964740","0","1"
"23","愛知県","23113","名古屋市守山区","231130070001","西城一丁目","35.203565","136.963403","0","3"
"23","愛知県","23113","名古屋市守山区","231130070002","西城二丁目","35.205183","136.966769","0","3"
"23","愛知県","23113","名古屋市守山区","231130071000","西新","35.196327","136.966586","0","1"
"23","愛知県","23113","名古屋市守山区","231130072000","廿軒家","35.195810","136.959458","0","1"
"23","愛知県","23113","名古屋市守山区","231130073001","白山一丁目","35.194525","137.023375","0","3"
"23","愛知県","23113","名古屋市守山区","231130073002","白山二丁目","35.196140","137.027875","0","3"
"23","愛知県","23113","名古屋市守山区","231130073003","白山三丁目","35.194783","137.029217","0","3"
"23","愛知県","23113","名古屋市守山区","231130073004","白山四丁目","35.193362","137.024049","0","3"
"23","愛知県","23113","名古屋市守山区","231130074000","八反","35.192480","136.963951","0","1"
"23","愛知県","23113","名古屋市守山区","231130075001","花咲台一丁目","35.233269","137.007497","0","3"
"23","愛知県","23113","名古屋市守山区","231130075002","花咲台二丁目","35.234839","137.009823","0","3"
"23","愛知県","23113","名古屋市守山区","231130076000","原境町","35.196103","136.995063","0","1"
"23","愛知県","23113","名古屋市守山区","231130077000","東山町","35.199519","136.962847","0","1"
"23","愛知県","23113","名古屋市守山区","231130078000","菱池町","35.196122","136.985042","0","1"
"23","愛知県","23113","名古屋市守山区","231130079000","日の後","35.237982","137.012003","0","1"
"23","愛知県","23113","名古屋市守山区","231130080000","平池東","35.236644","137.006232","0","1"
"23","愛知県","23113","名古屋市守山区","231130081001","深沢一丁目","35.238584","137.005107","0","3"
"23","愛知県","23113","名古屋市守山区","231130081002","深沢二丁目","35.240772","137.008889","0","3"
"23","愛知県","23113","名古屋市守山区","231130082000","弁天が丘","35.210849","136.997152","0","1"
"23","愛知県","23113","名古屋市守山区","231130083000","本地が丘","35.198740","137.023023","0","1"
"23","愛知県","23113","名古屋市守山区","231130084000","町北","35.198748","136.953993","0","1"
"23","愛知県","23113","名古屋市守山区","231130085000","町南","35.194543","136.953578","0","1"
"23","愛知県","23113","名古屋市守山区","231130086000","松坂町","35.215000","136.978684","0","1"
"23","愛知県","23113","名古屋市守山区","231130087000","緑ケ丘","35.211186","136.983600","0","1"
"23","愛知県","23113","名古屋市守山区","231130088001","向台一丁目","35.195613","137.000019","0","3"
"23","愛知県","23113","名古屋市守山区","231130088002","向台二丁目","35.196570","137.005114","0","3"
"23","愛知県","23113","名古屋市守山区","231130088003","向台三丁目","35.197618","137.009203","0","3"
"23","愛知県","23113","名古屋市守山区","231130089000","村合町","35.206799","136.963236","0","1"
"23","愛知県","23113","名古屋市守山区","231130090000","村前町","35.207004","136.965932","0","1"
"23","愛知県","23113","名古屋市守山区","231130091001","元郷一丁目","35.200110","136.996885","0","3"
"23","愛知県","23113","名古屋市守山区","231130091002","元郷二丁目","35.201591","137.000848","0","3"
"23","愛知県","23113","名古屋市守山区","231130092001","森孝一丁目","35.193702","137.003477","0","3"
"23","愛知県","23113","名古屋市守山区","231130092002","森孝二丁目","35.194173","137.007126","0","3"
"23","愛知県","23113","名古屋市守山区","231130092003","森孝三丁目","35.194671","137.009722","0","3"
"23","愛知県","23113","名古屋市守山区","231130092004","森孝四丁目","35.191412","137.009272","0","3"
"23","愛知県","23113","名古屋市守山区","231130093001","森孝東一丁目","35.192113","137.021901","0","3"
"23","愛知県","23113","名古屋市守山区","231130093002","森孝東二丁目","35.191471","137.028536","0","3"
"23","愛知県","23113","名古屋市守山区","231130094000","守牧町","35.201534","136.953590","0","1"
"23","愛知県","23113","名古屋市守山区","231130095000","森宮町","35.209306","136.964824","0","1"
"23","愛知県","23113","名古屋市守山区","231130096001","守山一丁目","35.198380","136.955626","0","3"
"23","愛知県","23113","名古屋市守山区","231130096002","守山二丁目","35.200814","136.958691","0","3"
"23","愛知県","23113","名古屋市守山区","231130096003","守山三丁目","35.198606","136.959150","0","3"
"23","愛知県","23113","名古屋市守山区","231130097001","八剣一丁目","35.205320","137.002983","0","3"
"23","愛知県","23113","名古屋市守山区","231130097002","八剣二丁目","35.206505","137.004988","0","3"
"23","愛知県","23113","名古屋市守山区","231130098000","野萩町","35.201185","136.986798","0","1"
"23","愛知県","23113","名古屋市守山区","231130099000","藪田町","35.200526","136.992062","0","1"
"23","愛知県","23113","名古屋市守山区","231130100000","百合が丘","35.227687","137.012478","0","1"
"23","愛知県","23113","名古屋市守山区","231130101001","竜泉寺一丁目","35.223685","136.983925","0","3"
"23","愛知県","23113","名古屋市守山区","231130101002","竜泉寺二丁目","35.221482","136.987308","0","3"
"23","愛知県","23113","名古屋市守山区","231130102000","脇田町","35.202630","137.004728","0","1"
