"PrefCode","PrefName","MuniCode","MuniName","DistCode","DistName","lat","lon","SrcCode","CatCode"
"23","愛知県","23209","碧南市","232090001001","相生町一丁目","34.905079","136.988450","0","3"
"23","愛知県","23209","碧南市","232090001002","相生町二丁目","34.902998","136.988813","0","3"
"23","愛知県","23209","碧南市","232090001003","相生町三丁目","34.904262","136.989727","0","3"
"23","愛知県","23209","碧南市","232090001004","相生町四丁目","34.904061","136.991770","0","3"
"23","愛知県","23209","碧南市","232090001005","相生町五丁目","34.902166","136.991347","0","3"
"23","愛知県","23209","碧南市","232090002000","明石町","34.900558","136.981237","0","1"
"23","愛知県","23209","碧南市","232090003001","旭町一丁目","34.889839","137.017673","0","3"
"23","愛知県","23209","碧南市","232090003002","旭町二丁目","34.888549","137.016804","0","3"
"23","愛知県","23209","碧南市","232090003003","旭町三丁目","34.888477","137.019385","0","3"
"23","愛知県","23209","碧南市","232090003004","旭町四丁目","34.887617","137.018978","0","3"
"23","愛知県","23209","碧南市","232090004001","浅間町一丁目","34.897287","136.985657","0","3"
"23","愛知県","23209","碧南市","232090004002","浅間町二丁目","34.897177","136.987243","0","3"
"23","愛知県","23209","碧南市","232090004003","浅間町三丁目","34.895539","136.987228","0","3"
"23","愛知県","23209","碧南市","232090004004","浅間町四丁目","34.895592","136.985618","0","3"
"23","愛知県","23209","碧南市","232090004005","浅間町五丁目","34.894084","136.986227","0","3"
"23","愛知県","23209","碧南市","232090005001","油渕町一丁目","34.908533","137.011762","0","3"
"23","愛知県","23209","碧南市","232090005002","油渕町二丁目","34.906334","137.011798","0","3"
"23","愛知県","23209","碧南市","232090005003","油渕町三丁目","34.906610","137.008916","0","3"
"23","愛知県","23209","碧南市","232090005004","油渕町四丁目","34.905912","137.006561","0","3"
"23","愛知県","23209","碧南市","232090006001","雨池町一丁目","34.865150","136.988806","0","3"
"23","愛知県","23209","碧南市","232090006002","雨池町二丁目","34.863525","136.988384","0","3"
"23","愛知県","23209","碧南市","232090006003","雨池町三丁目","34.864162","136.987442","0","3"
"23","愛知県","23209","碧南市","232090007001","荒居町一丁目","34.914580","136.999636","0","3"
"23","愛知県","23209","碧南市","232090007002","荒居町二丁目","34.914472","137.001652","0","3"
"23","愛知県","23209","碧南市","232090007003","荒居町三丁目","34.913517","137.003346","0","3"
"23","愛知県","23209","碧南市","232090007004","荒居町四丁目","34.912623","137.002557","0","3"
"23","愛知県","23209","碧南市","232090007005","荒居町五丁目","34.912273","137.001940","0","3"
"23","愛知県","23209","碧南市","232090008001","荒子町一丁目","34.897657","137.010514","0","3"
"23","愛知県","23209","碧南市","232090008002","荒子町二丁目","34.897120","137.009466","0","3"
"23","愛知県","23209","碧南市","232090008003","荒子町三丁目","34.895134","137.010464","0","3"
"23","愛知県","23209","碧南市","232090008004","荒子町四丁目","34.895943","137.008937","0","3"
"23","愛知県","23209","碧南市","232090008005","荒子町五丁目","34.894489","137.008771","0","3"
"23","愛知県","23209","碧南市","232090008006","荒子町六丁目","34.893428","137.010185","0","3"
"23","愛知県","23209","碧南市","232090009001","井口町一丁目","34.930467","137.031418","0","3"
"23","愛知県","23209","碧南市","232090009002","井口町二丁目","34.931201","137.032795","0","3"
"23","愛知県","23209","碧南市","232090009003","井口町三丁目","34.927525","137.030931","0","3"
"23","愛知県","23209","碧南市","232090009004","井口町四丁目","34.927374","137.032605","0","3"
"23","愛知県","23209","碧南市","232090010001","池下町一丁目","34.885507","137.019373","0","3"
"23","愛知県","23209","碧南市","232090010002","池下町二丁目","34.885581","137.018275","0","3"
"23","愛知県","23209","碧南市","232090010003","池下町三丁目","34.885273","137.016645","0","3"
"23","愛知県","23209","碧南市","232090010004","池下町四丁目","34.884712","137.014767","0","3"
"23","愛知県","23209","碧南市","232090011001","石橋町一丁目","34.881675","136.986946","0","3"
"23","愛知県","23209","碧南市","232090011002","石橋町二丁目","34.880670","136.985349","0","3"
"23","愛知県","23209","碧南市","232090011003","石橋町三丁目","34.879919","136.986298","0","3"
"23","愛知県","23209","碧南市","232090011004","石橋町四丁目","34.878522","136.984802","0","3"
"23","愛知県","23209","碧南市","232090011005","石橋町五丁目","34.877953","136.986089","0","3"
"23","愛知県","23209","碧南市","232090012001","伊勢町一丁目","34.863538","136.978058","0","3"
"23","愛知県","23209","碧南市","232090012002","伊勢町二丁目","34.863329","136.979936","0","3"
"23","愛知県","23209","碧南市","232090012003","伊勢町三丁目","34.863267","136.981555","0","3"
"23","愛知県","23209","碧南市","232090012004","伊勢町四丁目","34.863699","136.982781","0","3"
"23","愛知県","23209","碧南市","232090013001","稲荷町一丁目","34.850739","136.985777","0","3"
"23","愛知県","23209","碧南市","232090013002","稲荷町二丁目","34.852604","136.981867","0","3"
"23","愛知県","23209","碧南市","232090014001","入船町一丁目","34.861424","136.978938","0","3"
"23","愛知県","23209","碧南市","232090014002","入船町二丁目","34.861945","136.981419","0","3"
"23","愛知県","23209","碧南市","232090014003","入船町三丁目","34.861556","136.983322","0","3"
"23","愛知県","23209","碧南市","232090014004","入船町四丁目","34.860383","136.981424","0","3"
"23","愛知県","23209","碧南市","232090014006","入船町六丁目","34.858966","136.978780","0","3"
"23","愛知県","23209","碧南市","232090014007","入船町七丁目","34.858366","136.977021","0","3"
"23","愛知県","23209","碧南市","232090015001","植出町一丁目","34.893231","137.002039","0","3"
"23","愛知県","23209","碧南市","232090015002","植出町二丁目","34.893038","136.999958","0","3"
"23","愛知県","23209","碧南市","232090015003","植出町三丁目","34.892015","137.000108","0","3"
"23","愛知県","23209","碧南市","232090015004","植出町四丁目","34.892967","136.997901","0","3"
"23","愛知県","23209","碧南市","232090015005","植出町五丁目","34.891454","136.997485","0","3"
"23","愛知県","23209","碧南市","232090016001","江口町一丁目","34.854997","136.975661","0","3"
"23","愛知県","23209","碧南市","232090016002","江口町二丁目","34.853056","136.971734","0","3"
"23","愛知県","23209","碧南市","232090016003","江口町三丁目","34.851927","136.968001","0","3"
"23","愛知県","23209","碧南市","232090017001","大久手町一丁目","34.932473","137.029205","0","3"
"23","愛知県","23209","碧南市","232090017002","大久手町二丁目","34.932186","137.027932","0","3"
"23","愛知県","23209","碧南市","232090017003","大久手町三丁目","34.931829","137.026602","0","3"
"23","愛知県","23209","碧南市","232090017004","大久手町四丁目","34.929628","137.029303","0","3"
"23","愛知県","23209","碧南市","232090018001","大堤町一丁目","34.883108","137.020063","0","3"
"23","愛知県","23209","碧南市","232090018002","大堤町二丁目","34.881793","137.016890","0","3"
"23","愛知県","23209","碧南市","232090018003","大堤町三丁目","34.880774","137.014535","0","3"
"23","愛知県","23209","碧南市","232090018004","大堤町四丁目","34.879881","137.012836","0","3"
"23","愛知県","23209","碧南市","232090019001","大坪町一丁目","34.925111","137.033938","0","3"
"23","愛知県","23209","碧南市","232090019002","大坪町二丁目","34.924878","137.035240","0","3"
"23","愛知県","23209","碧南市","232090019003","大坪町三丁目","34.922507","137.031750","0","3"
"23","愛知県","23209","碧南市","232090019004","大坪町四丁目","34.921746","137.033556","0","3"
"23","愛知県","23209","碧南市","232090020001","大浜上町一丁目","34.885758","136.983936","0","3"
"23","愛知県","23209","碧南市","232090020002","大浜上町二丁目","34.884578","136.985432","0","3"
"23","愛知県","23209","碧南市","232090020003","大浜上町三丁目","34.883492","136.984339","0","3"
"23","愛知県","23209","碧南市","232090020004","大浜上町四丁目","34.883300","136.986386","0","3"
"23","愛知県","23209","碧南市","232090020005","大浜上町五丁目","34.882874","136.987982","0","3"
"23","愛知県","23209","碧南市","232090021001","奥沢町一丁目","34.921488","137.026281","0","3"
"23","愛知県","23209","碧南市","232090021002","奥沢町二丁目","34.920806","137.025509","0","3"
"23","愛知県","23209","碧南市","232090021003","奥沢町三丁目","34.920175","137.024541","0","3"
"23","愛知県","23209","碧南市","232090021004","奥沢町四丁目","34.918868","137.023705","0","3"
"23","愛知県","23209","碧南市","232090021005","奥沢町五丁目","34.918595","137.021868","0","3"
"23","愛知県","23209","碧南市","232090022001","長田町一丁目","34.918248","137.024853","0","3"
"23","愛知県","23209","碧南市","232090022002","長田町二丁目","34.916396","137.022708","0","3"
"23","愛知県","23209","碧南市","232090022003","長田町三丁目","34.917010","137.024073","0","3"
"23","愛知県","23209","碧南市","232090022004","長田町四丁目","34.915208","137.023123","0","3"
"23","愛知県","23209","碧南市","232090022005","長田町五丁目","34.916879","137.025080","0","3"
"23","愛知県","23209","碧南市","232090022006","長田町六丁目","34.916075","137.025792","0","3"
"23","愛知県","23209","碧南市","232090022007","長田町七丁目","34.914361","137.023520","0","3"
"23","愛知県","23209","碧南市","232090023001","尾城町一丁目","34.890491","137.005089","0","3"
"23","愛知県","23209","碧南市","232090023002","尾城町二丁目","34.889920","137.006866","0","3"
"23","愛知県","23209","碧南市","232090023003","尾城町三丁目","34.888348","137.004946","0","3"
"23","愛知県","23209","碧南市","232090023004","尾城町四丁目","34.889283","137.004801","0","3"
"23","愛知県","23209","碧南市","232090023005","尾城町五丁目","34.889225","137.003436","0","3"
"23","愛知県","23209","碧南市","232090024001","音羽町一丁目","34.872594","136.981732","0","3"
"23","愛知県","23209","碧南市","232090024002","音羽町二丁目","34.872578","136.983417","0","3"
"23","愛知県","23209","碧南市","232090024003","音羽町三丁目","34.871560","136.982734","0","3"
"23","愛知県","23209","碧南市","232090024004","音羽町四丁目","34.871620","136.984729","0","3"
"23","愛知県","23209","碧南市","232090025001","篭田町一丁目","34.896330","136.990846","0","3"
"23","愛知県","23209","碧南市","232090025002","篭田町二丁目","34.895714","136.992552","0","3"
"23","愛知県","23209","碧南市","232090025003","篭田町三丁目","34.894732","136.991291","0","3"
"23","愛知県","23209","碧南市","232090025004","篭田町四丁目","34.894709","136.994011","0","3"
"23","愛知県","23209","碧南市","232090026001","春日町一丁目","34.876707","136.990136","0","3"
"23","愛知県","23209","碧南市","232090026002","春日町二丁目","34.877406","136.992195","0","3"
"23","愛知県","23209","碧南市","232090026003","春日町三丁目","34.876362","136.993245","0","3"
"23","愛知県","23209","碧南市","232090026004","春日町四丁目","34.875899","136.994331","0","3"
"23","愛知県","23209","碧南市","232090027001","霞浦町一丁目","34.882524","137.000400","0","3"
"23","愛知県","23209","碧南市","232090027002","霞浦町二丁目","34.882663","137.002317","0","3"
"23","愛知県","23209","碧南市","232090027003","霞浦町三丁目","34.881575","137.001360","0","3"
"23","愛知県","23209","碧南市","232090027004","霞浦町四丁目","34.880722","137.000138","0","3"
"23","愛知県","23209","碧南市","232090027005","霞浦町五丁目","34.879842","136.999882","0","3"
"23","愛知県","23209","碧南市","232090028001","金山町一丁目","34.904611","137.003543","0","3"
"23","愛知県","23209","碧南市","232090028002","金山町二丁目","34.903917","137.005160","0","3"
"23","愛知県","23209","碧南市","232090028003","金山町三丁目","34.901873","137.003018","0","3"
"23","愛知県","23209","碧南市","232090028004","金山町四丁目","34.902537","137.002209","0","3"
"23","愛知県","23209","碧南市","232090028005","金山町五丁目","34.900627","137.001498","0","3"
"23","愛知県","23209","碧南市","232090028006","金山町六丁目","34.899613","137.002425","0","3"
"23","愛知県","23209","碧南市","232090029001","神有町一丁目","34.891243","137.010602","0","3"
"23","愛知県","23209","碧南市","232090029002","神有町二丁目","34.890134","137.009588","0","3"
"23","愛知県","23209","碧南市","232090029003","神有町三丁目","34.889917","137.011564","0","3"
"23","愛知県","23209","碧南市","232090029004","神有町四丁目","34.889548","137.013090","0","3"
"23","愛知県","23209","碧南市","232090029005","神有町五丁目","34.888487","137.012504","0","3"
"23","愛知県","23209","碧南市","232090029006","神有町六丁目","34.888007","137.014544","0","3"
"23","愛知県","23209","碧南市","232090029007","神有町七丁目","34.887323","137.016707","0","3"
"23","愛知県","23209","碧南市","232090030001","上町一丁目","34.917097","137.011799","0","3"
"23","愛知県","23209","碧南市","232090030002","上町二丁目","34.916209","137.013497","0","3"
"23","愛知県","23209","碧南市","232090030003","上町三丁目","34.915106","137.011313","0","3"
"23","愛知県","23209","碧南市","232090030004","上町四丁目","34.914554","137.013680","0","3"
"23","愛知県","23209","碧南市","232090030005","上町五丁目","34.913597","137.014657","0","3"
"23","愛知県","23209","碧南市","232090031001","亀穴町一丁目","34.884110","137.018445","0","3"
"23","愛知県","23209","碧南市","232090031002","亀穴町二丁目","34.883337","137.015952","0","3"
"23","愛知県","23209","碧南市","232090031003","亀穴町三丁目","34.882505","137.013441","0","3"
"23","愛知県","23209","碧南市","232090031004","亀穴町四丁目","34.882278","137.011053","0","3"
"23","愛知県","23209","碧南市","232090032001","河方町一丁目","34.847370","136.983324","0","3"
"23","愛知県","23209","碧南市","232090032002","河方町二丁目","34.844248","136.980275","0","3"
"23","愛知県","23209","碧南市","232090033001","川口町一丁目","34.838836","136.977758","0","3"
"23","愛知県","23209","碧南市","232090033002","川口町二丁目","34.830188","136.972108","0","3"
"23","愛知県","23209","碧南市","232090033003","川口町三丁目","34.833170","136.967670","0","3"
"23","愛知県","23209","碧南市","232090033004","川口町四丁目","34.837670","136.968034","0","3"
"23","愛知県","23209","碧南市","232090033005","川口町五丁目","34.843722","136.969481","0","3"
"23","愛知県","23209","碧南市","232090033006","川口町六丁目","34.840935","136.972271","0","3"
"23","愛知県","23209","碧南市","232090034001","川端町一丁目","34.867299","136.994885","0","3"
"23","愛知県","23209","碧南市","232090034002","川端町二丁目","34.865055","136.991574","0","3"
"23","愛知県","23209","碧南市","232090035001","神田町一丁目","34.918533","137.016430","0","3"
"23","愛知県","23209","碧南市","232090035002","神田町二丁目","34.917964","137.015621","0","3"
"23","愛知県","23209","碧南市","232090035003","神田町三丁目","34.917915","137.013717","0","3"
"23","愛知県","23209","碧南市","232090035004","神田町四丁目","34.916190","137.015527","0","3"
"23","愛知県","23209","碧南市","232090035005","神田町五丁目","34.915658","137.016986","0","3"
"23","愛知県","23209","碧南市","232090036001","雁道町一丁目","34.928121","137.028947","0","3"
"23","愛知県","23209","碧南市","232090036002","雁道町二丁目","34.927261","137.028308","0","3"
"23","愛知県","23209","碧南市","232090036003","雁道町三丁目","34.927017","137.026899","0","3"
"23","愛知県","23209","碧南市","232090036004","雁道町四丁目","34.925608","137.027812","0","3"
"23","愛知県","23209","碧南市","232090037001","北浦町一丁目","34.895532","137.013151","0","3"
"23","愛知県","23209","碧南市","232090037002","北浦町二丁目","34.893640","137.014126","0","3"
"23","愛知県","23209","碧南市","232090037003","北浦町三丁目","34.892816","137.016277","0","3"
"23","愛知県","23209","碧南市","232090037004","北浦町四丁目","34.892485","137.018208","0","3"
"23","愛知県","23209","碧南市","232090038001","北町一丁目","34.935898","137.031339","0","3"
"23","愛知県","23209","碧南市","232090038002","北町二丁目","34.934413","137.032811","0","3"
"23","愛知県","23209","碧南市","232090038003","北町三丁目","34.934125","137.030800","0","3"
"23","愛知県","23209","碧南市","232090038004","北町四丁目","34.933317","137.029839","0","3"
"23","愛知県","23209","碧南市","232090039001","久沓町一丁目","34.911628","136.992268","0","3"
"23","愛知県","23209","碧南市","232090039002","久沓町二丁目","34.910639","136.992652","0","3"
"23","愛知県","23209","碧南市","232090039003","久沓町三丁目","34.909187","136.993114","0","3"
"23","愛知県","23209","碧南市","232090039004","久沓町四丁目","34.907605","136.993869","0","3"
"23","愛知県","23209","碧南市","232090040001","栗山町一丁目","34.879239","136.993740","0","3"
"23","愛知県","23209","碧南市","232090040002","栗山町二丁目","34.878445","136.994561","0","3"
"23","愛知県","23209","碧南市","232090040003","栗山町三丁目","34.877954","136.996182","0","3"
"23","愛知県","23209","碧南市","232090041000","源氏神明町","34.881871","136.996486","0","1"
"23","愛知県","23209","碧南市","232090042001","源氏町一丁目","34.872969","136.986761","0","3"
"23","愛知県","23209","碧南市","232090042002","源氏町二丁目","34.872990","136.988026","0","3"
"23","愛知県","23209","碧南市","232090042003","源氏町三丁目","34.872494","136.989523","0","3"
"23","愛知県","23209","碧南市","232090042004","源氏町四丁目","34.871862","136.987504","0","3"
"23","愛知県","23209","碧南市","232090042005","源氏町五丁目","34.871257","136.988033","0","3"
"23","愛知県","23209","碧南市","232090043001","鴻島町一丁目","34.886102","137.007731","0","3"
"23","愛知県","23209","碧南市","232090043002","鴻島町二丁目","34.884715","137.008676","0","3"
"23","愛知県","23209","碧南市","232090043003","鴻島町三丁目","34.884845","137.006812","0","3"
"23","愛知県","23209","碧南市","232090043004","鴻島町四丁目","34.885504","137.005077","0","3"
"23","愛知県","23209","碧南市","232090043005","鴻島町五丁目","34.883720","137.004895","0","3"
"23","愛知県","23209","碧南市","232090043006","鴻島町六丁目","34.883307","137.006646","0","3"
"23","愛知県","23209","碧南市","232090044001","港南町一丁目","34.850503","136.965694","0","3"
"23","愛知県","23209","碧南市","232090044002","港南町二丁目","34.836470","136.960474","0","3"
"23","愛知県","23209","碧南市","232090045001","向陽町一丁目","34.889943","136.996744","0","3"
"23","愛知県","23209","碧南市","232090045002","向陽町二丁目","34.889051","136.996124","0","3"
"23","愛知県","23209","碧南市","232090045003","向陽町三丁目","34.887644","136.996074","0","3"
"23","愛知県","23209","碧南市","232090045004","向陽町四丁目","34.885924","136.995521","0","3"
"23","愛知県","23209","碧南市","232090046001","湖西町一丁目","34.911166","137.014625","0","3"
"23","愛知県","23209","碧南市","232090046002","湖西町二丁目","34.909555","137.013274","0","3"
"23","愛知県","23209","碧南市","232090046003","湖西町三丁目","34.910209","137.015120","0","3"
"23","愛知県","23209","碧南市","232090046004","湖西町四丁目","34.909262","137.016035","0","3"
"23","愛知県","23209","碧南市","232090046005","湖西町五丁目","34.907599","137.013905","0","3"
"23","愛知県","23209","碧南市","232090047001","小屋下町一丁目","34.880841","137.009282","0","3"
"23","愛知県","23209","碧南市","232090047002","小屋下町二丁目","34.878948","137.010704","0","3"
"23","愛知県","23209","碧南市","232090047003","小屋下町三丁目","34.879628","137.007241","0","3"
"23","愛知県","23209","碧南市","232090047004","小屋下町四丁目","34.877773","137.007993","0","3"
"23","愛知県","23209","碧南市","232090048001","権田町一丁目","34.863735","136.984506","0","3"
"23","愛知県","23209","碧南市","232090048002","権田町二丁目","34.863100","136.985914","0","3"
"23","愛知県","23209","碧南市","232090048003","権田町三丁目","34.861974","136.985419","0","3"
"23","愛知県","23209","碧南市","232090049001","幸町一丁目","34.890158","136.999440","0","3"
"23","愛知県","23209","碧南市","232090049002","幸町二丁目","34.888844","137.001298","0","3"
"23","愛知県","23209","碧南市","232090049003","幸町三丁目","34.887565","137.000316","0","3"
"23","愛知県","23209","碧南市","232090049004","幸町四丁目","34.888879","136.999018","0","3"
"23","愛知県","23209","碧南市","232090049005","幸町五丁目","34.887903","136.998442","0","3"
"23","愛知県","23209","碧南市","232090049006","幸町六丁目","34.886375","136.998929","0","3"
"23","愛知県","23209","碧南市","232090049007","幸町七丁目","34.885183","136.998522","0","3"
"23","愛知県","23209","碧南市","232090050001","栄町一丁目","34.888155","136.990699","0","3"
"23","愛知県","23209","碧南市","232090050002","栄町二丁目","34.888569","136.993355","0","3"
"23","愛知県","23209","碧南市","232090050003","栄町三丁目","34.886671","136.990739","0","3"
"23","愛知県","23209","碧南市","232090050004","栄町四丁目","34.886466","136.992723","0","3"
"23","愛知県","23209","碧南市","232090051001","坂口町一丁目","34.910919","137.005559","0","3"
"23","愛知県","23209","碧南市","232090051002","坂口町二丁目","34.911049","137.007950","0","3"
"23","愛知県","23209","碧南市","232090051003","坂口町三丁目","34.910175","137.010892","0","3"
"23","愛知県","23209","碧南市","232090051004","坂口町四丁目","34.909654","137.007251","0","3"
"23","愛知県","23209","碧南市","232090052001","作塚町一丁目","34.880190","136.991081","0","3"
"23","愛知県","23209","碧南市","232090052002","作塚町二丁目","34.879790","136.992715","0","3"
"23","愛知県","23209","碧南市","232090052003","作塚町三丁目","34.878630","136.990961","0","3"
"23","愛知県","23209","碧南市","232090053001","笹山町一丁目","34.900227","137.007457","0","3"
"23","愛知県","23209","碧南市","232090053002","笹山町二丁目","34.899675","137.009328","0","3"
"23","愛知県","23209","碧南市","232090053003","笹山町三丁目","34.897897","137.007990","0","3"
"23","愛知県","23209","碧南市","232090053004","笹山町四丁目","34.898870","137.006371","0","3"
"23","愛知県","23209","碧南市","232090053005","笹山町五丁目","34.897684","137.005350","0","3"
"23","愛知県","23209","碧南市","232090053006","笹山町六丁目","34.896693","137.007052","0","3"
"23","愛知県","23209","碧南市","232090053007","笹山町七丁目","34.896085","137.006138","0","3"
"23","愛知県","23209","碧南市","232090054000","沢渡町","34.881787","136.993049","0","1"
"23","愛知県","23209","碧南市","232090055001","三角町一丁目","34.881161","137.022432","0","3"
"23","愛知県","23209","碧南市","232090055002","三角町二丁目","34.879813","137.020050","0","3"
"23","愛知県","23209","碧南市","232090056001","三間町一丁目","34.877717","137.005134","0","3"
"23","愛知県","23209","碧南市","232090056002","三間町二丁目","34.876439","137.003772","0","3"
"23","愛知県","23209","碧南市","232090057001","三度山町一丁目","34.914763","137.009581","0","3"
"23","愛知県","23209","碧南市","232090057002","三度山町二丁目","34.913939","137.008287","0","3"
"23","愛知県","23209","碧南市","232090057003","三度山町三丁目","34.913055","137.007432","0","3"
"23","愛知県","23209","碧南市","232090057004","三度山町四丁目","34.912662","137.005376","0","3"
"23","愛知県","23209","碧南市","232090058001","汐田町一丁目","34.875014","136.988462","0","3"
"23","愛知県","23209","碧南市","232090058002","汐田町二丁目","34.874890","136.990449","0","3"
"23","愛知県","23209","碧南市","232090058003","汐田町三丁目","34.873752","136.989662","0","3"
"23","愛知県","23209","碧南市","232090058004","汐田町四丁目","34.873875","136.991478","0","3"
"23","愛知県","23209","碧南市","232090058005","汐田町五丁目","34.873642","136.992638","0","3"
"23","愛知県","23209","碧南市","232090059001","塩浜町一丁目","34.870012","136.983918","0","3"
"23","愛知県","23209","碧南市","232090059002","塩浜町二丁目","34.869206","136.985502","0","3"
"23","愛知県","23209","碧南市","232090059003","塩浜町三丁目","34.867444","136.986443","0","3"
"23","愛知県","23209","碧南市","232090059004","塩浜町四丁目","34.868324","136.984170","0","3"
"23","愛知県","23209","碧南市","232090059005","塩浜町五丁目","34.868948","136.983097","0","3"
"23","愛知県","23209","碧南市","232090059006","塩浜町六丁目","34.867415","136.982635","0","3"
"23","愛知県","23209","碧南市","232090059007","塩浜町七丁目","34.866191","136.984203","0","3"
"23","愛知県","23209","碧南市","232090059008","塩浜町八丁目","34.865637","136.986215","0","3"
"23","愛知県","23209","碧南市","232090060001","潮見町一丁目","34.852588","136.977493","0","3"
"23","愛知県","23209","碧南市","232090060002","潮見町二丁目","34.850691","136.973515","0","3"
"23","愛知県","23209","碧南市","232090060003","潮見町三丁目","34.848834","136.970405","0","3"
"23","愛知県","23209","碧南市","232090061001","志貴崎町一丁目","34.872326","136.996525","0","3"
"23","愛知県","23209","碧南市","232090061002","志貴崎町二丁目","34.871723","136.998006","0","3"
"23","愛知県","23209","碧南市","232090061003","志貴崎町三丁目","34.870671","136.996962","0","3"
"23","愛知県","23209","碧南市","232090061004","志貴崎町四丁目","34.871312","136.994859","0","3"
"23","愛知県","23209","碧南市","232090061005","志貴崎町五丁目","34.869442","136.995211","0","3"
"23","愛知県","23209","碧南市","232090061006","志貴崎町六丁目","34.868342","136.996522","0","3"
"23","愛知県","23209","碧南市","232090062001","志貴町一丁目","34.871986","136.990460","0","3"
"23","愛知県","23209","碧南市","232090062002","志貴町二丁目","34.871842","136.991593","0","3"
"23","愛知県","23209","碧南市","232090062003","志貴町三丁目","34.872096","136.993364","0","3"
"23","愛知県","23209","碧南市","232090062004","志貴町四丁目","34.872943","136.994065","0","3"
"23","愛知県","23209","碧南市","232090063001","島池町一丁目","34.922887","137.015703","0","3"
"23","愛知県","23209","碧南市","232090063002","島池町二丁目","34.922982","137.014348","0","3"
"23","愛知県","23209","碧南市","232090063003","島池町三丁目","34.922039","137.014141","0","3"
"23","愛知県","23209","碧南市","232090064001","清水町一丁目","34.921629","137.021386","0","3"
"23","愛知県","23209","碧南市","232090064002","清水町二丁目","34.921169","137.020508","0","3"
"23","愛知県","23209","碧南市","232090064003","清水町三丁目","34.920538","137.019900","0","3"
"23","愛知県","23209","碧南市","232090065000","下洲町","34.875117","137.002313","0","1"
"23","愛知県","23209","碧南市","232090066001","照光町一丁目","34.886287","137.016659","0","3"
"23","愛知県","23209","碧南市","232090066002","照光町二丁目","34.886133","137.014273","0","3"
"23","愛知県","23209","碧南市","232090066003","照光町三丁目","34.885976","137.012037","0","3"
"23","愛知県","23209","碧南市","232090066004","照光町四丁目","34.885266","137.012546","0","3"
"23","愛知県","23209","碧南市","232090066005","照光町五丁目","34.885239","137.010137","0","3"
"23","愛知県","23209","碧南市","232090067001","白沢町一丁目","34.922034","137.029269","0","3"
"23","愛知県","23209","碧南市","232090067002","白沢町二丁目","34.920208","137.031193","0","3"
"23","愛知県","23209","碧南市","232090067003","白沢町三丁目","34.920624","137.028398","0","3"
"23","愛知県","23209","碧南市","232090067004","白沢町四丁目","34.919177","137.025978","0","3"
"23","愛知県","23209","碧南市","232090067005","白沢町五丁目","34.918582","137.027153","0","3"
"23","愛知県","23209","碧南市","232090068001","白砂町一丁目","34.919603","137.010964","0","3"
"23","愛知県","23209","碧南市","232090068002","白砂町二丁目","34.919067","137.010133","0","3"
"23","愛知県","23209","碧南市","232090068003","白砂町三丁目","34.918390","137.009308","0","3"
"23","愛知県","23209","碧南市","232090068004","白砂町四丁目","34.917739","137.008522","0","3"
"23","愛知県","23209","碧南市","232090068005","白砂町五丁目","34.916891","137.007643","0","3"
"23","愛知県","23209","碧南市","232090069001","城山町一丁目","34.893376","137.007357","0","3"
"23","愛知県","23209","碧南市","232090069002","城山町二丁目","34.892130","137.006259","0","3"
"23","愛知県","23209","碧南市","232090069003","城山町三丁目","34.891579","137.007420","0","3"
"23","愛知県","23209","碧南市","232090069004","城山町四丁目","34.892603","137.009151","0","3"
"23","愛知県","23209","碧南市","232090069005","城山町五丁目","34.891202","137.008705","0","3"
"23","愛知県","23209","碧南市","232090070001","新川町一丁目","34.900617","136.990704","0","3"
"23","愛知県","23209","碧南市","232090070002","新川町二丁目","34.898727","136.989850","0","3"
"23","愛知県","23209","碧南市","232090070003","新川町三丁目","34.897085","136.989211","0","3"
"23","愛知県","23209","碧南市","232090070004","新川町四丁目","34.896297","136.989046","0","3"
"23","愛知県","23209","碧南市","232090070005","新川町五丁目","34.895177","136.988976","0","3"
"23","愛知県","23209","碧南市","232090070006","新川町六丁目","34.894172","136.988892","0","3"
"23","愛知県","23209","碧南市","232090071001","新道町一丁目","34.900199","137.003776","0","3"
"23","愛知県","23209","碧南市","232090071002","新道町二丁目","34.901162","137.005645","0","3"
"23","愛知県","23209","碧南市","232090071003","新道町三丁目","34.899958","137.005245","0","3"
"23","愛知県","23209","碧南市","232090071004","新道町四丁目","34.898583","137.004480","0","3"
"23","愛知県","23209","碧南市","232090072001","末広町一丁目","34.890980","136.990819","0","3"
"23","愛知県","23209","碧南市","232090072002","末広町二丁目","34.889522","136.990740","0","3"
"23","愛知県","23209","碧南市","232090072003","末広町三丁目","34.889975","136.993433","0","3"
"23","愛知県","23209","碧南市","232090073001","洲先町一丁目","34.908439","137.009577","0","3"
"23","愛知県","23209","碧南市","232090073002","洲先町二丁目","34.907974","137.006887","0","3"
"23","愛知県","23209","碧南市","232090073003","洲先町三丁目","34.907220","137.005317","0","3"
"23","愛知県","23209","碧南市","232090074000","須磨町","34.890478","136.980303","0","1"
"23","愛知県","23209","碧南市","232090075001","住吉町一丁目","34.899793","136.998034","0","3"
"23","愛知県","23209","碧南市","232090075002","住吉町二丁目","34.899123","136.998734","0","3"
"23","愛知県","23209","碧南市","232090075003","住吉町三丁目","34.898946","137.000665","0","3"
"23","愛知県","23209","碧南市","232090075004","住吉町四丁目","34.897566","136.999285","0","3"
"23","愛知県","23209","碧南市","232090076001","千福町一丁目","34.899667","136.992875","0","3"
"23","愛知県","23209","碧南市","232090076002","千福町二丁目","34.898927","136.995088","0","3"
"23","愛知県","23209","碧南市","232090076003","千福町三丁目","34.897528","136.993999","0","3"
"23","愛知県","23209","碧南市","232090076004","千福町四丁目","34.898312","136.992338","0","3"
"23","愛知県","23209","碧南市","232090076005","千福町五丁目","34.897314","136.991533","0","3"
"23","愛知県","23209","碧南市","232090076006","千福町六丁目","34.896564","136.993431","0","3"
"23","愛知県","23209","碧南市","232090077001","善明町一丁目","34.880786","136.988811","0","3"
"23","愛知県","23209","碧南市","232090077002","善明町二丁目","34.879046","136.988367","0","3"
"23","愛知県","23209","碧南市","232090077003","善明町三丁目","34.877368","136.987784","0","3"
"23","愛知県","23209","碧南市","232090078001","宝町一丁目","34.928751","137.023650","0","3"
"23","愛知県","23209","碧南市","232090078002","宝町二丁目","34.927920","137.022954","0","3"
"23","愛知県","23209","碧南市","232090078003","宝町三丁目","34.927261","137.022139","0","3"
"23","愛知県","23209","碧南市","232090079001","竹原町一丁目","34.930639","137.026368","0","3"
"23","愛知県","23209","碧南市","232090079002","竹原町二丁目","34.929986","137.025844","0","3"
"23","愛知県","23209","碧南市","232090079003","竹原町三丁目","34.929287","137.024673","0","3"
"23","愛知県","23209","碧南市","232090080001","田尻町一丁目","34.907548","136.984508","0","3"
"23","愛知県","23209","碧南市","232090080002","田尻町二丁目","34.907792","136.987254","0","3"
"23","愛知県","23209","碧南市","232090080003","田尻町三丁目","34.908774","136.987267","0","3"
"23","愛知県","23209","碧南市","232090080004","田尻町四丁目","34.909913","136.987992","0","3"
"23","愛知県","23209","碧南市","232090081001","立山町一丁目","34.916490","137.006829","0","3"
"23","愛知県","23209","碧南市","232090081002","立山町二丁目","34.915887","137.005939","0","3"
"23","愛知県","23209","碧南市","232090081003","立山町三丁目","34.915243","137.005064","0","3"
"23","愛知県","23209","碧南市","232090081004","立山町四丁目","34.914619","137.004253","0","3"
"23","愛知県","23209","碧南市","232090082001","棚尾本町一丁目","34.870748","136.989879","0","3"
"23","愛知県","23209","碧南市","232090082002","棚尾本町二丁目","34.870402","136.990948","0","3"
"23","愛知県","23209","碧南市","232090082003","棚尾本町三丁目","34.869845","136.992073","0","3"
"23","愛知県","23209","碧南市","232090082004","棚尾本町四丁目","34.870330","136.993365","0","3"
"23","愛知県","23209","碧南市","232090082005","棚尾本町五丁目","34.868959","136.993210","0","3"
"23","愛知県","23209","碧南市","232090083001","築山町一丁目","34.871413","136.979180","0","3"
"23","愛知県","23209","碧南市","232090083002","築山町二丁目","34.870136","136.979213","0","3"
"23","愛知県","23209","碧南市","232090083003","築山町三丁目","34.869824","136.977700","0","3"
"23","愛知県","23209","碧南市","232090083004","築山町四丁目","34.868900","136.979091","0","3"
"23","愛知県","23209","碧南市","232090084001","鶴見町一丁目","34.903567","136.993958","0","3"
"23","愛知県","23209","碧南市","232090084002","鶴見町二丁目","34.902661","136.995645","0","3"
"23","愛知県","23209","碧南市","232090084003","鶴見町三丁目","34.900969","136.997012","0","3"
"23","愛知県","23209","碧南市","232090084004","鶴見町四丁目","34.901992","136.994412","0","3"
"23","愛知県","23209","碧南市","232090084005","鶴見町五丁目","34.901100","136.993831","0","3"
"23","愛知県","23209","碧南市","232090084006","鶴見町六丁目","34.900215","136.995697","0","3"
"23","愛知県","23209","碧南市","232090085001","天神町一丁目","34.889030","137.009684","0","3"
"23","愛知県","23209","碧南市","232090085002","天神町二丁目","34.888040","137.005973","0","3"
"23","愛知県","23209","碧南市","232090085003","天神町三丁目","34.887817","137.007574","0","3"
"23","愛知県","23209","碧南市","232090085004","天神町四丁目","34.887789","137.009503","0","3"
"23","愛知県","23209","碧南市","232090085005","天神町五丁目","34.886976","137.011010","0","3"
"23","愛知県","23209","碧南市","232090086001","天王町一丁目","34.888216","136.986194","0","3"
"23","愛知県","23209","碧南市","232090086002","天王町二丁目","34.887734","136.988389","0","3"
"23","愛知県","23209","碧南市","232090086003","天王町三丁目","34.886473","136.988116","0","3"
"23","愛知県","23209","碧南市","232090086004","天王町四丁目","34.887302","136.985972","0","3"
"23","愛知県","23209","碧南市","232090086005","天王町五丁目","34.885637","136.985507","0","3"
"23","愛知県","23209","碧南市","232090086006","天王町六丁目","34.885161","136.987845","0","3"
"23","愛知県","23209","碧南市","232090086007","天王町七丁目","34.884241","136.987540","0","3"
"23","愛知県","23209","碧南市","232090087001","道場山町一丁目","34.892149","136.986081","0","3"
"23","愛知県","23209","碧南市","232090087002","道場山町二丁目","34.891841","136.987570","0","3"
"23","愛知県","23209","碧南市","232090087003","道場山町三丁目","34.892772","136.988826","0","3"
"23","愛知県","23209","碧南市","232090087004","道場山町四丁目","34.891189","136.988772","0","3"
"23","愛知県","23209","碧南市","232090087005","道場山町五丁目","34.892419","136.990859","0","3"
"23","愛知県","23209","碧南市","232090088001","鳥追町一丁目","34.919921","137.018801","0","3"
"23","愛知県","23209","碧南市","232090088002","鳥追町二丁目","34.919474","137.017903","0","3"
"23","愛知県","23209","碧南市","232090088003","鳥追町三丁目","34.918973","137.017253","0","3"
"23","愛知県","23209","碧南市","232090089001","中江町一丁目","34.864650","136.993337","0","3"
"23","愛知県","23209","碧南市","232090089002","中江町二丁目","34.863652","136.995920","0","3"
"23","愛知県","23209","碧南市","232090089003","中江町三丁目","34.860007","136.992969","0","3"
"23","愛知県","23209","碧南市","232090089004","中江町四丁目","34.861026","136.990336","0","3"
"23","愛知県","23209","碧南市","232090089005","中江町五丁目","34.862922","136.989845","0","3"
"23","愛知県","23209","碧南市","232090089006","中江町六丁目","34.860868","136.986859","0","3"
"23","愛知県","23209","碧南市","232090090001","中後町一丁目","34.892567","137.004598","0","3"
"23","愛知県","23209","碧南市","232090090002","中後町二丁目","34.891544","137.001944","0","3"
"23","愛知県","23209","碧南市","232090090003","中後町三丁目","34.890664","137.000479","0","3"
"23","愛知県","23209","碧南市","232090090004","中後町四丁目","34.890574","137.003340","0","3"
"23","愛知県","23209","碧南市","232090091001","中田町一丁目","34.850450","136.979420","0","3"
"23","愛知県","23209","碧南市","232090091002","中田町二丁目","34.847140","136.976097","0","3"
"23","愛知県","23209","碧南市","232090091003","中田町三丁目","34.845605","136.973820","0","3"
"23","愛知県","23209","碧南市","232090092001","中町一丁目","34.875188","136.983253","0","3"
"23","愛知県","23209","碧南市","232090092002","中町二丁目","34.874073","136.982355","0","3"
"23","愛知県","23209","碧南市","232090092003","中町三丁目","34.873592","136.983985","0","3"
"23","愛知県","23209","碧南市","232090092004","中町四丁目","34.874513","136.984540","0","3"
"23","愛知県","23209","碧南市","232090092005","中町五丁目","34.874000","136.985685","0","3"
"23","愛知県","23209","碧南市","232090093001","中松町一丁目","34.882445","136.983739","0","3"
"23","愛知県","23209","碧南市","232090093002","中松町二丁目","34.880595","136.983506","0","3"
"23","愛知県","23209","碧南市","232090093003","中松町三丁目","34.879520","136.983166","0","3"
"23","愛知県","23209","碧南市","232090093004","中松町四丁目","34.878589","136.982852","0","3"
"23","愛知県","23209","碧南市","232090094001","中山町一丁目","34.887645","137.002385","0","3"
"23","愛知県","23209","碧南市","232090094002","中山町二丁目","34.886929","137.003065","0","3"
"23","愛知県","23209","碧南市","232090094003","中山町三丁目","34.885940","137.003306","0","3"
"23","愛知県","23209","碧南市","232090094004","中山町四丁目","34.885055","137.001737","0","3"
"23","愛知県","23209","碧南市","232090094005","中山町五丁目","34.886170","137.001127","0","3"
"23","愛知県","23209","碧南市","232090094006","中山町六丁目","34.884959","136.999871","0","3"
"23","愛知県","23209","碧南市","232090094007","中山町七丁目","34.884377","137.001332","0","3"
"23","愛知県","23209","碧南市","232090095001","縄手町一丁目","34.890166","137.020889","0","3"
"23","愛知県","23209","碧南市","232090095002","縄手町二丁目","34.892109","137.021510","0","3"
"23","愛知県","23209","碧南市","232090095003","縄手町三丁目","34.893181","137.022656","0","3"
"23","愛知県","23209","碧南市","232090095004","縄手町四丁目","34.890487","137.024098","0","3"
"23","愛知県","23209","碧南市","232090095005","縄手町五丁目","34.889777","137.026288","0","3"
"23","愛知県","23209","碧南市","232090096001","錦町一丁目","34.871044","136.981240","0","3"
"23","愛知県","23209","碧南市","232090096002","錦町二丁目","34.870356","136.982443","0","3"
"23","愛知県","23209","碧南市","232090096003","錦町三丁目","34.869948","136.981223","0","3"
"23","愛知県","23209","碧南市","232090096004","錦町四丁目","34.868753","136.980733","0","3"
"23","愛知県","23209","碧南市","232090096005","錦町五丁目","34.868451","136.981589","0","3"
"23","愛知県","23209","碧南市","232090097001","西浜町一丁目","34.868124","136.977330","0","3"
"23","愛知県","23209","碧南市","232090097002","西浜町二丁目","34.867848","136.978802","0","3"
"23","愛知県","23209","碧南市","232090097003","西浜町三丁目","34.866467","136.978184","0","3"
"23","愛知県","23209","碧南市","232090097004","西浜町四丁目","34.866830","136.976658","0","3"
"23","愛知県","23209","碧南市","232090097005","西浜町五丁目","34.865863","136.975849","0","3"
"23","愛知県","23209","碧南市","232090097006","西浜町六丁目","34.865576","136.977405","0","3"
"23","愛知県","23209","碧南市","232090098001","西山町一丁目","34.907550","136.997781","0","3"
"23","愛知県","23209","碧南市","232090098002","西山町二丁目","34.906080","136.998977","0","3"
"23","愛知県","23209","碧南市","232090098003","西山町三丁目","34.906168","136.996961","0","3"
"23","愛知県","23209","碧南市","232090098004","西山町四丁目","34.905874","136.994922","0","3"
"23","愛知県","23209","碧南市","232090098005","西山町五丁目","34.905290","136.993272","0","3"
"23","愛知県","23209","碧南市","232090098006","西山町六丁目","34.904080","136.995572","0","3"
"23","愛知県","23209","碧南市","232090098007","西山町七丁目","34.903946","136.997293","0","3"
"23","愛知県","23209","碧南市","232090099001","日進町一丁目","34.879738","137.001593","0","3"
"23","愛知県","23209","碧南市","232090099002","日進町二丁目","34.878818","137.002174","0","3"
"23","愛知県","23209","碧南市","232090099003","日進町三丁目","34.877879","137.003022","0","3"
"23","愛知県","23209","碧南市","232090099004","日進町四丁目","34.876000","137.001097","0","3"
"23","愛知県","23209","碧南市","232090100001","二本木町一丁目","34.893477","137.011944","0","3"
"23","愛知県","23209","碧南市","232090100002","二本木町二丁目","34.892633","137.011412","0","3"
"23","愛知県","23209","碧南市","232090100003","二本木町三丁目","34.890441","137.013375","0","3"
"23","愛知県","23209","碧南市","232090100004","二本木町四丁目","34.891557","137.013914","0","3"
"23","愛知県","23209","碧南市","232090100005","二本木町五丁目","34.890487","137.015515","0","3"
"23","愛知県","23209","碧南市","232090101001","野銭町一丁目","34.887726","137.032771","0","3"
"23","愛知県","23209","碧南市","232090101002","野銭町二丁目","34.888266","137.035397","0","3"
"23","愛知県","23209","碧南市","232090101003","野銭町三丁目","34.888601","137.037948","0","3"
"23","愛知県","23209","碧南市","232090101004","野銭町四丁目","34.888431","137.039891","0","3"
"23","愛知県","23209","碧南市","232090102000","野田町","34.884178","136.990134","0","1"
"23","愛知県","23209","碧南市","232090103001","羽根町一丁目","34.877066","136.984285","0","3"
"23","愛知県","23209","碧南市","232090103002","羽根町二丁目","34.876100","136.983773","0","3"
"23","愛知県","23209","碧南市","232090103003","羽根町三丁目","34.876205","136.985512","0","3"
"23","愛知県","23209","碧南市","232090103004","羽根町四丁目","34.875678","136.986970","0","3"
"23","愛知県","23209","碧南市","232090104001","浜尾町一丁目","34.898229","136.996714","0","3"
"23","愛知県","23209","碧南市","232090104002","浜尾町二丁目","34.896457","136.995017","0","3"
"23","愛知県","23209","碧南市","232090104003","浜尾町三丁目","34.897087","136.997203","0","3"
"23","愛知県","23209","碧南市","232090104004","浜尾町四丁目","34.895717","136.996317","0","3"
"23","愛知県","23209","碧南市","232090105001","浜田町一丁目","34.866700","136.980312","0","3"
"23","愛知県","23209","碧南市","232090105002","浜田町二丁目","34.865346","136.979390","0","3"
"23","愛知県","23209","碧南市","232090105003","浜田町三丁目","34.864695","136.981550","0","3"
"23","愛知県","23209","碧南市","232090105004","浜田町四丁目","34.865929","136.982445","0","3"
"23","愛知県","23209","碧南市","232090106001","浜寺町一丁目","34.873592","136.979217","0","3"
"23","愛知県","23209","碧南市","232090106002","浜寺町二丁目","34.873258","136.980665","0","3"
"23","愛知県","23209","碧南市","232090107000","浜町","34.881344","136.977295","0","1"
"23","愛知県","23209","碧南市","232090108001","半崎町一丁目","34.917297","137.020854","0","3"
"23","愛知県","23209","碧南市","232090108002","半崎町二丁目","34.916645","137.019188","0","3"
"23","愛知県","23209","碧南市","232090108003","半崎町三丁目","34.915039","137.018575","0","3"
"23","愛知県","23209","碧南市","232090108004","半崎町四丁目","34.914641","137.020311","0","3"
"23","愛知県","23209","碧南市","232090108005","半崎町五丁目","34.913199","137.019477","0","3"
"23","愛知県","23209","碧南市","232090108006","半崎町六丁目","34.913541","137.021560","0","3"
"23","愛知県","23209","碧南市","232090109001","東浦町一丁目","34.881241","136.998193","0","3"
"23","愛知県","23209","碧南市","232090109002","東浦町二丁目","34.879432","136.997249","0","3"
"23","愛知県","23209","碧南市","232090109003","東浦町三丁目","34.878947","136.998922","0","3"
"23","愛知県","23209","碧南市","232090109004","東浦町四丁目","34.877876","136.999588","0","3"
"23","愛知県","23209","碧南市","232090109005","東浦町五丁目","34.877426","136.997639","0","3"
"23","愛知県","23209","碧南市","232090109006","東浦町六丁目","34.875944","136.999288","0","3"
"23","愛知県","23209","碧南市","232090110001","東山町一丁目","34.904895","137.001726","0","3"
"23","愛知県","23209","碧南市","232090110002","東山町二丁目","34.903158","137.001169","0","3"
"23","愛知県","23209","碧南市","232090110003","東山町三丁目","34.904334","137.000186","0","3"
"23","愛知県","23209","碧南市","232090110004","東山町四丁目","34.903546","136.999130","0","3"
"23","愛知県","23209","碧南市","232090110005","東山町五丁目","34.902369","136.998432","0","3"
"23","愛知県","23209","碧南市","232090110006","東山町六丁目","34.901340","136.999784","0","3"
"23","愛知県","23209","碧南市","232090111001","平山町一丁目","34.925421","137.030486","0","3"
"23","愛知県","23209","碧南市","232090111002","平山町二丁目","34.924030","137.029740","0","3"
"23","愛知県","23209","碧南市","232090111003","平山町三丁目","34.924599","137.031989","0","3"
"23","愛知県","23209","碧南市","232090112001","広見町一丁目","34.913748","136.998265","0","3"
"23","愛知県","23209","碧南市","232090112002","広見町二丁目","34.912224","136.999450","0","3"
"23","愛知県","23209","碧南市","232090112003","広見町三丁目","34.911002","137.000747","0","3"
"23","愛知県","23209","碧南市","232090113001","吹上町一丁目","34.913949","137.017028","0","3"
"23","愛知県","23209","碧南市","232090113002","吹上町二丁目","34.912453","137.016072","0","3"
"23","愛知県","23209","碧南市","232090113003","吹上町三丁目","34.911916","137.017957","0","3"
"23","愛知県","23209","碧南市","232090113004","吹上町四丁目","34.911084","137.018141","0","3"
"23","愛知県","23209","碧南市","232090114001","福清水町一丁目","34.892876","136.993012","0","3"
"23","愛知県","23209","碧南市","232090114002","福清水町二丁目","34.893183","136.994860","0","3"
"23","愛知県","23209","碧南市","232090114003","福清水町三丁目","34.891588","136.992740","0","3"
"23","愛知県","23209","碧南市","232090114004","福清水町四丁目","34.891029","136.994578","0","3"
"23","愛知県","23209","碧南市","232090115001","伏見町一丁目","34.882281","137.003731","0","3"
"23","愛知県","23209","碧南市","232090115002","伏見町二丁目","34.881518","137.004079","0","3"
"23","愛知県","23209","碧南市","232090115003","伏見町三丁目","34.881132","137.004936","0","3"
"23","愛知県","23209","碧南市","232090115004","伏見町四丁目","34.880656","137.006204","0","3"
"23","愛知県","23209","碧南市","232090116001","札木町一丁目","34.913575","137.010937","0","3"
"23","愛知県","23209","碧南市","232090116002","札木町二丁目","34.912486","137.013125","0","3"
"23","愛知県","23209","碧南市","232090116003","札木町三丁目","34.911464","137.012043","0","3"
"23","愛知県","23209","碧南市","232090116004","札木町四丁目","34.912801","137.009240","0","3"
"23","愛知県","23209","碧南市","232090116005","札木町五丁目","34.911833","137.008608","0","3"
"23","愛知県","23209","碧南市","232090117001","舟江町一丁目","34.870860","137.000248","0","3"
"23","愛知県","23209","碧南市","232090117002","舟江町二丁目","34.868170","136.999321","0","3"
"23","愛知県","23209","碧南市","232090118001","踏分町一丁目","34.896936","137.002705","0","3"
"23","愛知県","23209","碧南市","232090118002","踏分町二丁目","34.895452","137.001682","0","3"
"23","愛知県","23209","碧南市","232090119001","古川町一丁目","34.910704","137.003796","0","3"
"23","愛知県","23209","碧南市","232090119002","古川町二丁目","34.909802","137.001984","0","3"
"23","愛知県","23209","碧南市","232090119003","古川町三丁目","34.907997","137.003085","0","3"
"23","愛知県","23209","碧南市","232090120001","平七町一丁目","34.876045","136.996191","0","3"
"23","愛知県","23209","碧南市","232090120002","平七町二丁目","34.874168","136.994824","0","3"
"23","愛知県","23209","碧南市","232090120003","平七町三丁目","34.873506","136.996574","0","3"
"23","愛知県","23209","碧南市","232090120004","平七町四丁目","34.875266","136.997545","0","3"
"23","愛知県","23209","碧南市","232090120005","平七町五丁目","34.874231","136.998889","0","3"
"23","愛知県","23209","碧南市","232090121001","平和町一丁目","34.902955","137.006011","0","3"
"23","愛知県","23209","碧南市","232090121002","平和町二丁目","34.902679","137.008980","0","3"
"23","愛知県","23209","碧南市","232090121003","平和町三丁目","34.902202","137.013054","0","3"
"23","愛知県","23209","碧南市","232090122001","堀方町一丁目","34.896997","137.000751","0","3"
"23","愛知県","23209","碧南市","232090122002","堀方町二丁目","34.895116","136.999338","0","3"
"23","愛知県","23209","碧南市","232090122003","堀方町三丁目","34.893904","136.996962","0","3"
"23","愛知県","23209","碧南市","232090123001","本郷町一丁目","34.877253","136.982324","0","3"
"23","愛知県","23209","碧南市","232090123002","本郷町二丁目","34.876052","136.981651","0","3"
"23","愛知県","23209","碧南市","232090123003","本郷町三丁目","34.874833","136.980963","0","3"
"23","愛知県","23209","碧南市","232090124001","前浜町一丁目","34.856941","136.991182","0","3"
"23","愛知県","23209","碧南市","232090124002","前浜町二丁目","34.854819","136.989064","0","3"
"23","愛知県","23209","碧南市","232090124003","前浜町三丁目","34.853031","136.987347","0","3"
"23","愛知県","23209","碧南市","232090124004","前浜町四丁目","34.856589","136.984496","0","3"
"23","愛知県","23209","碧南市","232090124005","前浜町五丁目","34.858925","136.983699","0","3"
"23","愛知県","23209","碧南市","232090125001","松江町一丁目","34.905614","136.984540","0","3"
"23","愛知県","23209","碧南市","232090125002","松江町二丁目","34.907090","136.987406","0","3"
"23","愛知県","23209","碧南市","232090125003","松江町三丁目","34.905847","136.987359","0","3"
"23","愛知県","23209","碧南市","232090125004","松江町四丁目","34.904691","136.986379","0","3"
"23","愛知県","23209","碧南市","232090125005","松江町五丁目","34.903415","136.985151","0","3"
"23","愛知県","23209","碧南市","232090125006","松江町六丁目","34.903331","136.986748","0","3"
"23","愛知県","23209","碧南市","232090126001","松原町一丁目","34.924896","137.017947","0","3"
"23","愛知県","23209","碧南市","232090126002","松原町二丁目","34.924507","137.016983","0","3"
"23","愛知県","23209","碧南市","232090126003","松原町三丁目","34.923739","137.016355","0","3"
"23","愛知県","23209","碧南市","232090127000","松本町","34.884339","136.993856","0","1"
"23","愛知県","23209","碧南市","232090128001","丸山町一丁目","34.913413","136.995454","0","3"
"23","愛知県","23209","碧南市","232090128002","丸山町二丁目","34.911769","136.995006","0","3"
"23","愛知県","23209","碧南市","232090128003","丸山町三丁目","34.910583","136.997279","0","3"
"23","愛知県","23209","碧南市","232090128004","丸山町四丁目","34.910107","136.995228","0","3"
"23","愛知県","23209","碧南市","232090128005","丸山町五丁目","34.908887","136.996336","0","3"
"23","愛知県","23209","碧南市","232090128006","丸山町六丁目","34.908201","136.997266","0","3"
"23","愛知県","23209","碧南市","232090129001","見合町一丁目","34.899329","137.013599","0","3"
"23","愛知県","23209","碧南市","232090129002","見合町二丁目","34.897431","137.012819","0","3"
"23","愛知県","23209","碧南市","232090130001","岬町一丁目","34.859030","136.974138","0","3"
"23","愛知県","23209","碧南市","232090130002","岬町二丁目","34.857481","136.975380","0","3"
"23","愛知県","23209","碧南市","232090130003","岬町三丁目","34.856602","136.973477","0","3"
"23","愛知県","23209","碧南市","232090130005","岬町五丁目","34.855709","136.971359","0","3"
"23","愛知県","23209","碧南市","232090131001","緑町一丁目","34.895816","137.003743","0","3"
"23","愛知県","23209","碧南市","232090131002","緑町二丁目","34.895192","137.005733","0","3"
"23","愛知県","23209","碧南市","232090131003","緑町三丁目","34.893997","137.005451","0","3"
"23","愛知県","23209","碧南市","232090131004","緑町四丁目","34.894173","137.002195","0","3"
"23","愛知県","23209","碧南市","232090131005","緑町五丁目","34.893553","137.004214","0","3"
"23","愛知県","23209","碧南市","232090132000","港本町","34.868977","136.971860","0","1"
"23","愛知県","23209","碧南市","232090133001","三宅町一丁目","34.884192","137.012576","0","3"
"23","愛知県","23209","碧南市","232090133002","三宅町二丁目","34.883592","137.010569","0","3"
"23","愛知県","23209","碧南市","232090133003","三宅町三丁目","34.882911","137.007894","0","3"
"23","愛知県","23209","碧南市","232090133004","三宅町四丁目","34.881948","137.007979","0","3"
"23","愛知県","23209","碧南市","232090134001","宮後町一丁目","34.890304","136.986410","0","3"
"23","愛知県","23209","碧南市","232090134002","宮後町二丁目","34.890236","136.988702","0","3"
"23","愛知県","23209","碧南市","232090134003","宮後町三丁目","34.889379","136.986261","0","3"
"23","愛知県","23209","碧南市","232090134004","宮後町四丁目","34.889151","136.988616","0","3"
"23","愛知県","23209","碧南市","232090135001","宮町一丁目","34.864664","136.975207","0","3"
"23","愛知県","23209","碧南市","232090135002","宮町二丁目","34.864000","136.976703","0","3"
"23","愛知県","23209","碧南市","232090135003","宮町三丁目","34.863782","136.974739","0","3"
"23","愛知県","23209","碧南市","232090135004","宮町四丁目","34.862710","136.974912","0","3"
"23","愛知県","23209","碧南市","232090136001","桃山町一丁目","34.923627","137.024345","0","3"
"23","愛知県","23209","碧南市","232090136002","桃山町二丁目","34.923008","137.023319","0","3"
"23","愛知県","23209","碧南市","232090136003","桃山町三丁目","34.922490","137.022570","0","3"
"23","愛知県","23209","碧南市","232090136004","桃山町四丁目","34.922089","137.021978","0","3"
"23","愛知県","23209","碧南市","232090137001","屋敷町一丁目","34.921952","137.012056","0","3"
"23","愛知県","23209","碧南市","232090137002","屋敷町二丁目","34.920781","137.014094","0","3"
"23","愛知県","23209","碧南市","232090137003","屋敷町三丁目","34.920193","137.013251","0","3"
"23","愛知県","23209","碧南市","232090137004","屋敷町四丁目","34.920984","137.010793","0","3"
"23","愛知県","23209","碧南市","232090137005","屋敷町五丁目","34.919448","137.012589","0","3"
"23","愛知県","23209","碧南市","232090138001","矢縄町一丁目","34.873783","137.005904","0","3"
"23","愛知県","23209","碧南市","232090138002","矢縄町二丁目","34.872630","137.003675","0","3"
"23","愛知県","23209","碧南市","232090138003","矢縄町三丁目","34.871938","137.001865","0","3"
"23","愛知県","23209","碧南市","232090139001","山神町一丁目","34.901726","136.985377","0","3"
"23","愛知県","23209","碧南市","232090139002","山神町二丁目","34.901707","136.986544","0","3"
"23","愛知県","23209","碧南市","232090139003","山神町三丁目","34.901663","136.987547","0","3"
"23","愛知県","23209","碧南市","232090139004","山神町四丁目","34.901277","136.988755","0","3"
"23","愛知県","23209","碧南市","232090139005","山神町五丁目","34.900146","136.987873","0","3"
"23","愛知県","23209","碧南市","232090139006","山神町六丁目","34.900031","136.985895","0","3"
"23","愛知県","23209","碧南市","232090139007","山神町七丁目","34.899011","136.985781","0","3"
"23","愛知県","23209","碧南市","232090139008","山神町八丁目","34.898727","136.987455","0","3"
"23","愛知県","23209","碧南市","232090140000","山下町","34.907298","137.000792","0","1"
"23","愛知県","23209","碧南市","232090141001","弥生町一丁目","34.870377","136.985918","0","3"
"23","愛知県","23209","碧南市","232090141002","弥生町二丁目","34.870700","136.987281","0","3"
"23","愛知県","23209","碧南市","232090141003","弥生町三丁目","34.869386","136.988636","0","3"
"23","愛知県","23209","碧南市","232090141004","弥生町四丁目","34.868884","136.987486","0","3"
"23","愛知県","23209","碧南市","232090141005","弥生町五丁目","34.867085","136.987954","0","3"
"23","愛知県","23209","碧南市","232090142001","用久町一丁目","34.926305","137.026042","0","3"
"23","愛知県","23209","碧南市","232090142002","用久町二丁目","34.925368","137.025509","0","3"
"23","愛知県","23209","碧南市","232090142003","用久町三丁目","34.924907","137.024488","0","3"
"23","愛知県","23209","碧南市","232090142004","用久町四丁目","34.923646","137.027369","0","3"
"23","愛知県","23209","碧南市","232090142005","用久町五丁目","34.922608","137.026534","0","3"
"23","愛知県","23209","碧南市","232090143001","葭生町一丁目","34.854462","136.981300","0","3"
"23","愛知県","23209","碧南市","232090143002","葭生町二丁目","34.856891","136.979444","0","3"
"23","愛知県","23209","碧南市","232090144001","流作町一丁目","34.878760","137.017639","0","3"
"23","愛知県","23209","碧南市","232090144002","流作町二丁目","34.877663","137.014660","0","3"
"23","愛知県","23209","碧南市","232090144003","流作町三丁目","34.876348","137.011526","0","3"
"23","愛知県","23209","碧南市","232090144004","流作町四丁目","34.875029","137.008569","0","3"
"23","愛知県","23209","碧南市","232090145001","六軒町一丁目","34.910641","136.990190","0","3"
"23","愛知県","23209","碧南市","232090145002","六軒町二丁目","34.908777","136.990488","0","3"
"23","愛知県","23209","碧南市","232090145003","六軒町三丁目","34.907745","136.990259","0","3"
"23","愛知県","23209","碧南市","232090145004","六軒町四丁目","34.906503","136.990080","0","3"
"23","愛知県","23209","碧南市","232090145005","六軒町五丁目","34.906188","136.992038","0","3"
"23","愛知県","23209","碧南市","232090146001","若水町一丁目","34.927100","137.020765","0","3"
"23","愛知県","23209","碧南市","232090146002","若水町二丁目","34.926338","137.020021","0","3"
"23","愛知県","23209","碧南市","232090146003","若水町三丁目","34.925557","137.019532","0","3"
"23","愛知県","23209","碧南市","232090146004","若水町四丁目","34.925505","137.018300","0","3"
"23","愛知県","23209","碧南市","232090147001","若宮町一丁目","34.869138","136.990791","0","3"
"23","愛知県","23209","碧南市","232090147002","若宮町二丁目","34.868385","136.991951","0","3"
"23","愛知県","23209","碧南市","232090147003","若宮町三丁目","34.867890","136.992750","0","3"
"23","愛知県","23209","碧南市","232090147004","若宮町四丁目","34.868219","136.990027","0","3"
"23","愛知県","23209","碧南市","232090147005","若宮町五丁目","34.867240","136.989358","0","3"
"23","愛知県","23209","碧南市","232090147006","若宮町六丁目","34.866667","136.989951","0","3"
"23","愛知県","23209","碧南市","232090147007","若宮町七丁目","34.866985","136.992276","0","3"
"23","愛知県","23209","碧南市","232090148001","鷲塚町一丁目","34.887658","137.020869","0","3"
"23","愛知県","23209","碧南市","232090148002","鷲塚町二丁目","34.887294","137.022380","0","3"
"23","愛知県","23209","碧南市","232090148003","鷲塚町三丁目","34.888217","137.022720","0","3"
"23","愛知県","23209","碧南市","232090148004","鷲塚町四丁目","34.887539","137.024570","0","3"
"23","愛知県","23209","碧南市","232090148005","鷲塚町五丁目","34.885848","137.028127","0","3"
"23","愛知県","23209","碧南市","232090148006","鷲塚町六丁目","34.888434","137.027250","0","3"
"23","愛知県","23209","碧南市","232090148007","鷲塚町七丁目","34.886646","137.029780","0","3"
"23","愛知県","23209","碧南市","232090149001","鷲林町一丁目","34.885879","137.021707","0","3"
"23","愛知県","23209","碧南市","232090149002","鷲林町二丁目","34.885310","137.023339","0","3"
"23","愛知県","23209","碧南市","232090149003","鷲林町三丁目","34.885231","137.027596","0","3"
"23","愛知県","23209","碧南市","232090149004","鷲林町四丁目","34.883301","137.025549","0","3"
"23","愛知県","23209","碧南市","232090149005","鷲林町五丁目","34.884654","137.020929","0","3"
"23","愛知県","23209","碧南市","232090150004","権現町四丁目","34.854132","136.967171","0","3"
"23","愛知県","23209","碧南市","232090150003","権現町三丁目","34.856074","136.968380","0","3"
"23","愛知県","23209","碧南市","232090150002","権現町二丁目","34.857165","136.969897","0","3"
"23","愛知県","23209","碧南市","232090014005","入船町五丁目","34.860522","136.977782","0","3"
"23","愛知県","23209","碧南市","232090135005","宮町五丁目","34.861719","136.973479","0","3"
"23","愛知県","23209","碧南市","232090151001","若松町一丁目","34.862027","136.976748","0","3"
"23","愛知県","23209","碧南市","232090152000","玉津浦町","34.859704","136.964546","0","1"
"23","愛知県","23209","碧南市","232090135006","宮町六丁目","34.860296","136.971561","0","3"
"23","愛知県","23209","碧南市","232090130004","岬町四丁目","34.857894","136.972895","0","3"
"23","愛知県","23209","碧南市","232090150001","権現町一丁目","34.858594","136.970612","0","3"
"23","愛知県","23209","碧南市","232090135007","宮町七丁目","34.859646","136.972722","0","3"
"23","愛知県","23209","碧南市","232090151003","若松町三丁目","34.860020","136.976541","0","3"
"23","愛知県","23209","碧南市","232090151002","若松町二丁目","34.860670","136.975239","0","3"
