"PrefCode","PrefName","MuniCode","MuniName","DistCode","DistName","lat","lon","SrcCode","CatCode"
"23","愛知県","23201","豊橋市","232010001000","青竹町","34.760845","137.349365","0","1"
"23","愛知県","23201","豊橋市","232010002000","飽海町","34.771175","137.401897","0","1"
"23","愛知県","23201","豊橋市","232010003000","曙町","34.727511","137.400964","0","1"
"23","愛知県","23201","豊橋市","232010004000","明海町","34.712215","137.323339","0","1"
"23","愛知県","23201","豊橋市","232010005000","朝丘町","34.761727","137.418441","0","1"
"23","愛知県","23201","豊橋市","232010006000","旭本町","34.766531","137.401058","0","1"
"23","愛知県","23201","豊橋市","232010007000","旭町","34.767943","137.402393","0","1"
"23","愛知県","23201","豊橋市","232010008000","芦原町","34.719668","137.376647","0","1"
"23","愛知県","23201","豊橋市","232010009000","東田町","34.768167","137.419160","0","1"
"23","愛知県","23201","豊橋市","232010010000","東田中郷町","34.768309","137.409951","0","1"
"23","愛知県","23201","豊橋市","232010011000","東田仲の町","34.762717","137.416571","0","1"
"23","愛知県","23201","豊橋市","232010012000","吾妻町","34.763087","137.414277","0","1"
"23","愛知県","23201","豊橋市","232010013000","池見町","34.761526","137.412811","0","1"
"23","愛知県","23201","豊橋市","232010014000","伊古部町","34.670844","137.381950","0","1"
"23","愛知県","23201","豊橋市","232010015000","石巻小野田町","34.825777","137.448812","0","1"
"23","愛知県","23201","豊橋市","232010016000","石巻町","34.784699","137.455321","0","1"
"23","愛知県","23201","豊橋市","232010017000","石巻中山町","34.820967","137.486392","0","1"
"23","愛知県","23201","豊橋市","232010018000","石巻西川町","34.846525","137.463360","0","1"
"23","愛知県","23201","豊橋市","232010019000","石巻萩平町","34.835375","137.478140","0","1"
"23","愛知県","23201","豊橋市","232010020000","石巻平野町","34.827710","137.464142","0","1"
"23","愛知県","23201","豊橋市","232010021000","石巻本町","34.804985","137.444116","0","1"
"23","愛知県","23201","豊橋市","232010022000","磯辺下地町","34.719781","137.367667","0","1"
"23","愛知県","23201","豊橋市","232010023001","市場一丁目","34.749956","137.359634","0","3"
"23","愛知県","23201","豊橋市","232010024000","一色町","34.729252","137.371634","0","1"
"23","愛知県","23201","豊橋市","232010025000","井原町","34.766377","137.423505","0","1"
"23","愛知県","23201","豊橋市","232010026000","今橋町","34.770057","137.395579","0","1"
"23","愛知県","23201","豊橋市","232010027001","飯村北一丁目","34.747102","137.418155","0","3"
"23","愛知県","23201","豊橋市","232010027002","飯村北二丁目","34.746828","137.421325","0","3"
"23","愛知県","23201","豊橋市","232010027003","飯村北三丁目","34.746470","137.425209","0","3"
"23","愛知県","23201","豊橋市","232010027004","飯村北四丁目","34.747654","137.429506","0","3"
"23","愛知県","23201","豊橋市","232010027005","飯村北五丁目","34.746341","137.431482","0","3"
"23","愛知県","23201","豊橋市","232010028000","飯村町","34.742173","137.437161","0","1"
"23","愛知県","23201","豊橋市","232010029001","飯村南一丁目","34.745091","137.416709","0","3"
"23","愛知県","23201","豊橋市","232010029002","飯村南二丁目","34.742808","137.421603","0","3"
"23","愛知県","23201","豊橋市","232010029003","飯村南三丁目","34.743001","137.428389","0","3"
"23","愛知県","23201","豊橋市","232010029004","飯村南四丁目","34.741091","137.426122","0","3"
"23","愛知県","23201","豊橋市","232010029005","飯村南五丁目","34.739420","137.428006","0","3"
"23","愛知県","23201","豊橋市","232010030000","入船町","34.752540","137.383173","0","1"
"23","愛知県","23201","豊橋市","232010031000","岩崎町","34.748984","137.459625","0","1"
"23","愛知県","23201","豊橋市","232010032000","岩田町","34.751847","137.437424","0","1"
"23","愛知県","23201","豊橋市","232010033000","岩屋町","34.736243","137.424676","0","1"
"23","愛知県","23201","豊橋市","232010034000","上地町","34.766643","137.415281","0","1"
"23","愛知県","23201","豊橋市","232010035000","植田町","34.708255","137.366829","0","1"
"23","愛知県","23201","豊橋市","232010036000","上野町","34.723479","137.389468","0","1"
"23","愛知県","23201","豊橋市","232010037000","魚町","34.765395","137.389739","0","1"
"23","愛知県","23201","豊橋市","232010038000","牛川町","34.782002","137.416965","0","1"
"23","愛知県","23201","豊橋市","232010039001","牛川通一丁目","34.777082","137.419522","0","3"
"23","愛知県","23201","豊橋市","232010039002","牛川通二丁目","34.778676","137.417129","0","3"
"23","愛知県","23201","豊橋市","232010039003","牛川通三丁目","34.779521","137.421841","0","3"
"23","愛知県","23201","豊橋市","232010039004","牛川通四丁目","34.780691","137.427074","0","3"
"23","愛知県","23201","豊橋市","232010039005","牛川通五丁目","34.783497","137.423912","0","3"
"23","愛知県","23201","豊橋市","232010040000","牛川薬師町","34.772823","137.411624","0","1"
"23","愛知県","23201","豊橋市","232010041000","内張町","34.729051","137.376947","0","1"
"23","愛知県","23201","豊橋市","232010042000","雲谷町","34.735835","137.467404","0","1"
"23","愛知県","23201","豊橋市","232010043000","梅薮町","34.792210","137.327784","0","1"
"23","愛知県","23201","豊橋市","232010044000","梅薮西町","34.788986","137.326405","0","1"
"23","愛知県","23201","豊橋市","232010045000","瓜郷町","34.788276","137.380013","0","1"
"23","愛知県","23201","豊橋市","232010046001","駅前大通一丁目","34.762693","137.384143","0","3"
"23","愛知県","23201","豊橋市","232010046002","駅前大通二丁目","34.762714","137.386709","0","3"
"23","愛知県","23201","豊橋市","232010046003","駅前大通三丁目","34.762757","137.388703","0","3"
"23","愛知県","23201","豊橋市","232010047000","江島町","34.736371","137.406310","0","1"
"23","愛知県","23201","豊橋市","232010048000","老津町","34.692043","137.341524","0","1"
"23","愛知県","23201","豊橋市","232010049000","老松町","34.763422","137.408033","0","1"
"23","愛知県","23201","豊橋市","232010050000","往完町","34.756842","137.370108","0","1"
"23","愛知県","23201","豊橋市","232010051000","大井町","34.759478","137.411430","0","1"
"23","愛知県","23201","豊橋市","232010052000","大岩町","34.723127","137.438066","0","1"
"23","愛知県","23201","豊橋市","232010053000","大崎町","34.711925","137.346238","0","1"
"23","愛知県","23201","豊橋市","232010054000","大清水町","34.700213","137.357157","0","1"
"23","愛知県","23201","豊橋市","232010055000","大手町","34.764872","137.391662","0","1"
"23","愛知県","23201","豊橋市","232010056001","大橋通一丁目","34.765038","137.382226","0","3"
"23","愛知県","23201","豊橋市","232010056002","大橋通二丁目","34.766251","137.382111","0","3"
"23","愛知県","23201","豊橋市","232010056003","大橋通三丁目","34.769321","137.383084","0","3"
"23","愛知県","23201","豊橋市","232010057000","大村町","34.789269","137.396499","0","1"
"23","愛知県","23201","豊橋市","232010058000","大山町","34.722864","137.358142","0","1"
"23","愛知県","23201","豊橋市","232010059000","大脇町","34.733328","137.454360","0","1"
"23","愛知県","23201","豊橋市","232010060000","王ヶ崎町","34.737455","137.370817","0","1"
"23","愛知県","23201","豊橋市","232010061000","鍵田町","34.752345","137.391027","0","1"
"23","愛知県","23201","豊橋市","232010062000","鍛冶町","34.765028","137.398136","0","1"
"23","愛知県","23201","豊橋市","232010063001","春日町一丁目","34.756564","137.414601","0","3"
"23","愛知県","23201","豊橋市","232010063002","春日町二丁目","34.758046","137.416693","0","3"
"23","愛知県","23201","豊橋市","232010064000","曲尺手町","34.765561","137.395296","0","1"
"23","愛知県","23201","豊橋市","232010065000","上伝馬町","34.768481","137.386218","0","1"
"23","愛知県","23201","豊橋市","232010066000","神ノ輪町","34.742178","137.366554","0","1"
"23","愛知県","23201","豊橋市","232010067000","鴨田町","34.749004","137.385766","0","1"
"23","愛知県","23201","豊橋市","232010068000","賀茂町","34.836225","137.436499","0","1"
"23","愛知県","23201","豊橋市","232010069000","萱町","34.766198","137.385575","0","1"
"23","愛知県","23201","豊橋市","232010070000","川崎町","34.782040","137.358439","0","1"
"23","愛知県","23201","豊橋市","232010071000","瓦町","34.760495","137.409160","0","1"
"23","愛知県","23201","豊橋市","232010072001","瓦町通一丁目","34.761209","137.405498","0","3"
"23","愛知県","23201","豊橋市","232010072002","瓦町通二丁目","34.759522","137.407413","0","3"
"23","愛知県","23201","豊橋市","232010073001","北岩田一丁目","34.761073","137.435148","0","3"
"23","愛知県","23201","豊橋市","232010073002","北岩田二丁目","34.759703","137.437542","0","3"
"23","愛知県","23201","豊橋市","232010074000","北丘町","34.742488","137.386136","0","1"
"23","愛知県","23201","豊橋市","232010075000","北側町","34.764750","137.374215","0","1"
"23","愛知県","23201","豊橋市","232010076000","北島町","34.775515","137.377578","0","1"
"23","愛知県","23201","豊橋市","232010077000","北山町","34.735825","137.391003","0","1"
"23","愛知県","23201","豊橋市","232010078000","絹田町","34.768622","137.379657","0","1"
"23","愛知県","23201","豊橋市","232010079000","清須町","34.782246","137.352232","0","1"
"23","愛知県","23201","豊橋市","232010080000","草間町","34.734094","137.378790","0","1"
"23","愛知県","23201","豊橋市","232010081000","下条西町","34.797801","137.408830","0","1"
"23","愛知県","23201","豊橋市","232010082000","下条東町","34.798494","137.418906","0","1"
"23","愛知県","23201","豊橋市","232010083000","小池町","34.749157","137.389440","0","1"
"23","愛知県","23201","豊橋市","232010084000","小島町","34.683076","137.446799","0","1"
"23","愛知県","23201","豊橋市","232010085000","小畷町","34.758737","137.396244","0","1"
"23","愛知県","23201","豊橋市","232010086000","小浜町","34.739498","137.367556","0","1"
"23","愛知県","23201","豊橋市","232010087000","呉服町","34.765887","137.392667","0","1"
"23","愛知県","23201","豊橋市","232010088000","駒形町","34.728080","137.364673","0","1"
"23","愛知県","23201","豊橋市","232010089000","小松町","34.740902","137.391413","0","1"
"23","愛知県","23201","豊橋市","232010090000","小松原町","34.682690","137.437346","0","1"
"23","愛知県","23201","豊橋市","232010091000","小向町","34.765837","137.357455","0","1"
"23","愛知県","23201","豊橋市","232010092001","菰口町一丁目","34.772585","137.373453","0","3"
"23","愛知県","23201","豊橋市","232010092002","菰口町二丁目","34.771058","137.374967","0","3"
"23","愛知県","23201","豊橋市","232010092003","菰口町三丁目","34.769402","137.375573","0","3"
"23","愛知県","23201","豊橋市","232010092004","菰口町四丁目","34.768674","137.370760","0","3"
"23","愛知県","23201","豊橋市","232010092005","菰口町五丁目","34.770304","137.370028","0","3"
"23","愛知県","23201","豊橋市","232010092006","菰口町六丁目","34.772687","137.371361","0","3"
"23","愛知県","23201","豊橋市","232010093000","西郷町","34.770150","137.406308","0","1"
"23","愛知県","23201","豊橋市","232010094000","栄町","34.763845","137.417784","0","1"
"23","愛知県","23201","豊橋市","232010095001","佐藤一丁目","34.748618","137.402878","0","3"
"23","愛知県","23201","豊橋市","232010095002","佐藤二丁目","34.745776","137.407078","0","3"
"23","愛知県","23201","豊橋市","232010095003","佐藤三丁目","34.743490","137.409799","0","3"
"23","愛知県","23201","豊橋市","232010095004","佐藤四丁目","34.740409","137.407006","0","3"
"23","愛知県","23201","豊橋市","232010095005","佐藤五丁目","34.742846","137.404637","0","3"
"23","愛知県","23201","豊橋市","232010096000","佐藤町","34.738173","137.409239","0","1"
"23","愛知県","23201","豊橋市","232010097000","三本木町","34.723397","137.395497","0","1"
"23","愛知県","23201","豊橋市","232010098000","潮崎町","34.743663","137.368598","0","1"
"23","愛知県","23201","豊橋市","232010099000","東雲町","34.764597","137.415473","0","1"
"23","愛知県","23201","豊橋市","232010100000","下五井町","34.788929","137.366601","0","1"
"23","愛知県","23201","豊橋市","232010101000","下地町","34.781198","137.383911","0","1"
"23","愛知県","23201","豊橋市","232010102001","下地町一丁目","34.774138","137.386348","0","3"
"23","愛知県","23201","豊橋市","232010102002","下地町二丁目","34.775351","137.384944","0","3"
"23","愛知県","23201","豊橋市","232010102003","下地町三丁目","34.776420","137.383710","0","3"
"23","愛知県","23201","豊橋市","232010102004","下地町四丁目","34.777402","137.382176","0","3"
"23","愛知県","23201","豊橋市","232010102005","下地町五丁目","34.778782","137.380975","0","3"
"23","愛知県","23201","豊橋市","232010103000","白河町","34.761227","137.379692","0","1"
"23","愛知県","23201","豊橋市","232010104000","城下町","34.661300","137.344479","0","1"
"23","愛知県","23201","豊橋市","232010105000","城山町","34.726015","137.369734","0","1"
"23","愛知県","23201","豊橋市","232010106000","新川町","34.761268","137.388932","0","1"
"23","愛知県","23201","豊橋市","232010107000","新栄町","34.765094","137.364660","0","1"
"23","愛知県","23201","豊橋市","232010108000","新西浜町","34.784344","137.315384","0","1"
"23","愛知県","23201","豊橋市","232010109000","神野新田町","34.748793","137.333019","0","1"
"23","愛知県","23201","豊橋市","232010110001","神野西町一丁目","34.740752","137.315515","0","3"
"23","愛知県","23201","豊橋市","232010111000","神野ふ頭町","34.732769","137.331649","0","1"
"23","愛知県","23201","豊橋市","232010112000","新本町","34.766663","137.387049","0","1"
"23","愛知県","23201","豊橋市","232010113000","神明町","34.762861","137.390892","0","1"
"23","愛知県","23201","豊橋市","232010114000","新吉町","34.763431","137.393202","0","1"
"23","愛知県","23201","豊橋市","232010115000","杉山町","34.678578","137.322514","0","1"
"23","愛知県","23201","豊橋市","232010116000","嵩山町","34.798895","137.474373","0","1"
"23","愛知県","23201","豊橋市","232010117000","住吉町","34.762734","137.410219","0","1"
"23","愛知県","23201","豊橋市","232010118000","関屋町","34.769722","137.388376","0","1"
"23","愛知県","23201","豊橋市","232010119000","大国町","34.760464","137.390718","0","1"
"23","愛知県","23201","豊橋市","232010120000","高師石塚町","34.744906","137.391070","0","1"
"23","愛知県","23201","豊橋市","232010121000","高師町","34.728159","137.384064","0","1"
"23","愛知県","23201","豊橋市","232010122000","高師本郷町","34.717033","137.394263","0","1"
"23","愛知県","23201","豊橋市","232010123000","高洲町","34.768378","137.349719","0","1"
"23","愛知県","23201","豊橋市","232010124000","高田町","34.718420","137.416901","0","1"
"23","愛知県","23201","豊橋市","232010125000","高塚町","34.676787","137.398204","0","1"
"23","愛知県","23201","豊橋市","232010126001","忠興一丁目","34.775729","137.430687","0","3"
"23","愛知県","23201","豊橋市","232010126002","忠興二丁目","34.778428","137.431058","0","3"
"23","愛知県","23201","豊橋市","232010126003","忠興三丁目","34.782319","137.431689","0","3"
"23","愛知県","23201","豊橋市","232010127000","立花町","34.760363","137.376776","0","1"
"23","愛知県","23201","豊橋市","232010128000","多米町","34.762646","137.469415","0","1"
"23","愛知県","23201","豊橋市","232010129001","多米中町一丁目","34.760125","137.443682","0","3"
"23","愛知県","23201","豊橋市","232010129002","多米中町二丁目","34.760339","137.449906","0","3"
"23","愛知県","23201","豊橋市","232010129003","多米中町三丁目","34.759937","137.447101","0","3"
"23","愛知県","23201","豊橋市","232010129004","多米中町四丁目","34.757711","137.445038","0","3"
"23","愛知県","23201","豊橋市","232010130001","多米西町一丁目","34.763631","137.435059","0","3"
"23","愛知県","23201","豊橋市","232010130002","多米西町二丁目","34.764490","137.438832","0","3"
"23","愛知県","23201","豊橋市","232010130003","多米西町三丁目","34.760758","137.439683","0","3"
"23","愛知県","23201","豊橋市","232010131001","多米東町一丁目","34.760270","137.453930","0","3"
"23","愛知県","23201","豊橋市","232010131002","多米東町二丁目","34.764113","137.457944","0","3"
"23","愛知県","23201","豊橋市","232010131003","多米東町三丁目","34.760505","137.457686","0","3"
"23","愛知県","23201","豊橋市","232010132000","談合町","34.764011","137.397434","0","1"
"23","愛知県","23201","豊橋市","232010133000","築地町","34.761783","137.372300","0","1"
"23","愛知県","23201","豊橋市","232010134001","つつじが丘一丁目","34.748822","137.396755","0","3"
"23","愛知県","23201","豊橋市","232010134002","つつじが丘二丁目","34.747176","137.398111","0","3"
"23","愛知県","23201","豊橋市","232010134003","つつじが丘三丁目","34.744469","137.399979","0","3"
"23","愛知県","23201","豊橋市","232010135000","寺沢町","34.681846","137.430668","0","1"
"23","愛知県","23201","豊橋市","232010136000","天伯町","34.708411","137.412944","0","1"
"23","愛知県","23201","豊橋市","232010137000","伝馬町","34.756834","137.411255","0","1"
"23","愛知県","23201","豊橋市","232010138000","堂浦町","34.753070","137.388963","0","1"
"23","愛知県","23201","豊橋市","232010139000","東光町","34.763028","137.420082","0","1"
"23","愛知県","23201","豊橋市","232010140000","東郷町","34.767072","137.411699","0","1"
"23","愛知県","23201","豊橋市","232010141000","堂坂町","34.749528","137.378947","0","1"
"23","愛知県","23201","豊橋市","232010142000","富本町","34.742960","137.384462","0","1"
"23","愛知県","23201","豊橋市","232010143000","豊岡町","34.757562","137.421677","0","1"
"23","愛知県","23201","豊橋市","232010144000","問屋町","34.763205","137.336176","0","1"
"23","愛知県","23201","豊橋市","232010145001","中岩田一丁目","34.755867","137.424569","0","3"
"23","愛知県","23201","豊橋市","232010145002","中岩田二丁目","34.752820","137.424741","0","3"
"23","愛知県","23201","豊橋市","232010145003","中岩田三丁目","34.749548","137.424845","0","3"
"23","愛知県","23201","豊橋市","232010145004","中岩田四丁目","34.755983","137.427948","0","3"
"23","愛知県","23201","豊橋市","232010145005","中岩田五丁目","34.752389","137.428134","0","3"
"23","愛知県","23201","豊橋市","232010145006","中岩田六丁目","34.749355","137.428348","0","3"
"23","愛知県","23201","豊橋市","232010146000","中郷町","34.755856","137.380519","0","1"
"23","愛知県","23201","豊橋市","232010147000","中柴町","34.759739","137.388846","0","1"
"23","愛知県","23201","豊橋市","232010148000","中世古町","34.763907","137.395400","0","1"
"23","愛知県","23201","豊橋市","232010149000","長瀬町","34.793755","137.400973","0","1"
"23","愛知県","23201","豊橋市","232010150000","中野町","34.734982","137.373718","0","1"
"23","愛知県","23201","豊橋市","232010151000","仲ノ町","34.758885","137.413762","0","1"
"23","愛知県","23201","豊橋市","232010152000","中橋良町","34.747876","137.382422","0","1"
"23","愛知県","23201","豊橋市","232010153000","中浜町","34.741142","137.372681","0","1"
"23","愛知県","23201","豊橋市","232010154000","中原町","34.720719","137.477348","0","1"
"23","愛知県","23201","豊橋市","232010155000","中松山町","34.757720","137.388980","0","1"
"23","愛知県","23201","豊橋市","232010156000","浪ノ上町","34.786770","137.423079","0","1"
"23","愛知県","23201","豊橋市","232010157000","西赤沢町","34.665304","137.353702","0","1"
"23","愛知県","23201","豊橋市","232010158001","西岩田一丁目","34.755203","137.417092","0","3"
"23","愛知県","23201","豊橋市","232010158002","西岩田二丁目","34.753312","137.417842","0","3"
"23","愛知県","23201","豊橋市","232010158003","西岩田三丁目","34.751012","137.417013","0","3"
"23","愛知県","23201","豊橋市","232010158004","西岩田四丁目","34.755046","137.420728","0","3"
"23","愛知県","23201","豊橋市","232010158005","西岩田五丁目","34.752597","137.420823","0","3"
"23","愛知県","23201","豊橋市","232010158006","西岩田六丁目","34.749609","137.420705","0","3"
"23","愛知県","23201","豊橋市","232010159001","西小鷹野一丁目","34.769173","137.423582","0","3"
"23","愛知県","23201","豊橋市","232010159002","西小鷹野二丁目","34.770722","137.425914","0","3"
"23","愛知県","23201","豊橋市","232010159003","西小鷹野三丁目","34.772887","137.425017","0","3"
"23","愛知県","23201","豊橋市","232010159004","西小鷹野四丁目","34.775332","137.425181","0","3"
"23","愛知県","23201","豊橋市","232010160000","西小田原町","34.760113","137.385058","0","1"
"23","愛知県","23201","豊橋市","232010161000","錦町","34.757806","137.374299","0","1"
"23","愛知県","23201","豊橋市","232010162000","西小池町","34.751833","137.386312","0","1"
"23","愛知県","23201","豊橋市","232010163000","西新町","34.764749","137.400180","0","1"
"23","愛知県","23201","豊橋市","232010164000","西高師町","34.716812","137.385887","0","1"
"23","愛知県","23201","豊橋市","232010165000","西七根町","34.679248","137.411511","0","1"
"23","愛知県","23201","豊橋市","232010166000","西橋良町","34.751348","137.379951","0","1"
"23","愛知県","23201","豊橋市","232010167000","西羽田町","34.759537","137.371707","0","1"
"23","愛知県","23201","豊橋市","232010168000","西浜町","34.785820","137.329537","0","1"
"23","愛知県","23201","豊橋市","232010169000","西松山町","34.757074","137.386936","0","1"
"23","愛知県","23201","豊橋市","232010170000","西幸町","34.728191","137.413531","0","1"
"23","愛知県","23201","豊橋市","232010171000","西山町","34.696503","137.451178","0","1"
"23","愛知県","23201","豊橋市","232010172000","仁連木町","34.770064","137.414103","0","1"
"23","愛知県","23201","豊橋市","232010173000","野黒町","34.758799","137.382381","0","1"
"23","愛知県","23201","豊橋市","232010174000","野田町","34.775217","137.371387","0","1"
"23","愛知県","23201","豊橋市","232010175001","野依台一丁目","34.699615","137.378275","0","3"
"23","愛知県","23201","豊橋市","232010175002","野依台二丁目","34.693492","137.370791","0","3"
"23","愛知県","23201","豊橋市","232010176000","野依町","34.700945","137.391525","0","1"
"23","愛知県","23201","豊橋市","232010177000","柱一番町","34.745455","137.383562","0","1"
"23","愛知県","23201","豊橋市","232010178000","柱九番町","34.743986","137.382820","0","1"
"23","愛知県","23201","豊橋市","232010179000","柱五番町","34.747983","137.373083","0","1"
"23","愛知県","23201","豊橋市","232010180000","柱三番町","34.748359","137.376842","0","1"
"23","愛知県","23201","豊橋市","232010181000","橋良町","34.741107","137.381176","0","1"
"23","愛知県","23201","豊橋市","232010182000","柱七番町","34.744649","137.376646","0","1"
"23","愛知県","23201","豊橋市","232010183000","柱二番町","34.746344","137.380009","0","1"
"23","愛知県","23201","豊橋市","232010184000","柱八番町","34.743057","137.379073","0","1"
"23","愛知県","23201","豊橋市","232010185000","柱四番町","34.749619","137.374943","0","1"
"23","愛知県","23201","豊橋市","232010186000","柱六番町","34.746616","137.375335","0","1"
"23","愛知県","23201","豊橋市","232010187000","畑ケ田町","34.709567","137.395904","0","1"
"23","愛知県","23201","豊橋市","232010188000","羽田町","34.764038","137.377407","0","1"
"23","愛知県","23201","豊橋市","232010189001","八町通一丁目","34.768611","137.389461","0","3"
"23","愛知県","23201","豊橋市","232010189002","八町通二丁目","34.767699","137.391577","0","3"
"23","愛知県","23201","豊橋市","232010189003","八町通三丁目","34.767120","137.393619","0","3"
"23","愛知県","23201","豊橋市","232010189004","八町通四丁目","34.766948","137.396230","0","3"
"23","愛知県","23201","豊橋市","232010189005","八町通五丁目","34.766783","137.398896","0","3"
"23","愛知県","23201","豊橋市","232010190000","花園町","34.765187","137.387165","0","1"
"23","愛知県","23201","豊橋市","232010191000","花田一番町","34.762945","137.379035","0","1"
"23","愛知県","23201","豊橋市","232010192000","花田三番町","34.763700","137.374520","0","1"
"23","愛知県","23201","豊橋市","232010193000","花田町","34.763075","137.369597","0","1"
"23","愛知県","23201","豊橋市","232010194000","花田二番町","34.762408","137.375343","0","1"
"23","愛知県","23201","豊橋市","232010195000","花中町","34.755857","137.384502","0","1"
"23","愛知県","23201","豊橋市","232010196000","羽根井町","34.754755","137.377088","0","1"
"23","愛知県","23201","豊橋市","232010197000","羽根井西町","34.754500","137.373550","0","1"
"23","愛知県","23201","豊橋市","232010198000","羽根井本町","34.758147","137.377249","0","1"
"23","愛知県","23201","豊橋市","232010199000","浜道町","34.718158","137.405758","0","1"
"23","愛知県","23201","豊橋市","232010200000","原町","34.710922","137.484646","0","1"
"23","愛知県","23201","豊橋市","232010201000","東赤沢町","34.665301","137.367282","0","1"
"23","愛知県","23201","豊橋市","232010202001","東岩田一丁目","34.756825","137.430663","0","3"
"23","愛知県","23201","豊橋市","232010202002","東岩田二丁目","34.756994","137.433360","0","3"
"23","愛知県","23201","豊橋市","232010202003","東岩田三丁目","34.752869","137.431342","0","3"
"23","愛知県","23201","豊橋市","232010202004","東岩田四丁目","34.750143","137.430678","0","3"
"23","愛知県","23201","豊橋市","232010203000","東大清水町","34.684099","137.377360","0","1"
"23","愛知県","23201","豊橋市","232010204001","東小鷹野一丁目","34.766280","137.427544","0","3"
"23","愛知県","23201","豊橋市","232010204002","東小鷹野二丁目","34.767299","137.430423","0","3"
"23","愛知県","23201","豊橋市","232010204003","東小鷹野三丁目","34.769743","137.430185","0","3"
"23","愛知県","23201","豊橋市","232010204004","東小鷹野四丁目","34.772249","137.430443","0","3"
"23","愛知県","23201","豊橋市","232010205000","東小田原町","34.760541","137.386916","0","1"
"23","愛知県","23201","豊橋市","232010206000","東小池町","34.750636","137.393460","0","1"
"23","愛知県","23201","豊橋市","232010207000","東小浜町","34.742643","137.375991","0","1"
"23","愛知県","23201","豊橋市","232010208000","東新町","34.763250","137.403512","0","1"
"23","愛知県","23201","豊橋市","232010209000","東高田町","34.713790","137.429086","0","1"
"23","愛知県","23201","豊橋市","232010210000","東七根町","34.684647","137.422516","0","1"
"23","愛知県","23201","豊橋市","232010211000","東橋良町","34.748831","137.383469","0","1"
"23","愛知県","23201","豊橋市","232010212000","東細谷町","34.692639","137.480479","0","1"
"23","愛知県","23201","豊橋市","232010213000","東松山町","34.756962","137.390367","0","1"
"23","愛知県","23201","豊橋市","232010214000","東幸町","34.734099","137.417584","0","1"
"23","愛知県","23201","豊橋市","232010215001","東森岡一丁目","34.786319","137.429816","0","3"
"23","愛知県","23201","豊橋市","232010215002","東森岡二丁目","34.786428","137.432704","0","3"
"23","愛知県","23201","豊橋市","232010216001","東脇一丁目","34.754286","137.364433","0","3"
"23","愛知県","23201","豊橋市","232010216002","東脇二丁目","34.752185","137.361768","0","3"
"23","愛知県","23201","豊橋市","232010216003","東脇三丁目","34.753241","137.369522","0","3"
"23","愛知県","23201","豊橋市","232010216004","東脇四丁目","34.750332","137.363713","0","3"
"23","愛知県","23201","豊橋市","232010217000","日色野町","34.787962","137.345751","0","1"
"23","愛知県","23201","豊橋市","232010218000","平川町","34.761749","137.421931","0","1"
"23","愛知県","23201","豊橋市","232010219001","平川本町一丁目","34.761508","137.423893","0","3"
"23","愛知県","23201","豊橋市","232010219002","平川本町二丁目","34.760378","137.426646","0","3"
"23","愛知県","23201","豊橋市","232010219003","平川本町三丁目","34.759834","137.429116","0","3"
"23","愛知県","23201","豊橋市","232010220000","平川南町","34.760579","137.420708","0","1"
"23","愛知県","23201","豊橋市","232010221001","広小路一丁目","34.764349","137.384338","0","3"
"23","愛知県","23201","豊橋市","232010221002","広小路二丁目","34.764246","137.386463","0","3"
"23","愛知県","23201","豊橋市","232010221003","広小路三丁目","34.764107","137.388743","0","3"
"23","愛知県","23201","豊橋市","232010222000","福岡町","34.746191","137.386162","0","1"
"23","愛知県","23201","豊橋市","232010223000","富久縞町","34.768712","137.336580","0","1"
"23","愛知県","23201","豊橋市","232010224000","藤沢町","34.744934","137.372427","0","1"
"23","愛知県","23201","豊橋市","232010225000","藤並町","34.724483","137.422435","0","1"
"23","愛知県","23201","豊橋市","232010226001","富士見台一丁目","34.682995","137.358168","0","3"
"23","愛知県","23201","豊橋市","232010226002","富士見台二丁目","34.680046","137.357704","0","3"
"23","愛知県","23201","豊橋市","232010226003","富士見台三丁目","34.679292","137.362469","0","3"
"23","愛知県","23201","豊橋市","232010226004","富士見台四丁目","34.677820","137.368706","0","3"
"23","愛知県","23201","豊橋市","232010226005","富士見台五丁目","34.675418","137.368464","0","3"
"23","愛知県","23201","豊橋市","232010226006","富士見台六丁目","34.676856","137.372354","0","3"
"23","愛知県","23201","豊橋市","232010227000","冨士見町","34.698777","137.442040","0","1"
"23","愛知県","23201","豊橋市","232010228000","二川町","34.722755","137.452557","0","1"
"23","愛知県","23201","豊橋市","232010229000","札木町","34.766658","137.390118","0","1"
"23","愛知県","23201","豊橋市","232010230000","船渡町","34.717897","137.354181","0","1"
"23","愛知県","23201","豊橋市","232010231000","舟原町","34.762637","137.399937","0","1"
"23","愛知県","23201","豊橋市","232010232000","船町","34.773264","137.382734","0","1"
"23","愛知県","23201","豊橋市","232010233000","豊栄町","34.703291","137.432043","0","1"
"23","愛知県","23201","豊橋市","232010234000","豊清町","34.713003","137.470369","0","1"
"23","愛知県","23201","豊橋市","232010235000","細谷町","34.691605","137.463177","0","1"
"23","愛知県","23201","豊橋市","232010236000","前芝町","34.782641","137.338136","0","1"
"23","愛知県","23201","豊橋市","232010237001","前田町一丁目","34.762277","137.395478","0","3"
"23","愛知県","23201","豊橋市","232010237002","前田町二丁目","34.760951","137.398456","0","3"
"23","愛知県","23201","豊橋市","232010238000","前田中町","34.760367","137.393408","0","1"
"23","愛知県","23201","豊橋市","232010239001","前田南町一丁目","34.756531","137.392554","0","3"
"23","愛知県","23201","豊橋市","232010239002","前田南町二丁目","34.753934","137.393729","0","3"
"23","愛知県","23201","豊橋市","232010240000","前畑町","34.766053","137.405959","0","1"
"23","愛知県","23201","豊橋市","232010241000","牧野町","34.736523","137.402194","0","1"
"23","愛知県","23201","豊橋市","232010242000","町畑町","34.740086","137.388002","0","1"
"23","愛知県","23201","豊橋市","232010243000","松井町","34.722973","137.373936","0","1"
"23","愛知県","23201","豊橋市","232010244001","松葉町一丁目","34.765209","137.384335","0","3"
"23","愛知県","23201","豊橋市","232010244002","松葉町二丁目","34.766223","137.384126","0","3"
"23","愛知県","23201","豊橋市","232010244003","松葉町三丁目","34.768015","137.384020","0","3"
"23","愛知県","23201","豊橋市","232010245000","松村町","34.751291","137.383213","0","1"
"23","愛知県","23201","豊橋市","232010246000","馬見塚町","34.772113","137.357348","0","1"
"23","愛知県","23201","豊橋市","232010247000","御園町","34.770568","137.409314","0","1"
"23","愛知県","23201","豊橋市","232010248000","三ツ相町","34.775964","137.364448","0","1"
"23","愛知県","23201","豊橋市","232010249000","三弥町","34.714363","137.460295","0","1"
"23","愛知県","23201","豊橋市","232010250001","緑ケ丘一丁目","34.778593","137.435115","0","3"
"23","愛知県","23201","豊橋市","232010250002","緑ケ丘二丁目","34.775985","137.435996","0","3"
"23","愛知県","23201","豊橋市","232010251000","湊町","34.771126","137.385568","0","1"
"23","愛知県","23201","豊橋市","232010252000","南旭町","34.765169","137.403937","0","1"
"23","愛知県","23201","豊橋市","232010253001","南牛川一丁目","34.771516","137.420542","0","3"
"23","愛知県","23201","豊橋市","232010253002","南牛川二丁目","34.774900","137.419113","0","3"
"23","愛知県","23201","豊橋市","232010254000","南大清水町","34.688535","137.364487","0","1"
"23","愛知県","23201","豊橋市","232010255000","南瓦町","34.759523","137.405866","0","1"
"23","愛知県","23201","豊橋市","232010256000","南小池町","34.746001","137.388891","0","1"
"23","愛知県","23201","豊橋市","232010257000","南栄町","34.735217","137.385952","0","1"
"23","愛知県","23201","豊橋市","232010258001","南島町一丁目","34.770922","137.380007","0","3"
"23","愛知県","23201","豊橋市","232010258002","南島町二丁目","34.770928","137.378538","0","3"
"23","愛知県","23201","豊橋市","232010259000","南松山町","34.755496","137.388809","0","1"
"23","愛知県","23201","豊橋市","232010260000","三ノ輪町","34.749235","137.410428","0","1"
"23","愛知県","23201","豊橋市","232010261001","三ノ輪町一丁目","34.755969","137.409469","0","3"
"23","愛知県","23201","豊橋市","232010261002","三ノ輪町二丁目","34.754794","137.413148","0","3"
"23","愛知県","23201","豊橋市","232010261003","三ノ輪町三丁目","34.752617","137.414404","0","3"
"23","愛知県","23201","豊橋市","232010261004","三ノ輪町四丁目","34.753531","137.410364","0","3"
"23","愛知県","23201","豊橋市","232010261005","三ノ輪町五丁目","34.751742","137.410709","0","3"
"23","愛知県","23201","豊橋市","232010262000","宮下町","34.760632","137.416957","0","1"
"23","愛知県","23201","豊橋市","232010263000","向山大池町","34.755916","137.404704","0","1"
"23","愛知県","23201","豊橋市","232010264000","向山台町","34.758281","137.401168","0","1"
"23","愛知県","23201","豊橋市","232010265000","向山町","34.753763","137.399556","0","1"
"23","愛知県","23201","豊橋市","232010266000","向山西町","34.759618","137.403021","0","1"
"23","愛知県","23201","豊橋市","232010267000","向山東町","34.754699","137.406955","0","1"
"23","愛知県","23201","豊橋市","232010268000","向草間町","34.726500","137.375648","0","1"
"23","愛知県","23201","豊橋市","232010269000","牟呂市場町","34.747841","137.358174","0","1"
"23","愛知県","23201","豊橋市","232010270000","牟呂大西町","34.753823","137.356182","0","1"
"23","愛知県","23201","豊橋市","232010271000","牟呂公文町","34.753731","137.359339","0","1"
"23","愛知県","23201","豊橋市","232010272000","牟呂水神町","34.757759","137.357647","0","1"
"23","愛知県","23201","豊橋市","232010273000","牟呂町","34.755124","137.344772","0","1"
"23","愛知県","23201","豊橋市","232010274000","牟呂外神町","34.756875","137.361362","0","1"
"23","愛知県","23201","豊橋市","232010275000","牟呂中村町","34.750031","137.356244","0","1"
"23","愛知県","23201","豊橋市","232010276000","森岡町","34.788070","137.426955","0","1"
"23","愛知県","23201","豊橋市","232010277000","柳生町","34.752689","137.387684","0","1"
"23","愛知県","23201","豊橋市","232010278000","八通町","34.758526","137.380481","0","1"
"23","愛知県","23201","豊橋市","232010279000","山田一番町","34.743824","137.394981","0","1"
"23","愛知県","23201","豊橋市","232010280000","山田三番町","34.740771","137.399023","0","1"
"23","愛知県","23201","豊橋市","232010281000","山田町","34.745506","137.392628","0","1"
"23","愛知県","23201","豊橋市","232010282000","山田二番町","34.741075","137.395067","0","1"
"23","愛知県","23201","豊橋市","232010283000","弥生町","34.733931","137.392577","0","1"
"23","愛知県","23201","豊橋市","232010284000","有楽町","34.750023","137.383089","0","1"
"23","愛知県","23201","豊橋市","232010285000","横須賀町","34.781755","137.367790","0","1"
"23","愛知県","23201","豊橋市","232010286000","吉川町","34.771481","137.363456","0","1"
"23","愛知県","23201","豊橋市","232010287000","吉前町","34.772691","137.331296","0","1"
"23","愛知県","23201","豊橋市","232010288000","若松町","34.689069","137.389565","0","1"
