"PrefCode","PrefName","MuniCode","MuniName","DistCode","DistName","lat","lon","SrcCode","CatCode"
"23","愛知県","23202","岡崎市","232020001000","葵町","34.970876","137.157372","0","1"
"23","愛知県","23202","岡崎市","232020002000","青木町","34.994419","137.168045","0","1"
"23","愛知県","23202","岡崎市","232020003000","赤渋町","34.930975","137.137859","0","1"
"23","愛知県","23202","岡崎市","232020004000","雨山町","34.899780","137.387113","0","1"
"23","愛知県","23202","岡崎市","232020005000","新居町","35.003685","137.258401","0","1"
"23","愛知県","23202","岡崎市","232020006000","淡渕町","34.929183","137.334192","0","1"
"23","愛知県","23202","岡崎市","232020007000","安藤町","34.892468","137.117740","0","1"
"23","愛知県","23202","岡崎市","232020008000","伊賀新町","34.973564","137.174541","0","1"
"23","愛知県","23202","岡崎市","232020009000","伊賀町","34.969750","137.167680","0","1"
"23","愛知県","23202","岡崎市","232020010000","池金町","34.915894","137.251196","0","1"
"23","愛知県","23202","岡崎市","232020011000","井沢町","34.981026","137.340530","0","1"
"23","愛知県","23202","岡崎市","232020012000","石神町","34.971447","137.174816","0","1"
"23","愛知県","23202","岡崎市","232020013000","石原町","34.936423","137.392358","0","1"
"23","愛知県","23202","岡崎市","232020014000","井田新町","34.977276","137.162512","0","1"
"23","愛知県","23202","岡崎市","232020015000","板田町","34.966320","137.234513","0","1"
"23","愛知県","23202","岡崎市","232020016000","井田町","34.977478","137.176431","0","1"
"23","愛知県","23202","岡崎市","232020017000","井田西町","34.976228","137.159120","0","1"
"23","愛知県","23202","岡崎市","232020018000","井田南町","34.974821","137.161797","0","1"
"23","愛知県","23202","岡崎市","232020019000","板屋町","34.953519","137.154986","0","1"
"23","愛知県","23202","岡崎市","232020020000","市場町","34.911317","137.229668","0","1"
"23","愛知県","23202","岡崎市","232020021000","一色町","35.008240","137.277135","0","1"
"23","愛知県","23202","岡崎市","232020022000","井内町","34.920470","137.145742","0","1"
"23","愛知県","23202","岡崎市","232020023000","稲熊町","34.967769","137.182376","0","1"
"23","愛知県","23202","岡崎市","232020024000","井ノ口新町","34.990370","137.166213","0","1"
"23","愛知県","23202","岡崎市","232020025000","井ノ口町","34.986731","137.165527","0","1"
"23","愛知県","23202","岡崎市","232020026000","岩戸町","34.967491","137.248384","0","1"
"23","愛知県","23202","岡崎市","232020027000","岩中町","34.979359","137.249539","0","1"
"23","愛知県","23202","岡崎市","232020028001","上地一丁目","34.907995","137.162879","0","3"
"23","愛知県","23202","岡崎市","232020028002","上地二丁目","34.910371","137.166733","0","3"
"23","愛知県","23202","岡崎市","232020028003","上地三丁目","34.913584","137.172178","0","3"
"23","愛知県","23202","岡崎市","232020028004","上地四丁目","34.911702","137.176742","0","3"
"23","愛知県","23202","岡崎市","232020028005","上地五丁目","34.907869","137.168165","0","3"
"23","愛知県","23202","岡崎市","232020028006","上地六丁目","34.904246","137.164323","0","3"
"23","愛知県","23202","岡崎市","232020029000","上地町","34.899927","137.158096","0","1"
"23","愛知県","23202","岡崎市","232020030000","宇頭町","34.971615","137.118462","0","1"
"23","愛知県","23202","岡崎市","232020031000","宇頭東町","34.969417","137.123932","0","1"
"23","愛知県","23202","岡崎市","232020032000","宇頭南町","34.968346","137.121875","0","1"
"23","愛知県","23202","岡崎市","232020033000","梅園町","34.960750","137.173282","0","1"
"23","愛知県","23202","岡崎市","232020034001","江口一丁目","34.936641","137.154349","0","3"
"23","愛知県","23202","岡崎市","232020034002","江口二丁目","34.934517","137.156507","0","3"
"23","愛知県","23202","岡崎市","232020034003","江口三丁目","34.934713","137.158368","0","3"
"23","愛知県","23202","岡崎市","232020035000","恵田町","35.012065","137.200845","0","1"
"23","愛知県","23202","岡崎市","232020036000","生平町","34.933898","137.252428","0","1"
"23","愛知県","23202","岡崎市","232020037000","小美町","34.942491","137.228385","0","1"
"23","愛知県","23202","岡崎市","232020038000","大井野町","34.982893","137.232754","0","1"
"23","愛知県","23202","岡崎市","232020039000","大代町","34.902028","137.362961","0","1"
"23","愛知県","23202","岡崎市","232020040000","大高味町","34.967113","137.284336","0","1"
"23","愛知県","23202","岡崎市","232020041001","大西一丁目","34.943125","137.182109","0","3"
"23","愛知県","23202","岡崎市","232020041002","大西二丁目","34.940818","137.184457","0","3"
"23","愛知県","23202","岡崎市","232020041003","大西三丁目","34.941075","137.181428","0","3"
"23","愛知県","23202","岡崎市","232020042000","大西町","34.938345","137.184528","0","1"
"23","愛知県","23202","岡崎市","232020043000","大幡町","34.907444","137.269623","0","1"
"23","愛知県","23202","岡崎市","232020044000","大平町","34.940817","137.193557","0","1"
"23","愛知県","23202","岡崎市","232020045000","大柳町","35.017091","137.253482","0","1"
"23","愛知県","23202","岡崎市","232020046000","岡町","34.926391","137.208304","0","1"
"23","愛知県","23202","岡崎市","232020047000","小久田町","35.003603","137.336354","0","1"
"23","愛知県","23202","岡崎市","232020048000","奥殿町","35.024283","137.212708","0","1"
"23","愛知県","23202","岡崎市","232020049000","奥山田町","35.018835","137.190781","0","1"
"23","愛知県","23202","岡崎市","232020050000","小呂町","34.961016","137.198474","0","1"
"23","愛知県","23202","岡崎市","232020051000","鹿勝川町","34.896055","137.308017","0","1"
"23","愛知県","23202","岡崎市","232020052000","柿田町","34.968601","137.159774","0","1"
"23","愛知県","23202","岡崎市","232020053000","欠町","34.954897","137.192219","0","1"
"23","愛知県","23202","岡崎市","232020054000","籠田町","34.959241","137.167362","0","1"
"23","愛知県","23202","岡崎市","232020055000","鍛埜町","34.986681","137.289885","0","1"
"23","愛知県","23202","岡崎市","232020056000","樫山町","34.922837","137.283848","0","1"
"23","愛知県","23202","岡崎市","232020057000","片寄町","34.926011","137.315214","0","1"
"23","愛知県","23202","岡崎市","232020058000","上青野町","34.920670","137.122803","0","1"
"23","愛知県","23202","岡崎市","232020059000","上佐々木町","34.939323","137.123205","0","1"
"23","愛知県","23202","岡崎市","232020060001","上里一丁目","34.995443","137.162499","0","3"
"23","愛知県","23202","岡崎市","232020060002","上里二丁目","34.990680","137.162249","0","3"
"23","愛知県","23202","岡崎市","232020060003","上里三丁目","34.992503","137.156808","0","3"
"23","愛知県","23202","岡崎市","232020061000","上衣文町","34.893923","137.274802","0","1"
"23","愛知県","23202","岡崎市","232020062000","上三ツ木町","34.902973","137.127498","0","1"
"23","愛知県","23202","岡崎市","232020063001","上六名一丁目","34.949610","137.152558","0","3"
"23","愛知県","23202","岡崎市","232020063002","上六名二丁目","34.949570","137.155711","0","3"
"23","愛知県","23202","岡崎市","232020063003","上六名三丁目","34.945567","137.159695","0","3"
"23","愛知県","23202","岡崎市","232020063004","上六名四丁目","34.942036","137.159197","0","3"
"23","愛知県","23202","岡崎市","232020064000","上六名町","34.950550","137.156774","0","1"
"23","愛知県","23202","岡崎市","232020065000","上和田町","34.931174","137.151921","0","1"
"23","愛知県","23202","岡崎市","232020066000","鴨田町","34.981725","137.165957","0","1"
"23","愛知県","23202","岡崎市","232020067000","鴨田本町","34.980977","137.171338","0","1"
"23","愛知県","23202","岡崎市","232020068000","鴨田南町","34.979403","137.163703","0","1"
"23","愛知県","23202","岡崎市","232020069000","川向町","35.035076","137.230291","0","1"
"23","愛知県","23202","岡崎市","232020070000","河原町","34.991908","137.172428","0","1"
"23","愛知県","23202","岡崎市","232020071000","木下町","34.968433","137.347678","0","1"
"23","愛知県","23202","岡崎市","232020072000","北野町","34.990974","137.140487","0","1"
"23","愛知県","23202","岡崎市","232020073000","北本郷町","34.959987","137.131855","0","1"
"23","愛知県","23202","岡崎市","232020074000","切越町","34.945120","137.289458","0","1"
"23","愛知県","23202","岡崎市","232020075000","切山町","34.997908","137.362529","0","1"
"23","愛知県","23202","岡崎市","232020076000","久後崎町","34.952029","137.159914","0","1"
"23","愛知県","23202","岡崎市","232020077000","国正町","34.900872","137.138879","0","1"
"23","愛知県","23202","岡崎市","232020078000","蔵次町","34.991447","137.252384","0","1"
"23","愛知県","23202","岡崎市","232020079000","暮戸町","34.965764","137.129323","0","1"
"23","愛知県","23202","岡崎市","232020080000","桑谷町","34.886985","137.214228","0","1"
"23","愛知県","23202","岡崎市","232020081000","桑原町","35.029413","137.188487","0","1"
"23","愛知県","23202","岡崎市","232020082000","毛呂町","34.993865","137.344606","0","1"
"23","愛知県","23202","岡崎市","232020083000","康生町","34.955816","137.159942","0","1"
"23","愛知県","23202","岡崎市","232020084002","康生通南二丁目","34.956171","137.164873","0","3"
"23","愛知県","23202","岡崎市","232020085000","高隆寺町","34.952502","137.216260","0","1"
"23","愛知県","23202","岡崎市","232020086000","寿町","34.987604","137.168861","0","1"
"23","愛知県","23202","岡崎市","232020087000","古部町","34.954003","137.285288","0","1"
"23","愛知県","23202","岡崎市","232020088000","駒立町","35.010787","137.228083","0","1"
"23","愛知県","23202","岡崎市","232020089000","小丸町","34.999995","137.268600","0","1"
"23","愛知県","23202","岡崎市","232020090000","才栗町","34.958959","137.237753","0","1"
"23","愛知県","23202","岡崎市","232020091000","在家町","34.908435","137.131897","0","1"
"23","愛知県","23202","岡崎市","232020092000","坂左右町","34.905855","137.140539","0","1"
"23","愛知県","23202","岡崎市","232020093000","桜井寺町","34.932611","137.272825","0","1"
"23","愛知県","23202","岡崎市","232020094000","桜形町","34.984032","137.312301","0","1"
"23","愛知県","23202","岡崎市","232020095000","定国町","34.893338","137.138806","0","1"
"23","愛知県","23202","岡崎市","232020096000","島坂町","34.940965","137.112746","0","1"
"23","愛知県","23202","岡崎市","232020097000","島町","34.955452","137.169116","0","1"
"23","愛知県","23202","岡崎市","232020098000","下青野町","34.909713","137.124836","0","1"
"23","愛知県","23202","岡崎市","232020099000","下佐々木町","34.933288","137.120722","0","1"
"23","愛知県","23202","岡崎市","232020100000","下衣文町","34.918778","137.269872","0","1"
"23","愛知県","23202","岡崎市","232020101000","下三ツ木町","34.898995","137.122435","0","1"
"23","愛知県","23202","岡崎市","232020102000","下和田町","34.909483","137.141590","0","1"
"23","愛知県","23202","岡崎市","232020103001","庄司田一丁目","34.921881","137.168469","0","3"
"23","愛知県","23202","岡崎市","232020103002","庄司田二丁目","34.919248","137.169034","0","3"
"23","愛知県","23202","岡崎市","232020103003","庄司田三丁目","34.919910","137.172339","0","3"
"23","愛知県","23202","岡崎市","232020104000","正名町","34.892850","137.131752","0","1"
"23","愛知県","23202","岡崎市","232020105000","城北町","34.965600","137.158173","0","1"
"23","愛知県","23202","岡崎市","232020106000","昭和町","34.945586","137.116934","0","1"
"23","愛知県","23202","岡崎市","232020107000","真宮町","34.943982","137.152225","0","1"
"23","愛知県","23202","岡崎市","232020108001","真伝一丁目","34.979116","137.182259","0","3"
"23","愛知県","23202","岡崎市","232020108002","真伝二丁目","34.980034","137.183214","0","3"
"23","愛知県","23202","岡崎市","232020109000","真伝町","34.981787","137.185201","0","1"
"23","愛知県","23202","岡崎市","232020110000","末広町","34.966093","137.155888","0","1"
"23","愛知県","23202","岡崎市","232020111000","須淵町","34.969948","137.262467","0","1"
"23","愛知県","23202","岡崎市","232020112000","千万町町","34.975705","137.383823","0","1"
"23","愛知県","23202","岡崎市","232020113000","外山町","35.015250","137.286948","0","1"
"23","愛知県","23202","岡崎市","232020114001","大樹寺一丁目","34.980482","137.157790","0","3"
"23","愛知県","23202","岡崎市","232020114002","大樹寺二丁目","34.984229","137.156486","0","3"
"23","愛知県","23202","岡崎市","232020114003","大樹寺三丁目","34.983196","137.159179","0","3"
"23","愛知県","23202","岡崎市","232020115001","大門一丁目","34.981038","137.150678","0","3"
"23","愛知県","23202","岡崎市","232020115002","大門二丁目","34.985687","137.147479","0","3"
"23","愛知県","23202","岡崎市","232020115003","大門三丁目","34.990976","137.150671","0","3"
"23","愛知県","23202","岡崎市","232020115004","大門四丁目","34.987405","137.153205","0","3"
"23","愛知県","23202","岡崎市","232020115005","大門五丁目","34.984224","137.152521","0","3"
"23","愛知県","23202","岡崎市","232020116000","大和町","34.949276","137.125990","0","1"
"23","愛知県","23202","岡崎市","232020117000","高橋町","34.917973","137.117834","0","1"
"23","愛知県","23202","岡崎市","232020118000","滝尻町","34.919400","137.334492","0","1"
"23","愛知県","23202","岡崎市","232020119000","滝町","34.990591","137.201713","0","1"
"23","愛知県","23202","岡崎市","232020120000","田口町","34.971469","137.223916","0","1"
"23","愛知県","23202","岡崎市","232020121000","竜美旭町","34.943697","137.176009","0","1"
"23","愛知県","23202","岡崎市","232020122001","竜美北一丁目","34.944288","137.171468","0","3"
"23","愛知県","23202","岡崎市","232020122002","竜美北二丁目","34.942664","137.171360","0","3"
"23","愛知県","23202","岡崎市","232020123000","竜美新町","34.936813","137.182971","0","1"
"23","愛知県","23202","岡崎市","232020124001","竜美台一丁目","34.937482","137.177333","0","3"
"23","愛知県","23202","岡崎市","232020124002","竜美台二丁目","34.935254","137.179210","0","3"
"23","愛知県","23202","岡崎市","232020125001","竜美中一丁目","34.941213","137.171076","0","3"
"23","愛知県","23202","岡崎市","232020125002","竜美中二丁目","34.939903","137.171079","0","3"
"23","愛知県","23202","岡崎市","232020126001","竜美西一丁目","34.941270","137.167412","0","3"
"23","愛知県","23202","岡崎市","232020126002","竜美西二丁目","34.940020","137.165587","0","3"
"23","愛知県","23202","岡崎市","232020127001","竜美東一丁目","34.941139","137.176142","0","3"
"23","愛知県","23202","岡崎市","232020127002","竜美東二丁目","34.939943","137.179255","0","3"
"23","愛知県","23202","岡崎市","232020127003","竜美東三丁目","34.937955","137.180570","0","3"
"23","愛知県","23202","岡崎市","232020128001","竜美南一丁目","34.937036","137.167669","0","3"
"23","愛知県","23202","岡崎市","232020128002","竜美南二丁目","34.938157","137.170137","0","3"
"23","愛知県","23202","岡崎市","232020128003","竜美南三丁目","34.938184","137.172348","0","3"
"23","愛知県","23202","岡崎市","232020128004","竜美南四丁目","34.936302","137.171754","0","3"
"23","愛知県","23202","岡崎市","232020129000","田町","34.959262","137.156566","0","1"
"23","愛知県","23202","岡崎市","232020130000","丹坂町","35.010318","137.212219","0","1"
"23","愛知県","23202","岡崎市","232020131000","茅原沢町","34.943029","137.255260","0","1"
"23","愛知県","23202","岡崎市","232020132000","筒針町","34.950778","137.134971","0","1"
"23","愛知県","23202","岡崎市","232020133000","天白町","34.938130","137.146117","0","1"
"23","愛知県","23202","岡崎市","232020134000","土井町","34.918644","137.135087","0","1"
"23","愛知県","23202","岡崎市","232020135000","百々町","34.987201","137.173803","0","1"
"23","愛知県","23202","岡崎市","232020136000","百々西町","34.990405","137.169745","0","1"
"23","愛知県","23202","岡崎市","232020137000","鶇巣町","34.896906","137.287953","0","1"
"23","愛知県","23202","岡崎市","232020138000","戸崎新町","34.938131","137.160819","0","1"
"23","愛知県","23202","岡崎市","232020139000","戸崎町","34.934177","137.164740","0","1"
"23","愛知県","23202","岡崎市","232020140000","戸崎元町","34.934414","137.159896","0","1"
"23","愛知県","23202","岡崎市","232020141000","富永町","34.956325","137.120099","0","1"
"23","愛知県","23202","岡崎市","232020142000","鳥川町","34.898192","137.334796","0","1"
"23","愛知県","23202","岡崎市","232020143000","冨尾町","35.009192","137.322465","0","1"
"23","愛知県","23202","岡崎市","232020144000","中伊町","34.995263","137.282158","0","1"
"23","愛知県","23202","岡崎市","232020145000","中伊西町","34.990713","137.270160","0","1"
"23","愛知県","23202","岡崎市","232020146000","中岡崎町","34.956786","137.154281","0","1"
"23","愛知県","23202","岡崎市","232020147000","中金町","34.927463","137.360279","0","1"
"23","愛知県","23202","岡崎市","232020148000","中島町","34.882464","137.112444","0","1"
"23","愛知県","23202","岡崎市","232020149000","中園町","34.969950","137.141853","0","1"
"23","愛知県","23202","岡崎市","232020150000","中田町","34.931399","137.158341","0","1"
"23","愛知県","23202","岡崎市","232020151000","中之郷町","34.927011","137.129237","0","1"
"23","愛知県","23202","岡崎市","232020152000","中村町","34.897615","137.136901","0","1"
"23","愛知県","23202","岡崎市","232020153000","夏山町","34.948143","137.319250","0","1"
"23","愛知県","23202","岡崎市","232020154000","新堀町","34.951136","137.116267","0","1"
"23","愛知県","23202","岡崎市","232020155000","西阿知和町","34.994549","137.179835","0","1"
"23","愛知県","23202","岡崎市","232020156000","西魚町","34.961456","137.158017","0","1"
"23","愛知県","23202","岡崎市","232020157000","西大友町","34.972119","137.130467","0","1"
"23","愛知県","23202","岡崎市","232020158000","錦町","34.972688","137.161325","0","1"
"23","愛知県","23202","岡崎市","232020159000","西本郷町","34.963448","137.122984","0","1"
"23","愛知県","23202","岡崎市","232020160000","根石町","34.950289","137.181918","0","1"
"23","愛知県","23202","岡崎市","232020161000","合歓木町","34.910382","137.113087","0","1"
"23","愛知県","23202","岡崎市","232020162000","野畑町","34.913123","137.144027","0","1"
"23","愛知県","23202","岡崎市","232020163000","羽栗町","34.887106","137.230085","0","1"
"23","愛知県","23202","岡崎市","232020164000","箱柳町","34.969846","137.205944","0","1"
"23","愛知県","23202","岡崎市","232020165000","橋目町","34.985019","137.134076","0","1"
"23","愛知県","23202","岡崎市","232020166001","柱一丁目","34.922896","137.156606","0","3"
"23","愛知県","23202","岡崎市","232020166002","柱二丁目","34.924600","137.155192","0","3"
"23","愛知県","23202","岡崎市","232020166003","柱三丁目","34.925547","137.152981","0","3"
"23","愛知県","23202","岡崎市","232020166004","柱四丁目","34.923588","137.150936","0","3"
"23","愛知県","23202","岡崎市","232020166005","柱五丁目","34.923210","137.152999","0","3"
"23","愛知県","23202","岡崎市","232020166006","柱六丁目","34.922465","137.154672","0","3"
"23","愛知県","23202","岡崎市","232020167002","柱曙二丁目","34.923265","137.165046","0","3"
"23","愛知県","23202","岡崎市","232020167003","柱曙三丁目","34.920424","137.166242","0","3"
"23","愛知県","23202","岡崎市","232020168000","柱町","34.922874","137.160613","0","1"
"23","愛知県","23202","岡崎市","232020169000","秦梨町","34.949112","137.243315","0","1"
"23","愛知県","23202","岡崎市","232020170000","鉢地町","34.873370","137.251141","0","1"
"23","愛知県","23202","岡崎市","232020171000","八帖北町","34.962294","137.153551","0","1"
"23","愛知県","23202","岡崎市","232020172000","八帖町","34.957608","137.150914","0","1"
"23","愛知県","23202","岡崎市","232020173000","羽根町","34.923669","137.174796","0","1"
"23","愛知県","23202","岡崎市","232020174001","羽根西一丁目","34.927592","137.156621","0","3"
"23","愛知県","23202","岡崎市","232020174002","羽根西二丁目","34.927922","137.154908","0","3"
"23","愛知県","23202","岡崎市","232020174003","羽根西三丁目","34.929655","137.155654","0","3"
"23","愛知県","23202","岡崎市","232020175000","羽根西新町","34.926604","137.154735","0","1"
"23","愛知県","23202","岡崎市","232020176001","針崎一丁目","34.920116","137.156576","0","3"
"23","愛知県","23202","岡崎市","232020176002","針崎二丁目","34.917833","137.156522","0","3"
"23","愛知県","23202","岡崎市","232020177000","針崎町","34.917071","137.151787","0","1"
"23","愛知県","23202","岡崎市","232020178000","日影町","35.030151","137.236085","0","1"
"23","愛知県","23202","岡崎市","232020179000","東阿知和町","34.990951","137.187409","0","1"
"23","愛知県","23202","岡崎市","232020180000","東大友町","34.971136","137.135556","0","1"
"23","愛知県","23202","岡崎市","232020181000","東河原町","34.917511","137.382949","0","1"
"23","愛知県","23202","岡崎市","232020182001","東蔵前一丁目","34.995137","137.172387","0","3"
"23","愛知県","23202","岡崎市","232020182002","東蔵前二丁目","34.997481","137.174020","0","3"
"23","愛知県","23202","岡崎市","232020183000","東能見町","34.962804","137.163852","0","1"
"23","愛知県","23202","岡崎市","232020184000","東本郷町","34.957576","137.125903","0","1"
"23","愛知県","23202","岡崎市","232020185000","東牧内町","34.940824","137.128521","0","1"
"23","愛知県","23202","岡崎市","232020186000","東明大寺町","34.945620","137.177388","0","1"
"23","愛知県","23202","岡崎市","232020187000","日名北町","34.976361","137.152800","0","1"
"23","愛知県","23202","岡崎市","232020188000","日名中町","34.971624","137.154589","0","1"
"23","愛知県","23202","岡崎市","232020189000","日名西町","34.972538","137.150057","0","1"
"23","愛知県","23202","岡崎市","232020190000","日名本町","34.967821","137.148933","0","1"
"23","愛知県","23202","岡崎市","232020191000","日名南町","34.967253","137.153325","0","1"
"23","愛知県","23202","岡崎市","232020192000","広幡町","34.970366","137.160860","0","1"
"23","愛知県","23202","岡崎市","232020193000","吹矢町","34.951986","137.171201","0","1"
"23","愛知県","23202","岡崎市","232020194000","福岡町","34.898875","137.148702","0","1"
"23","愛知県","23202","岡崎市","232020195000","福桶町","34.898146","137.117120","0","1"
"23","愛知県","23202","岡崎市","232020196001","藤川台一丁目","34.906839","137.224538","0","3"
"23","愛知県","23202","岡崎市","232020196002","藤川台二丁目","34.905798","137.220567","0","3"
"23","愛知県","23202","岡崎市","232020196003","藤川台三丁目","34.907937","137.222255","0","3"
"23","愛知県","23202","岡崎市","232020197000","藤川町","34.910977","137.216882","0","1"
"23","愛知県","23202","岡崎市","232020198000","不吹町","34.927325","137.175888","0","1"
"23","愛知県","23202","岡崎市","232020199000","舳越町","34.974909","137.142704","0","1"
"23","愛知県","23202","岡崎市","232020200000","細川町","35.025646","137.171053","0","1"
"23","愛知県","23202","岡崎市","232020201000","細光町","34.911127","137.320158","0","1"
"23","愛知県","23202","岡崎市","232020202000","保久町","35.006417","137.297234","0","1"
"23","愛知県","23202","岡崎市","232020203000","法性寺町","34.929417","137.143114","0","1"
"23","愛知県","23202","岡崎市","232020204000","保母町","34.926756","137.227516","0","1"
"23","愛知県","23202","岡崎市","232020205000","洞町","34.948670","137.195606","0","1"
"23","愛知県","23202","岡崎市","232020206000","舞木町","34.904066","137.236837","0","1"
"23","愛知県","23202","岡崎市","232020207000","牧平町","34.909355","137.284400","0","1"
"23","愛知県","23202","岡崎市","232020208000","牧御堂町","34.924360","137.140004","0","1"
"23","愛知県","23202","岡崎市","232020209000","丸山町","34.942313","137.211915","0","1"
"23","愛知県","23202","岡崎市","232020210000","美合新町","34.925696","137.199725","0","1"
"23","愛知県","23202","岡崎市","232020211000","美合町","34.920682","137.189548","0","1"
"23","愛知県","23202","岡崎市","232020212000","美合西町","34.927963","137.189299","0","1"
"23","愛知県","23202","岡崎市","232020213000","三崎町","34.940495","137.161155","0","1"
"23","愛知県","23202","岡崎市","232020214001","緑丘一丁目","34.918216","137.176532","0","3"
"23","愛知県","23202","岡崎市","232020214002","緑丘二丁目","34.917174","137.180150","0","3"
"23","愛知県","23202","岡崎市","232020214003","緑丘三丁目","34.916455","137.183944","0","3"
"23","愛知県","23202","岡崎市","232020215000","南大須町","34.968259","137.308530","0","1"
"23","愛知県","23202","岡崎市","232020216000","南明大寺町","34.943875","137.162062","0","1"
"23","愛知県","23202","岡崎市","232020217000","蓑川町","34.918654","137.201350","0","1"
"23","愛知県","23202","岡崎市","232020218000","宮石町","35.034010","137.216530","0","1"
"23","愛知県","23202","岡崎市","232020219000","宮崎町","34.946890","137.362830","0","1"
"23","愛知県","23202","岡崎市","232020220000","宮地町","34.927799","137.148734","0","1"
"23","愛知県","23202","岡崎市","232020221000","明見町","34.938570","137.343913","0","1"
"23","愛知県","23202","岡崎市","232020222000","向山町","34.938506","137.159354","0","1"
"23","愛知県","23202","岡崎市","232020223001","六名一丁目","34.946720","137.152665","0","3"
"23","愛知県","23202","岡崎市","232020223002","六名二丁目","34.947440","137.155403","0","3"
"23","愛知県","23202","岡崎市","232020223003","六名三丁目","34.945744","137.156758","0","3"
"23","愛知県","23202","岡崎市","232020224000","六名新町","34.940280","137.153528","0","1"
"23","愛知県","23202","岡崎市","232020225000","六名町","34.946358","137.149484","0","1"
"23","愛知県","23202","岡崎市","232020226000","六名東町","34.938677","137.157146","0","1"
"23","愛知県","23202","岡崎市","232020227000","六名本町","34.942975","137.154942","0","1"
"23","愛知県","23202","岡崎市","232020228001","六名南一丁目","34.941913","137.150564","0","3"
"23","愛知県","23202","岡崎市","232020228002","六名南二丁目","34.939248","137.151321","0","3"
"23","愛知県","23202","岡崎市","232020229000","本宿町","34.891093","137.263104","0","1"
"23","愛知県","23202","岡崎市","232020230000","元能見町","34.966323","137.161124","0","1"
"23","愛知県","23202","岡崎市","232020231000","森越町","34.980718","137.143350","0","1"
"23","愛知県","23202","岡崎市","232020232000","安戸町","34.999923","137.243609","0","1"
"23","愛知県","23202","岡崎市","232020233000","矢作町","34.960869","137.142547","0","1"
"23","愛知県","23202","岡崎市","232020234001","薮田一丁目","34.987396","137.161505","0","3"
"23","愛知県","23202","岡崎市","232020234002","薮田二丁目","34.987750","137.157681","0","3"
"23","愛知県","23202","岡崎市","232020235000","米河内町","34.995516","137.225085","0","1"
"23","愛知県","23202","岡崎市","232020236000","蓬生町","34.948971","137.270178","0","1"
"23","愛知県","23202","岡崎市","232020237000","竜泉寺町","34.908084","137.198335","0","1"
"23","愛知県","23202","岡崎市","232020238000","六供町","34.964482","137.167799","0","1"
"23","愛知県","23202","岡崎市","232020239000","若松町","34.914769","137.159728","0","1"
"23","愛知県","23202","岡崎市","232020240001","若松東一丁目","34.915652","137.167469","0","3"
"23","愛知県","23202","岡崎市","232020240002","若松東二丁目","34.916069","137.170111","0","3"
"23","愛知県","23202","岡崎市","232020240003","若松東三丁目","34.917590","137.173047","0","3"
"23","愛知県","23202","岡崎市","232020241000","渡町","34.946218","137.140342","0","1"
"23","愛知県","23202","岡崎市","232020242000","渡通津町","35.020780","137.239445","0","1"
"23","愛知県","23202","岡崎市","232020243000","宇頭北町","34.973512","137.122539","0","1"
"23","愛知県","23202","岡崎市","232020244000","八ツ木町","35.012587","137.180526","0","1"
"23","愛知県","23202","岡崎市","232020245000","仁木町","35.015863","137.167517","0","1"
"23","愛知県","23202","岡崎市","232020246000","真福寺町","35.005435","137.187744","0","1"
"23","愛知県","23202","岡崎市","232020247000","岩津町","35.006831","137.172840","0","1"
"23","愛知県","23202","岡崎市","232020248000","東蔵前町","34.998286","137.171203","0","1"
"23","愛知県","23202","岡崎市","232020249000","小針町","34.981180","137.126162","0","1"
"23","愛知県","23202","岡崎市","232020250000","西蔵前町","34.999065","137.166349","0","1"
"23","愛知県","23202","岡崎市","232020251000","堂前町","34.986480","137.177632","0","1"
"23","愛知県","23202","岡崎市","232020252000","松橋町","34.984529","137.179779","0","1"
"23","愛知県","23202","岡崎市","232020253000","八帖南町","34.947403","137.146619","0","1"
"23","愛知県","23202","岡崎市","232020254000","上明大寺町","34.952438","137.169349","0","1"
"23","愛知県","23202","岡崎市","232020255000","羽根北町","34.930081","137.163902","0","1"
"23","愛知県","23202","岡崎市","232020256000","羽根東町","34.925494","137.164777","0","1"
"23","愛知県","23202","岡崎市","232020257000","竜美大入町","34.935005","137.170102","0","1"
"23","愛知県","23202","岡崎市","232020258000","蓑川新町","34.922017","137.200950","0","1"
"23","愛知県","23202","岡崎市","232020259000","中島東町","34.890672","137.125449","0","1"
"23","愛知県","23202","岡崎市","232020260000","中島中町","34.889308","137.121824","0","1"
"23","愛知県","23202","岡崎市","232020261000","中島西町","34.887064","137.119035","0","1"
"23","愛知県","23202","岡崎市","232020262000","曙町","34.957532","137.174553","0","1"
"23","愛知県","23202","岡崎市","232020263000","西中町","34.956993","137.174864","0","1"
"23","愛知県","23202","岡崎市","232020264000","十王町","34.955716","137.171944","0","1"
"23","愛知県","23202","岡崎市","232020265000","祐金町","34.956399","137.169976","0","1"
"23","愛知県","23202","岡崎市","232020266000","伝馬通","34.957196","137.171717","0","1"
"23","愛知県","23202","岡崎市","232020267000","門前町","34.959140","137.172489","0","1"
"23","愛知県","23202","岡崎市","232020268000","久右エ門町","34.958123","137.171416","0","1"
"23","愛知県","23202","岡崎市","232020269000","六地蔵町","34.956535","137.168118","0","1"
"23","愛知県","23202","岡崎市","232020270000","唐沢町","34.955280","137.167369","0","1"
"23","愛知県","23202","岡崎市","232020271000","明大寺本町","34.953453","137.164839","0","1"
"23","愛知県","23202","岡崎市","232020272000","花崗町","34.958880","137.169587","0","1"
"23","愛知県","23202","岡崎市","232020273000","亀井町","34.960449","137.167982","0","1"
"23","愛知県","23202","岡崎市","232020274000","六供本町","34.961571","137.165210","0","1"
"23","愛知県","23202","岡崎市","232020275000","八幡町","34.960784","137.165661","0","1"
"23","愛知県","23202","岡崎市","232020276000","連尺通","34.959551","137.165777","0","1"
"23","愛知県","23202","岡崎市","232020277000","康生通","34.957886","137.164171","0","1"
"23","愛知県","23202","岡崎市","232020278000","本町通","34.960322","137.163566","0","1"
"23","愛知県","23202","岡崎市","232020279000","魚町","34.961004","137.159792","0","1"
"23","愛知県","23202","岡崎市","232020280000","福寿町","34.963421","137.159603","0","1"
"23","愛知県","23202","岡崎市","232020281000","松本町","34.964045","137.161738","0","1"
"23","愛知県","23202","岡崎市","232020282000","能見通","34.962989","137.162722","0","1"
"23","愛知県","23202","岡崎市","232020283000","能見町","34.965961","137.163023","0","1"
"23","愛知県","23202","岡崎市","232020284000","材木町","34.962056","137.160212","0","1"
"23","愛知県","23202","岡崎市","232020285000","中町","34.958451","137.180525","0","1"
"23","愛知県","23202","岡崎市","232020286000","蓬莱町","34.956154","137.177201","0","1"
"23","愛知県","23202","岡崎市","232020287000","両町","34.954518","137.176724","0","1"
"23","愛知県","23202","岡崎市","232020288000","明大寺町","34.946991","137.168033","0","1"
"23","愛知県","23202","岡崎市","232020289000","栄町","34.947548","137.180291","0","1"
"23","愛知県","23202","岡崎市","232020290000","若宮町","34.953036","137.180785","0","1"
"23","愛知県","23202","岡崎市","232020291000","元欠町","34.953668","137.184767","0","1"
"23","愛知県","23202","岡崎市","232020292000","朝日町","34.952597","137.177455","0","1"
"23","愛知県","23202","岡崎市","232020293000","菅生町","34.953910","137.171131","0","1"
"23","愛知県","23202","岡崎市","232020294000","城南町","34.935302","137.153265","0","1"
"23","愛知県","23202","岡崎市","232020295000","藤川荒古","34.918381","137.205914","0","1"
"23","愛知県","23202","岡崎市","232020296000","二軒屋町","34.892286","137.125402","0","1"
"23","愛知県","23202","岡崎市","232020297000","本宿西","34.895567","137.253125","0","1"
"23","愛知県","23202","岡崎市","232020298000","本宿茜","34.892820","137.254164","0","1"
"23","愛知県","23202","岡崎市","232020299000","本宿台","34.890403","137.253619","0","1"
"23","愛知県","23202","岡崎市","232020300000","山綱町","34.881306","137.241211","0","1"
"23","愛知県","23202","岡崎市","232020301001","真伝吉祥一丁目","34.974876","137.187562","0","3"
"23","愛知県","23202","岡崎市","232020301002","真伝吉祥二丁目","34.974904","137.193622","0","3"
