"PrefCode","PrefName","MuniCode","MuniName","DistCode","DistName","lat","lon","SrcCode","CatCode"
"23","愛知県","23220","稲沢市","232200001000","赤池池田町","35.275078","136.81032","0","1"
"23","愛知県","23220","稲沢市","232200002000","赤池居道町","35.273751","136.81313","0","1"
"23","愛知県","23220","稲沢市","232200003000","赤池裏田町","35.275","136.817799","0","1"
"23","愛知県","23220","稲沢市","232200004000","赤池北池田町","35.269565","136.819549","0","1"
"23","愛知県","23220","稲沢市","232200005000","赤池北町","35.270997","136.82209","0","1"
"23","愛知県","23220","稲沢市","232200006000","赤池坂畑町","35.267466","136.827625","0","1"
"23","愛知県","23220","稲沢市","232200007000","赤池陣出町","35.275725","136.820897","0","1"
"23","愛知県","23220","稲沢市","232200008000","赤池町","35.273963","136.817495","0","1"
"23","愛知県","23220","稲沢市","232200009000","赤池寺東町","35.273145","136.823799","0","1"
"23","愛知県","23220","稲沢市","232200010000","赤池天王町","35.272713","136.822117","0","1"
"23","愛知県","23220","稲沢市","232200011000","赤池中町","35.269848","136.822713","0","1"
"23","愛知県","23220","稲沢市","232200012000","赤池西出町","35.274452","136.814581","0","1"
"23","愛知県","23220","稲沢市","232200013000","赤池旗屋町","35.272199","136.816495","0","1"
"23","愛知県","23220","稲沢市","232200014000","赤池東山町","35.270678","136.827176","0","1"
"23","愛知県","23220","稲沢市","232200015000","赤池広畑町","35.266613","136.824941","0","1"
"23","愛知県","23220","稲沢市","232200016000","赤池前山町","35.272588","136.818718","0","1"
"23","愛知県","23220","稲沢市","232200017000","赤池真崎町","35.275724","136.823597","0","1"
"23","愛知県","23220","稲沢市","232200018000","赤池南町","35.268772","136.824078","0","1"
"23","愛知県","23220","稲沢市","232200019000","赤池宮西町","35.270378","136.819932","0","1"
"23","愛知県","23220","稲沢市","232200020000","赤池山中町","35.273873","136.820745","0","1"
"23","愛知県","23220","稲沢市","232200021000","浅井町","35.253715","136.765937","0","1"
"23","愛知県","23220","稲沢市","232200022000","朝府町","35.251085","136.776154","0","1"
"23","愛知県","23220","稲沢市","232200023000","天池金山町","35.259072","136.775126","0","1"
"23","愛知県","23220","稲沢市","232200024000","天池光田町","35.254144","136.775179","0","1"
"23","愛知県","23220","稲沢市","232200025000","天池五反田町","35.252363","136.771318","0","1"
"23","愛知県","23220","稲沢市","232200026000","天池町","35.255012","136.776532","0","1"
"23","愛知県","23220","稲沢市","232200027000","天池伝代町","35.260083","136.768585","0","1"
"23","愛知県","23220","稲沢市","232200028000","天池遠松町","35.256155","136.778009","0","1"
"23","愛知県","23220","稲沢市","232200029000","天池浪寄町","35.254818","136.771243","0","1"
"23","愛知県","23220","稲沢市","232200030000","天池西町","35.25691","136.768918","0","1"
"23","愛知県","23220","稲沢市","232200031000","天池東町","35.258168","136.771674","0","1"
"23","愛知県","23220","稲沢市","232200032000","天池牧作町","35.256534","136.775124","0","1"
"23","愛知県","23220","稲沢市","232200033000","池部町","35.246045","136.788749","0","1"
"23","愛知県","23220","稲沢市","232200034001","池部町一丁目","35.245301","136.786985","0","3"
"23","愛知県","23220","稲沢市","232200034002","池部町二丁目","35.2431","136.787399","0","3"
"23","愛知県","23220","稲沢市","232200034003","池部町三丁目","35.241077","136.788062","0","3"
"23","愛知県","23220","稲沢市","232200035000","一色青海町","35.237356","136.75421","0","1"
"23","愛知県","23220","稲沢市","232200036000","一色跡之口町","35.235633","136.751931","0","1"
"23","愛知県","23220","稲沢市","232200037000","一色市場町","35.243349","136.749693","0","1"
"23","愛知県","23220","稲沢市","232200038000","一色上方町","35.246557","136.748059","0","1"
"23","愛知県","23220","稲沢市","232200039000","一色三反田町","35.241116","136.754989","0","1"
"23","愛知県","23220","稲沢市","232200040000","一色巡見町","35.245303","136.743982","0","1"
"23","愛知県","23220","稲沢市","232200041000","一色神宮町","35.245076","136.754551","0","1"
"23","愛知県","23220","稲沢市","232200042000","一色竹橋町","35.247201","136.752868","0","1"
"23","愛知県","23220","稲沢市","232200043000","一色長畑町","35.239296","136.754402","0","1"
"23","愛知県","23220","稲沢市","232200044000","一色中屋敷町","35.243978","136.746778","0","1"
"23","愛知県","23220","稲沢市","232200045000","一色西町","35.243324","136.74171","0","1"
"23","愛知県","23220","稲沢市","232200046000","一色白山町","35.245878","136.750937","0","1"
"23","愛知県","23220","稲沢市","232200047000","一色藤塚町","35.241881","136.756435","0","1"
"23","愛知県","23220","稲沢市","232200048000","一色道上町","35.243825","136.751843","0","1"
"23","愛知県","23220","稲沢市","232200049001","石橋一丁目","35.26251","136.782106","0","3"
"23","愛知県","23220","稲沢市","232200049002","石橋二丁目","35.260588","136.781176","0","3"
"23","愛知県","23220","稲沢市","232200049003","石橋三丁目","35.258484","136.780956","0","3"
"23","愛知県","23220","稲沢市","232200049004","石橋四丁目","35.256305","136.780108","0","3"
"23","愛知県","23220","稲沢市","232200049005","石橋五丁目","35.258505","136.778073","0","3"
"23","愛知県","23220","稲沢市","232200049006","石橋六丁目","35.261386","136.778818","0","3"
"23","愛知県","23220","稲沢市","232200050000","板葺町","35.223461","136.761013","0","1"
"23","愛知県","23220","稲沢市","232200051000","一色川俣町","35.239291","136.742239","0","1"
"23","愛知県","23220","稲沢市","232200052000","一色下方町","35.238617","136.745999","0","1"
"23","愛知県","23220","稲沢市","232200053000","一色中通町","35.24284","136.746064","0","1"
"23","愛知県","23220","稲沢市","232200054000","一色森山町","35.238294","136.74951","0","1"
"23","愛知県","23220","稲沢市","232200055000","稲沢町","35.248498","136.789552","0","1"
"23","愛知県","23220","稲沢市","232200056001","稲沢町北山一丁目","35.25731","136.791556","0","3"
"23","愛知県","23220","稲沢市","232200056002","稲沢町北山二丁目","35.257306","136.790308","0","3"
"23","愛知県","23220","稲沢市","232200057010","稲島十丁目","35.260222","136.79333","0","3"
"23","愛知県","23220","稲沢市","232200057011","稲島十一丁目","35.257881","136.793833","0","3"
"23","愛知県","23220","稲沢市","232200057012","稲島十二丁目","35.257913","136.796054","0","3"
"23","愛知県","23220","稲沢市","232200057001","稲島一丁目","35.259932","136.790942","0","3"
"23","愛知県","23220","稲沢市","232200057002","稲島二丁目","35.260136","136.789033","0","3"
"23","愛知県","23220","稲沢市","232200057003","稲島三丁目","35.262923","136.789528","0","3"
"23","愛知県","23220","稲沢市","232200057004","稲島四丁目","35.265749","136.788721","0","3"
"23","愛知県","23220","稲沢市","232200057005","稲島五丁目","35.267124","136.793413","0","3"
"23","愛知県","23220","稲沢市","232200057006","稲島六丁目","35.26453","136.793246","0","3"
"23","愛知県","23220","稲沢市","232200057007","稲島七丁目","35.263158","136.795428","0","3"
"23","愛知県","23220","稲沢市","232200057008","稲島八丁目","35.262419","136.793308","0","3"
"23","愛知県","23220","稲沢市","232200057009","稲島九丁目","35.263464","136.790919","0","3"
"23","愛知県","23220","稲沢市","232200058000","稲島町","35.26384","136.801167","0","1"
"23","愛知県","23220","稲沢市","232200059001","稲島東一丁目","35.25753","136.801724","0","3"
"23","愛知県","23220","稲沢市","232200059002","稲島東二丁目","35.257744","136.798956","0","3"
"23","愛知県","23220","稲沢市","232200059003","稲島東三丁目","35.260244","136.799002","0","3"
"23","愛知県","23220","稲沢市","232200059004","稲島東四丁目","35.260275","136.801747","0","3"
"23","愛知県","23220","稲沢市","232200059005","稲島東五丁目","35.26195","136.799009","0","3"
"23","愛知県","23220","稲沢市","232200059006","稲島東六丁目","35.260688","136.796648","0","3"
"23","愛知県","23220","稲沢市","232200060000","稲島法成寺町","35.260917","136.806372","0","1"
"23","愛知県","23220","稲沢市","232200061001","稲葉一丁目","35.257247","136.788679","0","3"
"23","愛知県","23220","稲沢市","232200061002","稲葉二丁目","35.25454","136.78913","0","3"
"23","愛知県","23220","稲沢市","232200061003","稲葉三丁目","35.25319","136.789989","0","3"
"23","愛知県","23220","稲沢市","232200061004","稲葉四丁目","35.251678","136.791347","0","3"
"23","愛知県","23220","稲沢市","232200061005","稲葉五丁目","35.251381","136.787856","0","3"
"23","愛知県","23220","稲沢市","232200062000","稲府町","35.247885","136.780496","0","1"
"23","愛知県","23220","稲沢市","232200063000","井之口石塚町","35.239021","136.818687","0","1"
"23","愛知県","23220","稲沢市","232200064000","井之口大坪町","35.236532","136.818212","0","1"
"23","愛知県","23220","稲沢市","232200065000","井之口大宮町","35.244605","136.827374","0","1"
"23","愛知県","23220","稲沢市","232200066000","井之口沖ノ田町","35.240863","136.8158","0","1"
"23","愛知県","23220","稲沢市","232200067000","井之口親畑町","35.236332","136.821838","0","1"
"23","愛知県","23220","稲沢市","232200068000","井之口柿ノ木町","35.239794","136.821768","0","1"
"23","愛知県","23220","稲沢市","232200069000","井之口北畑町","35.245401","136.822302","0","1"
"23","愛知県","23220","稲沢市","232200070000","井之口小番戸町","35.240917","136.818702","0","1"
"23","愛知県","23220","稲沢市","232200071000","井之口町","35.241068","136.828096","0","1"
"23","愛知県","23220","稲沢市","232200072000","井之口鶴田町","35.238828","136.815497","0","1"
"23","愛知県","23220","稲沢市","232200073000","井之口白山町","35.24296","136.822863","0","1"
"23","愛知県","23220","稲沢市","232200074000","井之口本町","35.239779","136.825397","0","1"
"23","愛知県","23220","稲沢市","232200075000","井之口四家町","35.236294","136.825462","0","1"
"23","愛知県","23220","稲沢市","232200076000","井堀犬城町","35.227907","136.757412","0","1"
"23","愛知県","23220","稲沢市","232200077000","井堀江西町","35.22987","136.756931","0","1"
"23","愛知県","23220","稲沢市","232200078000","井堀大縄町","35.231432","136.768224","0","1"
"23","愛知県","23220","稲沢市","232200079000","井堀蒲六町","35.23182","136.757547","0","1"
"23","愛知県","23220","稲沢市","232200080000","井堀川東町","35.229224","136.766021","0","1"
"23","愛知県","23220","稲沢市","232200081000","井堀北出町","35.232801","136.762797","0","1"
"23","愛知県","23220","稲沢市","232200082000","井堀下郷町","35.226887","136.759579","0","1"
"23","愛知県","23220","稲沢市","232200083000","井堀宿塚町","35.229335","136.76899","0","1"
"23","愛知県","23220","稲沢市","232200084000","井堀高見町","35.231059","136.762258","0","1"
"23","愛知県","23220","稲沢市","232200085000","井堀中郷町","35.229215","136.761323","0","1"
"23","愛知県","23220","稲沢市","232200086000","井堀野口町","35.233971","136.758308","0","1"
"23","愛知県","23220","稲沢市","232200087000","井堀橋下町","35.226064","136.763038","0","1"
"23","愛知県","23220","稲沢市","232200088000","今村町","35.215198","136.761611","0","1"
"23","愛知県","23220","稲沢市","232200089000","牛踏町","35.21772","136.781719","0","1"
"23","愛知県","23220","稲沢市","232200090001","駅前一丁目","35.253459","136.819916","0","3"
"23","愛知県","23220","稲沢市","232200090002","駅前二丁目","35.250866","136.819163","0","3"
"23","愛知県","23220","稲沢市","232200090003","駅前三丁目","35.247966","136.818625","0","3"
"23","愛知県","23220","稲沢市","232200090004","駅前四丁目","35.248268","136.821659","0","3"
"23","愛知県","23220","稲沢市","232200091001","大塚北一丁目","35.247048","136.793041","0","3"
"23","愛知県","23220","稲沢市","232200091002","大塚北二丁目","35.244168","136.790772","0","3"
"23","愛知県","23220","稲沢市","232200091003","大塚北三丁目","35.246346","136.794165","0","3"
"23","愛知県","23220","稲沢市","232200091004","大塚北四丁目","35.244191","136.793796","0","3"
"23","愛知県","23220","稲沢市","232200091005","大塚北五丁目","35.242228","136.793162","0","3"
"23","愛知県","23220","稲沢市","232200091006","大塚北六丁目","35.246172","136.79637","0","3"
"23","愛知県","23220","稲沢市","232200091007","大塚北七丁目","35.242142","136.795955","0","3"
"23","愛知県","23220","稲沢市","232200091008","大塚北八丁目","35.242833","136.798083","0","3"
"23","愛知県","23220","稲沢市","232200091009","大塚北九丁目","35.242523","136.800656","0","3"
"23","愛知県","23220","稲沢市","232200092000","大塚町","35.246712","136.791477","0","1"
"23","愛知県","23220","稲沢市","232200093010","大塚南十丁目","35.23806","136.790444","0","3"
"23","愛知県","23220","稲沢市","232200093011","大塚南十一丁目","35.241227","136.790783","0","3"
"23","愛知県","23220","稲沢市","232200093001","大塚南一丁目","35.240066","136.793474","0","3"
"23","愛知県","23220","稲沢市","232200093002","大塚南二丁目","35.238305","136.793323","0","3"
"23","愛知県","23220","稲沢市","232200093003","大塚南三丁目","35.238887","136.795868","0","3"
"23","愛知県","23220","稲沢市","232200093004","大塚南四丁目","35.238693","136.797802","0","3"
"23","愛知県","23220","稲沢市","232200093005","大塚南五丁目","35.238573","136.800722","0","3"
"23","愛知県","23220","稲沢市","232200093006","大塚南六丁目","35.235136","136.798493","0","3"
"23","愛知県","23220","稲沢市","232200093007","大塚南七丁目","35.23579","136.795444","0","3"
"23","愛知県","23220","稲沢市","232200093008","大塚南八丁目","35.233834","136.795532","0","3"
"23","愛知県","23220","稲沢市","232200093009","大塚南九丁目","35.236118","136.792149","0","3"
"23","愛知県","23220","稲沢市","232200094000","大矢青山町","35.214242","136.789961","0","1"
"23","愛知県","23220","稲沢市","232200095000","大矢江西町","35.215116","136.79104","0","1"
"23","愛知県","23220","稲沢市","232200096000","大矢高田町","35.220707","136.790544","0","1"
"23","愛知県","23220","稲沢市","232200097000","大矢浄土寺町","35.212352","136.790721","0","1"
"23","愛知県","23220","稲沢市","232200098000","大矢白山町","35.216595","136.789591","0","1"
"23","愛知県","23220","稲沢市","232200099000","大矢真宮町","35.222355","136.79078","0","1"
"23","愛知県","23220","稲沢市","232200100000","大矢仙口町","35.218782","136.789887","0","1"
"23","愛知県","23220","稲沢市","232200101000","大矢町","35.217791","136.795166","0","1"
"23","愛知県","23220","稲沢市","232200102000","奥田井之下町","35.237764","136.812048","0","1"
"23","愛知県","23220","稲沢市","232200103000","奥田大沢町","35.235521","136.815901","0","1"
"23","愛知県","23220","稲沢市","232200104000","奥田神ノ木町","35.234087","136.80403","0","1"
"23","愛知県","23220","稲沢市","232200105000","奥田北花ノ木町","35.228737","136.8062","0","1"
"23","愛知県","23220","稲沢市","232200106000","奥田木塚町","35.224999","136.812998","0","1"
"23","愛知県","23220","稲沢市","232200107000","奥田切田町","35.227497","136.81571","0","1"
"23","愛知県","23220","稲沢市","232200108000","奥田計用町","35.225616","136.807747","0","1"
"23","愛知県","23220","稲沢市","232200109000","奥田酒伊町","35.230984","136.817754","0","1"
"23","愛知県","23220","稲沢市","232200110000","奥田島崎町","35.231499","136.803475","0","1"
"23","愛知県","23220","稲沢市","232200111000","奥田下河町","35.224362","136.816472","0","1"
"23","愛知県","23220","稲沢市","232200112000","奥田膳棚町","35.234718","136.813107","0","1"
"23","愛知県","23220","稲沢市","232200113000","奥田大門町","35.234856","136.809217","0","1"
"23","愛知県","23220","稲沢市","232200114000","奥田立長町","35.228218","136.813868","0","1"
"23","愛知県","23220","稲沢市","232200115000","奥田田畑町","35.224424","136.809787","0","1"
"23","愛知県","23220","稲沢市","232200116000","奥田町","35.227316","136.81007","0","1"
"23","愛知県","23220","稲沢市","232200117000","奥田寺切町","35.228226","136.812622","0","1"
"23","愛知県","23220","稲沢市","232200118000","奥田天神町","35.228043","136.808198","0","1"
"23","愛知県","23220","稲沢市","232200119000","奥田天目寺町","35.238836","136.8071","0","1"
"23","愛知県","23220","稲沢市","232200120000","奥田中切町","35.230463","136.811794","0","1"
"23","愛知県","23220","稲沢市","232200121000","奥田長角町","35.236916","136.808837","0","1"
"23","愛知県","23220","稲沢市","232200122000","奥田流町","35.231487","136.81466","0","1"
"23","愛知県","23220","稲沢市","232200123000","奥田白山町","35.235472","136.805885","0","1"
"23","愛知県","23220","稲沢市","232200124000","奥田馬場町","35.231171","136.808661","0","1"
"23","愛知県","23220","稲沢市","232200125000","奥田堀畑町","35.232893","136.809901","0","1"
"23","愛知県","23220","稲沢市","232200126000","奥田南花ノ木町","35.225957","136.806458","0","1"
"23","愛知県","23220","稲沢市","232200127000","奥田宮長町","35.231575","136.806139","0","1"
"23","愛知県","23220","稲沢市","232200128000","下津油田町","35.252429","136.828974","0","1"
"23","愛知県","23220","稲沢市","232200129000","下津牛洗町","35.265203","136.822796","0","1"
"23","愛知県","23220","稲沢市","232200130000","下津片町","35.26103","136.825201","0","1"
"23","愛知県","23220","稲沢市","232200131000","下津北信正寺町","35.253908","136.834783","0","1"
"23","愛知県","23220","稲沢市","232200379002","下津北山二丁目","35.255713","136.824582","0","3"
"23","愛知県","23220","稲沢市","232200133000","下津鞍掛町","35.261571","136.823056","0","1"
"23","愛知県","23220","稲沢市","232200134000","下津小井戸町","35.258538","136.824303","0","1"
"23","愛知県","23220","稲沢市","232200135000","下津光明寺町","35.26463","136.825881","0","1"
"23","愛知県","23220","稲沢市","232200136001","下津下町西一丁目","35.250258","136.825448","0","3"
"23","愛知県","23220","稲沢市","232200136002","下津下町西二丁目","35.250021","136.828331","0","3"
"23","愛知県","23220","稲沢市","232200136003","下津下町西三丁目","35.248097","136.827483","0","3"
"23","愛知県","23220","稲沢市","232200137001","下津下町東一丁目","35.250552","136.834367","0","3"
"23","愛知県","23220","稲沢市","232200137002","下津下町東二丁目","35.249328","136.833074","0","3"
"23","愛知県","23220","稲沢市","232200137003","下津下町東三丁目","35.248233","136.832594","0","3"
"23","愛知県","23220","稲沢市","232200137004","下津下町東四丁目","35.247331","136.832339","0","3"
"23","愛知県","23220","稲沢市","232200137005","下津下町東五丁目","35.245473","136.830514","0","3"
"23","愛知県","23220","稲沢市","232200138000","下津蛇池町","35.2628","136.826814","0","1"
"23","愛知県","23220","稲沢市","232200139000","下津新町","35.25585","136.826374","0","1"
"23","愛知県","23220","稲沢市","232200140000","下津住吉町","35.258995","136.828949","0","1"
"23","愛知県","23220","稲沢市","232200141000","下津大門町","35.25632","136.828639","0","1"
"23","愛知県","23220","稲沢市","232200142000","下津高戸町","35.259223","136.827202","0","1"
"23","愛知県","23220","稲沢市","232200143000","下津丹下田町","35.252737","136.826831","0","1"
"23","愛知県","23220","稲沢市","232200144000","下津町","35.254355","136.821624","0","1"
"23","愛知県","23220","稲沢市","232200145000","下津寺前町","35.252178","136.832064","0","1"
"23","愛知県","23220","稲沢市","232200146000","下津土山町","35.253643","136.832252","0","1"
"23","愛知県","23220","稲沢市","232200147000","下津長田町","35.263037","136.822578","0","1"
"23","愛知県","23220","稲沢市","232200148000","下津二本杉町","35.257268","136.832277","0","1"
"23","愛知県","23220","稲沢市","232200149000","下津ふじ塚町","35.262798","136.828488","0","1"
"23","愛知県","23220","稲沢市","232200150000","下津穂所町","35.260213","136.823532","0","1"
"23","愛知県","23220","稲沢市","232200151000","下津本郷町","35.255303","136.832762","0","1"
"23","愛知県","23220","稲沢市","232200152000","下津南信正寺町","35.251891","136.834861","0","1"
"23","愛知県","23220","稲沢市","232200153000","下津南山町","35.253588","136.827198","0","1"
"23","愛知県","23220","稲沢市","232200154000","下津宮西町","35.255598","136.829757","0","1"
"23","愛知県","23220","稲沢市","232200155000","下津森町","35.251936","136.824608","0","1"
"23","愛知県","23220","稲沢市","232200156000","下津矢口町","35.258701","136.831916","0","1"
"23","愛知県","23220","稲沢市","232200157000","片原一色町","35.250677","136.744276","0","1"
"23","愛知県","23220","稲沢市","232200158000","北市場町","35.225839","136.834999","0","1"
"23","愛知県","23220","稲沢市","232200159000","北市場西町","35.224366","136.834499","0","1"
"23","愛知県","23220","稲沢市","232200160001","北市場本町一丁目","35.232295","136.83269","0","3"
"23","愛知県","23220","稲沢市","232200160002","北市場本町二丁目","35.230696","136.834262","0","3"
"23","愛知県","23220","稲沢市","232200160003","北市場本町三丁目","35.229319","136.836608","0","3"
"23","愛知県","23220","稲沢市","232200160004","北市場本町四丁目","35.228687","136.833789","0","3"
"23","愛知県","23220","稲沢市","232200161000","北市場南町","35.222737","136.830908","0","1"
"23","愛知県","23220","稲沢市","232200162000","北麻績町","35.214129","136.777734","0","1"
"23","愛知県","23220","稲沢市","232200163001","北島一丁目","35.227202","136.803995","0","3"
"23","愛知県","23220","稲沢市","232200163002","北島二丁目","35.229516","136.803947","0","3"
"23","愛知県","23220","稲沢市","232200163003","北島三丁目","35.228373","136.800697","0","3"
"23","愛知県","23220","稲沢市","232200163004","北島四丁目","35.230593","136.801103","0","3"
"23","愛知県","23220","稲沢市","232200163005","北島五丁目","35.229438","136.796762","0","3"
"23","愛知県","23220","稲沢市","232200163006","北島六丁目","35.231796","136.797585","0","3"
"23","愛知県","23220","稲沢市","232200163007","北島七丁目","35.231012","136.793566","0","3"
"23","愛知県","23220","稲沢市","232200163008","北島八丁目","35.227974","136.793621","0","3"
"23","愛知県","23220","稲沢市","232200163009","北島九丁目","35.225869","136.790794","0","3"
"23","愛知県","23220","稲沢市","232200164000","北島町","35.224966","136.798768","0","1"
"23","愛知県","23220","稲沢市","232200165001","儀長一丁目","35.237081","136.759257","0","3"
"23","愛知県","23220","稲沢市","232200165002","儀長二丁目","35.235789","136.762924","0","3"
"23","愛知県","23220","稲沢市","232200165003","儀長三丁目","35.234584","136.765986","0","3"
"23","愛知県","23220","稲沢市","232200165004","儀長四丁目","35.234893","136.76793","0","3"
"23","愛知県","23220","稲沢市","232200165005","儀長五丁目","35.238607","136.762917","0","3"
"23","愛知県","23220","稲沢市","232200166001","木全一丁目","35.263462","136.78692","0","3"
"23","愛知県","23220","稲沢市","232200166002","木全二丁目","35.260014","136.786422","0","3"
"23","愛知県","23220","稲沢市","232200166003","木全三丁目","35.260552","136.783893","0","3"
"23","愛知県","23220","稲沢市","232200166004","木全四丁目","35.258328","136.783743","0","3"
"23","愛知県","23220","稲沢市","232200166005","木全五丁目","35.25686","136.782073","0","3"
"23","愛知県","23220","稲沢市","232200167000","木全町","35.258094","136.785278","0","1"
"23","愛知県","23220","稲沢市","232200168000","陸田一里山町","35.26784","136.821199","0","1"
"23","愛知県","23220","稲沢市","232200169000","陸田馬山町","35.262467","136.815176","0","1"
"23","愛知県","23220","稲沢市","232200170000","陸田栗林町","35.265765","136.82122","0","1"
"23","愛知県","23220","稲沢市","232200171000","陸田高畑町","35.269854","136.817285","0","1"
"23","愛知県","23220","稲沢市","232200172000","陸田町","35.266011","136.815172","0","1"
"23","愛知県","23220","稲沢市","232200173000","陸田白山町","35.271176","136.814261","0","1"
"23","愛知県","23220","稲沢市","232200174000","陸田花塚町","35.265176","136.813792","0","1"
"23","愛知県","23220","稲沢市","232200175000","陸田東出町","35.267285","136.818833","0","1"
"23","愛知県","23220","稲沢市","232200176000","陸田本町","35.267747","136.816132","0","1"
"23","愛知県","23220","稲沢市","232200177000","陸田丸之内町","35.268194","136.812349","0","1"
"23","愛知県","23220","稲沢市","232200381001","陸田宮前一丁目","35.264204","136.818351","0","1"
"23","愛知県","23220","稲沢市","232200179001","日下部北町一丁目","35.233886","136.825095","0","3"
"23","愛知県","23220","稲沢市","232200179002","日下部北町二丁目","35.23135","136.825063","0","3"
"23","愛知県","23220","稲沢市","232200179003","日下部北町三丁目","35.234308","136.8217","0","3"
"23","愛知県","23220","稲沢市","232200179004","日下部北町四丁目","35.232657","136.821857","0","3"
"23","愛知県","23220","稲沢市","232200179005","日下部北町五丁目","35.23057","136.821613","0","3"
"23","愛知県","23220","稲沢市","232200180000","日下部町","35.228562","136.832998","0","1"
"23","愛知県","23220","稲沢市","232200181001","日下部中町一丁目","35.231338","136.828123","0","3"
"23","愛知県","23220","稲沢市","232200181002","日下部中町二丁目","35.230063","136.828193","0","3"
"23","愛知県","23220","稲沢市","232200181003","日下部中町三丁目","35.228809","136.828322","0","3"
"23","愛知県","23220","稲沢市","232200181004","日下部中町四丁目","35.227365","136.827684","0","3"
"23","愛知県","23220","稲沢市","232200181005","日下部中町五丁目","35.229306","136.825239","0","3"
"23","愛知県","23220","稲沢市","232200181006","日下部中町六丁目","35.227697","136.825231","0","3"
"23","愛知県","23220","稲沢市","232200181007","日下部中町七丁目","35.226441","136.82545","0","3"
"23","愛知県","23220","稲沢市","232200182001","日下部西町一丁目","35.228546","136.821459","0","3"
"23","愛知県","23220","稲沢市","232200182002","日下部西町二丁目","35.22631","136.82127","0","3"
"23","愛知県","23220","稲沢市","232200183000","日下部花ノ木町","35.224819","136.831325","0","1"
"23","愛知県","23220","稲沢市","232200184001","日下部東町一丁目","35.22954","136.830598","0","3"
"23","愛知県","23220","稲沢市","232200184002","日下部東町二丁目","35.227973","136.832002","0","3"
"23","愛知県","23220","稲沢市","232200184003","日下部東町三丁目","35.227196","136.829876","0","3"
"23","愛知県","23220","稲沢市","232200185001","日下部松野町一丁目","35.223971","136.818922","0","3"
"23","愛知県","23220","稲沢市","232200185002","日下部松野町二丁目","35.223617","136.820644","0","3"
"23","愛知県","23220","稲沢市","232200185003","日下部松野町三丁目","35.223896","136.82205","0","3"
"23","愛知県","23220","稲沢市","232200186001","日下部南町一丁目","35.225203","136.826151","0","3"
"23","愛知県","23220","稲沢市","232200186002","日下部南町二丁目","35.223198","136.827786","0","3"
"23","愛知県","23220","稲沢市","232200186003","日下部南町三丁目","35.223389","136.825543","0","3"
"23","愛知県","23220","稲沢市","232200186004","日下部南町四丁目","35.223516","136.82358","0","3"
"23","愛知県","23220","稲沢市","232200187001","小池一丁目","35.25346","136.813614","0","3"
"23","愛知県","23220","稲沢市","232200187002","小池二丁目","35.249846","136.810884","0","3"
"23","愛知県","23220","稲沢市","232200187003","小池三丁目","35.249422","136.814859","0","3"
"23","愛知県","23220","稲沢市","232200187004","小池四丁目","35.246467","136.812945","0","3"
"23","愛知県","23220","稲沢市","232200188000","小池正明寺町","35.256659","136.811306","0","1"
"23","愛知県","23220","稲沢市","232200189001","国府宮一丁目","35.257066","136.804923","0","3"
"23","愛知県","23220","稲沢市","232200189002","国府宮二丁目","35.253515","136.804167","0","3"
"23","愛知県","23220","稲沢市","232200189003","国府宮三丁目","35.253854","136.80681","0","3"
"23","愛知県","23220","稲沢市","232200189004","国府宮四丁目","35.256715","136.808736","0","3"
"23","愛知県","23220","稲沢市","232200190000","国府宮神田町","35.259334","136.806988","0","1"
"23","愛知県","23220","稲沢市","232200191000","国府宮町","35.259098","136.804664","0","1"
"23","愛知県","23220","稲沢市","232200192000","子生和池田町","35.275159","136.808775","0","1"
"23","愛知県","23220","稲沢市","232200193000","子生和円場町","35.268842","136.809863","0","1"
"23","愛知県","23220","稲沢市","232200194000","子生和小原町","35.26775","136.807693","0","1"
"23","愛知県","23220","稲沢市","232200195000","子生和子安賀町","35.272699","136.806393","0","1"
"23","愛知県","23220","稲沢市","232200196000","子生和坂田町","35.267103","136.810439","0","1"
"23","愛知県","23220","稲沢市","232200197000","子生和山王町","35.274978","136.807292","0","1"
"23","愛知県","23220","稲沢市","232200198000","子生和神明町","35.272915","136.809598","0","1"
"23","愛知県","23220","稲沢市","232200199000","子生和住吉町","35.270444","136.80531","0","1"
"23","愛知県","23220","稲沢市","232200200000","子生和町","35.27004","136.806839","0","1"
"23","愛知県","23220","稲沢市","232200201000","子生和溝師町","35.272182","136.812327","0","1"
"23","愛知県","23220","稲沢市","232200202000","子生和八島町","35.270873","136.810042","0","1"
"23","愛知県","23220","稲沢市","232200203000","御供所町","35.250161","136.804417","0","1"
"23","愛知県","23220","稲沢市","232200204001","小沢一丁目","35.256348","136.795011","0","3"
"23","愛知県","23220","稲沢市","232200204002","小沢二丁目","35.254574","136.795268","0","3"
"23","愛知県","23220","稲沢市","232200204003","小沢三丁目","35.252822","136.795236","0","3"
"23","愛知県","23220","稲沢市","232200204004","小沢四丁目","35.25073","136.795533","0","3"
"23","愛知県","23220","稲沢市","232200205001","小寺町一丁目","35.241212","136.782838","0","3"
"23","愛知県","23220","稲沢市","232200205002","小寺町二丁目","35.239652","136.78155","0","3"
"23","愛知県","23220","稲沢市","232200205003","小寺町三丁目","35.238533","136.780429","0","3"
"23","愛知県","23220","稲沢市","232200206000","込野町","35.212416","136.785143","0","1"
"23","愛知県","23220","稲沢市","232200207000","幸町","35.240878","136.806737","0","1"
"23","愛知県","23220","稲沢市","232200208000","坂田町","35.21218","136.757945","0","1"
"23","愛知県","23220","稲沢市","232200209001","桜木一丁目","35.254314","136.780874","0","3"
"23","愛知県","23220","稲沢市","232200209002","桜木二丁目","35.251261","136.779969","0","3"
"23","愛知県","23220","稲沢市","232200210000","桜木宮前町","35.253774","136.77803","0","1"
"23","愛知県","23220","稲沢市","232200211001","重本一丁目","35.247855","136.782419","0","3"
"23","愛知県","23220","稲沢市","232200211002","重本二丁目","35.248849","136.784409","0","3"
"23","愛知県","23220","稲沢市","232200211003","重本三丁目","35.24684","136.784017","0","3"
"23","愛知県","23220","稲沢市","232200211004","重本四丁目","35.247588","136.786287","0","3"
"23","愛知県","23220","稲沢市","232200212000","島小原町","35.267452","136.806251","0","1"
"23","愛知県","23220","稲沢市","232200213000","島子安賀町","35.27017","136.80383","0","1"
"23","愛知県","23220","稲沢市","232200214000","島高須賀町","35.265622","136.80486","0","1"
"23","愛知県","23220","稲沢市","232200215000","島町","35.267749","136.800854","0","1"
"23","愛知県","23220","稲沢市","232200216000","島東之郷町","35.267909","136.804324","0","1"
"23","愛知県","23220","稲沢市","232200217000","清水阿原町","35.261011","136.764419","0","1"
"23","愛知県","23220","稲沢市","232200218000","清水郷西町","35.260253","136.75709","0","1"
"23","愛知県","23220","稲沢市","232200219000","清水町","35.259146","136.759561","0","1"
"23","愛知県","23220","稲沢市","232200220000","清水寺前町","35.257047","136.758805","0","1"
"23","愛知県","23220","稲沢市","232200221000","清水西川原町","35.263435","136.760288","0","1"
"23","愛知県","23220","稲沢市","232200222000","清水八尻町","35.261187","136.761487","0","1"
"23","愛知県","23220","稲沢市","232200223000","清水八神町","35.254143","136.761176","0","1"
"23","愛知県","23220","稲沢市","232200224001","下屋一丁目","35.252221","136.768461","0","3"
"23","愛知県","23220","稲沢市","232200224002","下屋二丁目","35.251798","136.765777","0","3"
"23","愛知県","23220","稲沢市","232200224003","下屋三丁目","35.251895","136.763374","0","3"
"23","愛知県","23220","稲沢市","232200225000","下屋町","35.251704","136.767608","0","1"
"23","愛知県","23220","稲沢市","232200226001","正明寺一丁目","35.253497","136.80922","0","3"
"23","愛知県","23220","稲沢市","232200226002","正明寺二丁目","35.25005","136.807217","0","3"
"23","愛知県","23220","稲沢市","232200226003","正明寺三丁目","35.245822","136.807699","0","3"
"23","愛知県","23220","稲沢市","232200226004","正明寺四丁目","35.243863","136.806332","0","3"
"23","愛知県","23220","稲沢市","232200227000","治郎丸石塚町","35.258084","136.810001","0","1"
"23","愛知県","23220","稲沢市","232200228000","治郎丸大角町","35.257802","136.81164","0","1"
"23","愛知県","23220","稲沢市","232200229000","治郎丸北町","35.264873","136.806935","0","1"
"23","愛知県","23220","稲沢市","232200230000","治郎丸郷前町","35.260055","136.809366","0","1"
"23","愛知県","23220","稲沢市","232200231000","治郎丸神木町","35.265842","136.810264","0","1"
"23","愛知県","23220","稲沢市","232200232000","治郎丸清敷町","35.259813","136.812858","0","1"
"23","愛知県","23220","稲沢市","232200233000","治郎丸大明町","35.265506","136.808301","0","1"
"23","愛知県","23220","稲沢市","232200234000","治郎丸高須町","35.264724","136.805447","0","1"
"23","愛知県","23220","稲沢市","232200235000","治郎丸椿町","35.263978","136.81075","0","1"
"23","愛知県","23220","稲沢市","232200236000","治郎丸天神町","35.259191","136.809508","0","1"
"23","愛知県","23220","稲沢市","232200237000","治郎丸土井町","35.260749","136.812343","0","1"
"23","愛知県","23220","稲沢市","232200238000","治郎丸中町","35.261626","136.808664","0","1"
"23","愛知県","23220","稲沢市","232200239000","治郎丸西町","35.263372","136.80718","0","1"
"23","愛知県","23220","稲沢市","232200240000","治郎丸白山町","35.261874","136.812267","0","1"
"23","愛知県","23220","稲沢市","232200241000","治郎丸東町","35.263422","136.80894","0","1"
"23","愛知県","23220","稲沢市","232200242000","治郎丸古江町","35.259297","136.808288","0","1"
"23","愛知県","23220","稲沢市","232200243000","治郎丸細道町","35.258997","136.812244","0","1"
"23","愛知県","23220","稲沢市","232200244000","治郎丸南町","35.260661","136.809056","0","1"
"23","愛知県","23220","稲沢市","232200245000","治郎丸元町","35.262766","136.811991","0","1"
"23","愛知県","23220","稲沢市","232200246000","治郎丸柳町","35.264824","136.812322","0","1"
"23","愛知県","23220","稲沢市","232200247001","千代一丁目","35.229961","136.781517","0","3"
"23","愛知県","23220","稲沢市","232200247002","千代二丁目","35.229032","136.784585","0","3"
"23","愛知県","23220","稲沢市","232200247003","千代三丁目","35.228341","136.787396","0","3"
"23","愛知県","23220","稲沢市","232200247004","千代四丁目","35.226004","136.787448","0","3"
"23","愛知県","23220","稲沢市","232200247005","千代五丁目","35.226635","136.784054","0","3"
"23","愛知県","23220","稲沢市","232200247006","千代六丁目","35.227728","136.781293","0","3"
"23","愛知県","23220","稲沢市","232200247007","千代七丁目","35.224736","136.781477","0","3"
"23","愛知県","23220","稲沢市","232200247008","千代八丁目","35.224053","136.78372","0","3"
"23","愛知県","23220","稲沢市","232200247009","千代九丁目","35.223606","136.787636","0","3"
"23","愛知県","23220","稲沢市","232200248000","千代町","35.225181","136.783064","0","1"
"23","愛知県","23220","稲沢市","232200249000","千代西町","35.228083","136.778907","0","1"
"23","愛知県","23220","稲沢市","232200250000","祖父江町大牧","35.239249","136.720561","0","1"
"23","愛知県","23220","稲沢市","232200251000","祖父江町甲新田","35.228906","136.723274","0","1"
"23","愛知県","23220","稲沢市","232200252000","祖父江町上牧","35.251021","136.718881","0","1"
"23","愛知県","23220","稲沢市","232200253000","祖父江町桜方","35.248017","136.724731","0","1"
"23","愛知県","23220","稲沢市","232200254000","祖父江町三丸渕","35.230744","136.733071","0","1"
"23","愛知県","23220","稲沢市","232200255000","祖父江町拾町野","35.257709","136.699935","0","1"
"23","愛知県","23220","稲沢市","232200256000","祖父江町島本","35.235149","136.706474","0","1"
"23","愛知県","23220","稲沢市","232200257000","祖父江町神明津","35.238414","136.687446","0","1"
"23","愛知県","23220","稲沢市","232200258000","祖父江町祖父江","35.263802","136.711537","0","1"
"23","愛知県","23220","稲沢市","232200259000","祖父江町中牧","35.248802","136.712043","0","1"
"23","愛知県","23220","稲沢市","232200260000","祖父江町西鵜之本","35.239667","136.699125","0","1"
"23","愛知県","23220","稲沢市","232200261000","祖父江町野田","35.241374","136.706107","0","1"
"23","愛知県","23220","稲沢市","232200262000","祖父江町二俣","35.242399","136.728235","0","1"
"23","愛知県","23220","稲沢市","232200263000","祖父江町本甲","35.245061","136.734832","0","1"
"23","愛知県","23220","稲沢市","232200264000","祖父江町馬飼","35.248064","136.691305","0","1"
"23","愛知県","23220","稲沢市","232200265000","祖父江町森上","35.248304","136.738366","0","1"
"23","愛知県","23220","稲沢市","232200266000","祖父江町山崎","35.259525","136.730248","0","1"
"23","愛知県","23220","稲沢市","232200267000","祖父江町四貫","35.249765","136.702635","0","1"
"23","愛知県","23220","稲沢市","232200268000","祖父江町両寺内","35.241106","136.714034","0","1"
"23","愛知県","23220","稲沢市","232200269000","平江向町","35.251042","136.760067","0","1"
"23","愛知県","23220","稲沢市","232200270000","平尾苅町","35.248827","136.767722","0","1"
"23","愛知県","23220","稲沢市","232200271000","平金森町","35.248785","136.759706","0","1"
"23","愛知県","23220","稲沢市","232200272000","平苅田町","35.247411","136.764199","0","1"
"23","愛知県","23220","稲沢市","232200273000","平細工蔵町","35.248286","136.761379","0","1"
"23","愛知県","23220","稲沢市","232200274000","平高道町","35.248985","136.771007","0","1"
"23","愛知県","23220","稲沢市","232200275000","平蜂ノ坪町","35.2496","136.769354","0","1"
"23","愛知県","23220","稲沢市","232200276000","平佛供田町","35.249553","136.764315","0","1"
"23","愛知県","23220","稲沢市","232200277000","高重町","35.222536","136.808342","0","1"
"23","愛知県","23220","稲沢市","232200278000","高重中町","35.22259","136.811191","0","1"
"23","愛知県","23220","稲沢市","232200279000","高重西町","35.223153","136.805883","0","1"
"23","愛知県","23220","稲沢市","232200280000","高重東町","35.222599","136.813953","0","1"
"23","愛知県","23220","稲沢市","232200281010","高御堂十丁目","35.24629","136.798507","0","3"
"23","愛知県","23220","稲沢市","232200281001","高御堂一丁目","35.2506","136.799127","0","3"
"23","愛知県","23220","稲沢市","232200281002","高御堂二丁目","35.249521","136.801312","0","3"
"23","愛知県","23220","稲沢市","232200281003","高御堂三丁目","35.245177","136.801016","0","3"
"23","愛知県","23220","稲沢市","232200281004","高御堂四丁目","35.245723","136.804022","0","3"
"23","愛知県","23220","稲沢市","232200281005","高御堂五丁目","35.241324","136.803759","0","3"
"23","愛知県","23220","稲沢市","232200282000","竹腰北町","35.260912","136.766563","0","1"
"23","愛知県","23220","稲沢市","232200283000","竹腰中町","35.257226","136.763942","0","1"
"23","愛知県","23220","稲沢市","232200284000","竹腰西町","35.257532","136.761834","0","1"
"23","愛知県","23220","稲沢市","232200285000","竹腰東町","35.257063","136.766125","0","1"
"23","愛知県","23220","稲沢市","232200286000","竹腰本町","35.259385","136.764727","0","1"
"23","愛知県","23220","稲沢市","232200287001","田代一丁目","35.207697","136.761554","0","3"
"23","愛知県","23220","稲沢市","232200287002","田代二丁目","35.207694","136.760294","0","3"
"23","愛知県","23220","稲沢市","232200288000","附島町","35.219417","136.78496","0","1"
"23","愛知県","23220","稲沢市","232200289001","長野一丁目","35.254955","136.814427","0","3"
"23","愛知県","23220","稲沢市","232200289002","長野二丁目","35.2542","136.818038","0","3"
"23","愛知県","23220","稲沢市","232200289003","長野三丁目","35.257095","136.81675","0","3"
"23","愛知県","23220","稲沢市","232200289004","長野四丁目","35.256719","136.813556","0","3"
"23","愛知県","23220","稲沢市","232200289005","長野五丁目","35.259208","136.81442","0","3"
"23","愛知県","23220","稲沢市","232200289006","長野六丁目","35.260242","136.815514","0","3"
"23","愛知県","23220","稲沢市","232200290000","中野川端町","35.250891","136.757144","0","1"
"23","愛知県","23220","稲沢市","232200291000","中之庄海道町","35.216859","136.815195","0","1"
"23","愛知県","23220","稲沢市","232200292000","中之庄高畑町","35.220013","136.80525","0","1"
"23","愛知県","23220","稲沢市","232200293000","中之庄町","35.217814","136.805287","0","1"
"23","愛知県","23220","稲沢市","232200294000","中之庄堤畔町","35.220056","136.813245","0","1"
"23","愛知県","23220","稲沢市","232200295000","中之庄長堤町","35.21753","136.811164","0","1"
"23","愛知県","23220","稲沢市","232200296000","中之庄半田町","35.219861","136.809719","0","1"
"23","愛知県","23220","稲沢市","232200297000","中之庄元屋敷町","35.220434","136.811932","0","1"
"23","愛知県","23220","稲沢市","232200298000","長野町","35.258505","136.819084","0","1"
"23","愛知県","23220","稲沢市","232200299000","中野宮町","35.244231","136.758077","0","1"
"23","愛知県","23220","稲沢市","232200300000","中野元町","35.248077","136.756307","0","1"
"23","愛知県","23220","稲沢市","232200301000","長束町","35.24203","136.810868","0","1"
"23","愛知県","23220","稲沢市","232200302000","七ツ寺町","35.216083","136.801352","0","1"
"23","愛知県","23220","稲沢市","232200303001","西島一丁目","35.25414","136.748274","0","3"
"23","愛知県","23220","稲沢市","232200303002","西島二丁目","35.258326","136.747855","0","3"
"23","愛知県","23220","稲沢市","232200303003","西島三丁目","35.259284","136.744233","0","3"
"23","愛知県","23220","稲沢市","232200303004","西島四丁目","35.262627","136.749017","0","3"
"23","愛知県","23220","稲沢市","232200304000","西島北町","35.256116","136.752635","0","1"
"23","愛知県","23220","稲沢市","232200305000","西島新町","35.253976","136.758088","0","1"
"23","愛知県","23220","稲沢市","232200306000","西島町","35.257745","136.742084","0","1"
"23","愛知県","23220","稲沢市","232200307000","西島出町","35.257243","136.755398","0","1"
"23","愛知県","23220","稲沢市","232200308000","西島中町","35.254415","136.751613","0","1"
"23","愛知県","23220","稲沢市","232200309000","西島東町","35.251664","136.754096","0","1"
"23","愛知県","23220","稲沢市","232200310000","西島本町","35.251163","136.749861","0","1"
"23","愛知県","23220","稲沢市","232200311001","西町一丁目","35.256619","136.78562","0","3"
"23","愛知県","23220","稲沢市","232200311002","西町二丁目","35.254839","136.785262","0","3"
"23","愛知県","23220","稲沢市","232200311003","西町三丁目","35.25111","136.7835","0","3"
"23","愛知県","23220","稲沢市","232200312000","西溝口町","35.220263","136.762161","0","1"
"23","愛知県","23220","稲沢市","232200313000","野崎町","35.222422","136.770179","0","1"
"23","愛知県","23220","稲沢市","232200314000","生出上山町","35.263989","136.752356","0","1"
"23","愛知県","23220","稲沢市","232200315000","生出郷前町","35.264542","136.755265","0","1"
"23","愛知県","23220","稲沢市","232200316000","生出河戸町","35.265853","136.753288","0","1"
"23","愛知県","23220","稲沢市","232200317000","生出西道根町","35.266251","136.758067","0","1"
"23","愛知県","23220","稲沢市","232200318000","生出東道根町","35.265924","136.759675","0","1"
"23","愛知県","23220","稲沢市","232200319000","生出本町","35.266204","136.755823","0","1"
"23","愛知県","23220","稲沢市","232200320000","生出山田町","35.264303","136.757461","0","1"
"23","愛知県","23220","稲沢市","232200321000","生出横西町","35.262819","136.751451","0","1"
"23","愛知県","23220","稲沢市","232200322001","馬場一丁目","35.245496","136.762739","0","3"
"23","愛知県","23220","稲沢市","232200322002","馬場二丁目","35.242839","136.762997","0","3"
"23","愛知県","23220","稲沢市","232200322003","馬場三丁目","35.239996","136.763703","0","3"
"23","愛知県","23220","稲沢市","232200323001","東緑町一丁目","35.23854","136.803358","0","3"
"23","愛知県","23220","稲沢市","232200323002","東緑町二丁目","35.236709","136.803266","0","3"
"23","愛知県","23220","稲沢市","232200323003","東緑町三丁目","35.235789","136.803452","0","3"
"23","愛知県","23220","稲沢市","232200324000","菱町","35.244371","136.817194","0","1"
"23","愛知県","23220","稲沢市","232200325000","氷室町","35.206807","136.756833","0","1"
"23","愛知県","23220","稲沢市","232200326000","平野町","35.239968","136.786833","0","1"
"23","愛知県","23220","稲沢市","232200327001","平野町一丁目","35.239528","136.784445","0","3"
"23","愛知県","23220","稲沢市","232200327002","平野町二丁目","35.237908","136.784006","0","3"
"23","愛知県","23220","稲沢市","232200327003","平野町三丁目","35.238156","136.785792","0","3"
"23","愛知県","23220","稲沢市","232200327004","平野町四丁目","35.237403","136.787791","0","3"
"23","愛知県","23220","稲沢市","232200327005","平野町五丁目","35.236095","136.784913","0","3"
"23","愛知県","23220","稲沢市","232200327006","平野町六丁目","35.236282","136.781774","0","3"
"23","愛知県","23220","稲沢市","232200328000","福島町","35.219637","136.776681","0","1"
"23","愛知県","23220","稲沢市","232200329000","船橋町","35.246219","136.775302","0","1"
"23","愛知県","23220","稲沢市","232200330000","平和町","35.203385","136.73353","0","1"
"23","愛知県","23220","稲沢市","232200331000","平和町上三宅","35.221395","136.752637","0","1"
"23","愛知県","23220","稲沢市","232200332000","平和町観音堂","35.225248","136.756745","0","1"
"23","愛知県","23220","稲沢市","232200333000","平和町西光坊","35.215637","136.732755","0","1"
"23","愛知県","23220","稲沢市","232200334000","平和町下三宅","35.211636","136.746872","0","1"
"23","愛知県","23220","稲沢市","232200335000","平和町須ケ谷","35.230759","136.75229","0","1"
"23","愛知県","23220","稲沢市","232200336000","平和町東城","35.20508","136.745186","0","1"
"23","愛知県","23220","稲沢市","232200337000","平和町中三宅","35.217325","136.752575","0","1"
"23","愛知県","23220","稲沢市","232200338000","平和町平池","35.218395","136.740714","0","1"
"23","愛知県","23220","稲沢市","232200339000","平和町法立","35.223952","136.741976","0","1"
"23","愛知県","23220","稲沢市","232200340000","平和町横池","35.213493","136.739275","0","1"
"23","愛知県","23220","稲沢市","232200341000","法花寺町","35.24406","136.767825","0","1"
"23","愛知県","23220","稲沢市","232200342000","堀田町","35.213701","136.804347","0","1"
"23","愛知県","23220","稲沢市","232200343000","堀之内町","35.228442","136.773958","0","1"
"23","愛知県","23220","稲沢市","232200344001","前田一丁目","35.248923","136.79707","0","3"
"23","愛知県","23220","稲沢市","232200345000","増田北町","35.221609","136.820919","0","1"
"23","愛知県","23220","稲沢市","232200346000","増田町","35.215847","136.823864","0","1"
"23","愛知県","23220","稲沢市","232200347000","増田西町","35.219786","136.818049","0","1"
"23","愛知県","23220","稲沢市","232200348000","増田東町","35.219077","136.823307","0","1"
"23","愛知県","23220","稲沢市","232200349000","増田南町","35.217452","136.823208","0","1"
"23","愛知県","23220","稲沢市","232200350001","松下一丁目","35.254438","136.801686","0","3"
"23","愛知県","23220","稲沢市","232200350002","松下二丁目","35.254508","136.799021","0","3"
"23","愛知県","23220","稲沢市","232200351001","緑町一丁目","35.237425","136.801638","0","3"
"23","愛知県","23220","稲沢市","232200351004","緑町四丁目","35.231742","136.801396","0","3"
"23","愛知県","23220","稲沢市","232200352000","南麻績町","35.209725","136.776686","0","1"
"23","愛知県","23220","稲沢市","232200353000","目比町","35.210499","136.766365","0","1"
"23","愛知県","23220","稲沢市","232200354000","梅須賀町","35.233273","136.786674","0","1"
"23","愛知県","23220","稲沢市","232200355001","梅須賀町一丁目","35.234154","136.784044","0","3"
"23","愛知県","23220","稲沢市","232200355002","梅須賀町二丁目","35.234598","136.787314","0","3"
"23","愛知県","23220","稲沢市","232200355003","梅須賀町三丁目","35.23546","136.789605","0","3"
"23","愛知県","23220","稲沢市","232200355004","梅須賀町四丁目","35.234066","136.792023","0","3"
"23","愛知県","23220","稲沢市","232200355005","梅須賀町五丁目","35.232328","136.790438","0","3"
"23","愛知県","23220","稲沢市","232200355006","梅須賀町六丁目","35.231008","136.787755","0","3"
"23","愛知県","23220","稲沢市","232200355007","梅須賀町七丁目","35.23132","136.784625","0","3"
"23","愛知県","23220","稲沢市","232200355008","梅須賀町八丁目","35.232034","136.781243","0","3"
"23","愛知県","23220","稲沢市","232200355009","梅須賀町九丁目","35.234777","136.778655","0","3"
"23","愛知県","23220","稲沢市","232200356000","山口町","35.245544","136.759701","0","1"
"23","愛知県","23220","稲沢市","232200357000","山口本町","35.246757","136.759676","0","1"
"23","愛知県","23220","稲沢市","232200358000","山口南町","35.241119","136.759875","0","1"
"23","愛知県","23220","稲沢市","232200359000","山口宮前町","35.243816","136.759969","0","1"
"23","愛知県","23220","稲沢市","232200360000","矢合町","35.237414","136.7734","0","1"
"23","愛知県","23220","稲沢市","232200361001","横地一丁目","35.245891","136.78083","0","3"
"23","愛知県","23220","稲沢市","232200361002","横地二丁目","35.245131","136.783667","0","3"
"23","愛知県","23220","稲沢市","232200361003","横地三丁目","35.243716","136.783483","0","3"
"23","愛知県","23220","稲沢市","232200361004","横地四丁目","35.243731","136.780178","0","3"
"23","愛知県","23220","稲沢市","232200361005","横地五丁目","35.241327","136.779235","0","3"
"23","愛知県","23220","稲沢市","232200361006","横地六丁目","35.242433","136.783317","0","3"
"23","愛知県","23220","稲沢市","232200362000","横地町","35.24916","136.780322","0","1"
"23","愛知県","23220","稲沢市","232200363000","横野河原町","35.258589","136.753731","0","1"
"23","愛知県","23220","稲沢市","232200364000","横野境塚町","35.260414","136.752469","0","1"
"23","愛知県","23220","稲沢市","232200365000","横野神田町","35.260735","136.750904","0","1"
"23","愛知県","23220","稲沢市","232200366000","横野町","35.261974","136.754105","0","1"
"23","愛知県","23220","稲沢市","232200367000","横野堂根町","35.26327","136.756652","0","1"
"23","愛知県","23220","稲沢市","232200368000","横野西郷町","35.261885","136.752542","0","1"
"23","愛知県","23220","稲沢市","232200369000","横野東郷町","35.261465","136.754562","0","1"
"23","愛知県","23220","稲沢市","232200370000","横野東出町","35.260994","136.75595","0","1"
"23","愛知県","23220","稲沢市","232200371000","横野松前町","35.258717","136.751524","0","1"
"23","愛知県","23220","稲沢市","232200372001","六角堂西町一丁目","35.234671","136.828503","0","3"
"23","愛知県","23220","稲沢市","232200372002","六角堂西町二丁目","35.233771","136.828361","0","3"
"23","愛知県","23220","稲沢市","232200372003","六角堂西町三丁目","35.232622","136.828579","0","3"
"23","愛知県","23220","稲沢市","232200372004","六角堂西町四丁目","35.231924","136.829908","0","3"
"23","愛知県","23220","稲沢市","232200372005","六角堂西町五丁目","35.23063","136.831548","0","3"
"23","愛知県","23220","稲沢市","232200373001","六角堂東町一丁目","35.234982","136.83051","0","3"
"23","愛知県","23220","稲沢市","232200373002","六角堂東町二丁目","35.233999","136.831025","0","3"
"23","愛知県","23220","稲沢市","232200373003","六角堂東町三丁目","35.233253","136.831453","0","3"
"23","愛知県","23220","稲沢市","232200373004","六角堂東町四丁目","35.232113","136.831679","0","3"
"23","愛知県","23220","稲沢市","232200373005","六角堂東町五丁目","35.230506","136.832422","0","3"
"23","愛知県","23220","稲沢市","232200374000","祖父江町高熊西","35.253696","136.717448","0","2"
"23","愛知県","23220","稲沢市","232200380001","下津南山一丁目","35.253771","136.824312","0","3"
"23","愛知県","23220","稲沢市","232200380002","下津南山二丁目","35.254104","136.825815","0","3"
"23","愛知県","23220","稲沢市","232200379001","下津北山一丁目","35.256026","136.823051","0","3"
"23","愛知県","23220","稲沢市","232200378001","下津小井戸一丁目","35.258244","136.821853","0","3"
"23","愛知県","23220","稲沢市","232200378002","下津小井戸二丁目","35.25819","136.823204","0","3"
"23","愛知県","23220","稲沢市","232200377001","下津穂所一丁目","35.259032","136.820289","0","3"
"23","愛知県","23220","稲沢市","232200377002","下津穂所二丁目","35.25984","136.822217","0","3"
"23","愛知県","23220","稲沢市","232200376001","下津鞍掛一丁目","35.261878","136.821202","0","3"
"23","愛知県","23220","稲沢市","232200375001","陸田栗林一丁目","35.264777","136.819602","0","3"
"23","愛知県","23220","稲沢市","232200289007","長野七丁目","35.261292","136.820202","0","3"
