"PrefCode","PrefName","MuniCode","MuniName","DistCode","DistName","lat","lon","SrcCode","CatCode"
"23","愛知県","23223","大府市","232230001001","朝日町一丁目","35.005016","136.965326","0","3"
"23","愛知県","23223","大府市","232230001002","朝日町二丁目","35.003658","136.967013","0","3"
"23","愛知県","23223","大府市","232230001003","朝日町三丁目","35.007045","136.967838","0","3"
"23","愛知県","23223","大府市","232230001004","朝日町四丁目","35.005727","136.968666","0","3"
"23","愛知県","23223","大府市","232230001005","朝日町五丁目","35.005032","136.969614","0","3"
"23","愛知県","23223","大府市","232230001006","朝日町六丁目","35.002764","136.970850","0","3"
"23","愛知県","23223","大府市","232230002001","馬池町一丁目","34.994057","136.928683","0","3"
"23","愛知県","23223","大府市","232230002002","馬池町二丁目","34.996461","136.925515","0","3"
"23","愛知県","23223","大府市","232230002003","馬池町三丁目","34.993881","136.925180","0","3"
"23","愛知県","23223","大府市","232230002004","馬池町四丁目","34.995232","136.921218","0","3"
"23","愛知県","23223","大府市","232230002005","馬池町五丁目","34.997410","136.918763","0","3"
"23","愛知県","23223","大府市","232230003001","江端町一丁目","35.010842","136.959160","0","3"
"23","愛知県","23223","大府市","232230003002","江端町二丁目","35.013214","136.955341","0","3"
"23","愛知県","23223","大府市","232230003003","江端町三丁目","35.009970","136.956473","0","3"
"23","愛知県","23223","大府市","232230003004","江端町四丁目","35.011374","136.952432","0","3"
"23","愛知県","23223","大府市","232230003005","江端町五丁目","35.008799","136.953838","0","3"
"23","愛知県","23223","大府市","232230003006","江端町六丁目","35.010330","136.949452","0","3"
"23","愛知県","23223","大府市","232230004001","追分町一丁目","35.030214","136.958178","0","3"
"23","愛知県","23223","大府市","232230004002","追分町二丁目","35.028026","136.958001","0","3"
"23","愛知県","23223","大府市","232230004003","追分町三丁目","35.025599","136.957813","0","3"
"23","愛知県","23223","大府市","232230004004","追分町四丁目","35.029461","136.961355","0","3"
"23","愛知県","23223","大府市","232230004005","追分町五丁目","35.025544","136.960890","0","3"
"23","愛知県","23223","大府市","232230004006","追分町六丁目","35.023183","136.959249","0","3"
"23","愛知県","23223","大府市","232230005000","大府町","35.010840","136.945156","0","1"
"23","愛知県","23223","大府市","232230006001","梶田町一丁目","35.041156","136.964436","0","3"
"23","愛知県","23223","大府市","232230006002","梶田町二丁目","35.039555","136.966018","0","3"
"23","愛知県","23223","大府市","232230006003","梶田町三丁目","35.038273","136.968215","0","3"
"23","愛知県","23223","大府市","232230006004","梶田町四丁目","35.035621","136.969299","0","3"
"23","愛知県","23223","大府市","232230006005","梶田町五丁目","35.036040","136.965595","0","3"
"23","愛知県","23223","大府市","232230006006","梶田町六丁目","35.034243","136.968447","0","3"
"23","愛知県","23223","大府市","232230007001","神田町一丁目","35.028150","136.980784","0","3"
"23","愛知県","23223","大府市","232230007002","神田町二丁目","35.028842","136.983001","0","3"
"23","愛知県","23223","大府市","232230007003","神田町三丁目","35.025403","136.986541","0","3"
"23","愛知県","23223","大府市","232230007004","神田町四丁目","35.027448","136.986786","0","3"
"23","愛知県","23223","大府市","232230007005","神田町五丁目","35.029206","136.986357","0","3"
"23","愛知県","23223","大府市","232230007006","神田町六丁目","35.027652","136.990525","0","3"
"23","愛知県","23223","大府市","232230007007","神田町七丁目","35.024174","136.988976","0","3"
"23","愛知県","23223","大府市","232230008001","北崎町一丁目","35.037679","136.982382","0","3"
"23","愛知県","23223","大府市","232230008002","北崎町二丁目","35.034074","136.981656","0","3"
"23","愛知県","23223","大府市","232230008003","北崎町三丁目","35.032762","136.983810","0","3"
"23","愛知県","23223","大府市","232230008004","北崎町四丁目","35.031528","136.986907","0","3"
"23","愛知県","23223","大府市","232230008005","北崎町五丁目","35.035202","136.985407","0","3"
"23","愛知県","23223","大府市","232230008006","北崎町六丁目","35.034172","136.989680","0","3"
"23","愛知県","23223","大府市","232230008007","北崎町七丁目","35.029979","136.990983","0","3"
"23","愛知県","23223","大府市","232230009000","北崎町","35.029484","136.997205","0","1"
"23","愛知県","23223","大府市","232230010001","北山町一丁目","35.032933","136.966333","0","3"
"23","愛知県","23223","大府市","232230010002","北山町二丁目","35.030142","136.964879","0","3"
"23","愛知県","23223","大府市","232230010003","北山町三丁目","35.030694","136.968958","0","3"
"23","愛知県","23223","大府市","232230010004","北山町四丁目","35.027070","136.969264","0","3"
"23","愛知県","23223","大府市","232230011001","共栄町一丁目","35.046028","136.954996","0","3"
"23","愛知県","23223","大府市","232230011002","共栄町二丁目","35.045578","136.957523","0","3"
"23","愛知県","23223","大府市","232230011003","共栄町三丁目","35.043171","136.954173","0","3"
"23","愛知県","23223","大府市","232230011004","共栄町四丁目","35.043022","136.956681","0","3"
"23","愛知県","23223","大府市","232230011005","共栄町五丁目","35.042078","136.959941","0","3"
"23","愛知県","23223","大府市","232230011006","共栄町六丁目","35.040482","136.959029","0","3"
"23","愛知県","23223","大府市","232230011007","共栄町七丁目","35.039738","136.956209","0","3"
"23","愛知県","23223","大府市","232230011008","共栄町八丁目","35.039287","136.954545","0","3"
"23","愛知県","23223","大府市","232230011009","共栄町九丁目","35.036353","136.955631","0","3"
"23","愛知県","23223","大府市","232230012001","共西町一丁目","35.036827","136.944591","0","3"
"23","愛知県","23223","大府市","232230012002","共西町二丁目","35.033956","136.945892","0","3"
"23","愛知県","23223","大府市","232230012003","共西町三丁目","35.032816","136.947292","0","3"
"23","愛知県","23223","大府市","232230012004","共西町四丁目","35.038154","136.941852","0","3"
"23","愛知県","23223","大府市","232230012005","共西町五丁目","35.036035","136.941719","0","3"
"23","愛知県","23223","大府市","232230012006","共西町六丁目","35.033085","136.943198","0","3"
"23","愛知県","23223","大府市","232230012007","共西町七丁目","35.031229","136.945622","0","3"
"23","愛知県","23223","大府市","232230013001","共和町一丁目","35.039485","136.952024","0","3"
"23","愛知県","23223","大府市","232230013002","共和町二丁目","35.035715","136.952650","0","3"
"23","愛知県","23223","大府市","232230013003","共和町三丁目","35.032169","136.953549","0","3"
"23","愛知県","23223","大府市","232230013004","共和町四丁目","35.038983","136.947139","0","3"
"23","愛知県","23223","大府市","232230013005","共和町五丁目","35.034966","136.949454","0","3"
"23","愛知県","23223","大府市","232230013006","共和町六丁目","35.031920","136.950220","0","3"
"23","愛知県","23223","大府市","232230013007","共和町七丁目","35.036788","136.947299","0","3"
"23","愛知県","23223","大府市","232230014000","共和町","35.042774","136.942519","0","1"
"23","愛知県","23223","大府市","232230015001","米田町一丁目","34.989327","136.929205","0","3"
"23","愛知県","23223","大府市","232230015002","米田町二丁目","34.985587","136.928782","0","3"
"23","愛知県","23223","大府市","232230015003","米田町三丁目","34.989587","136.924637","0","3"
"23","愛知県","23223","大府市","232230015004","米田町四丁目","34.985743","136.924951","0","3"
"23","愛知県","23223","大府市","232230015005","米田町五丁目","34.980467","136.925629","0","3"
"23","愛知県","23223","大府市","232230016001","桜木町一丁目","34.990947","136.920425","0","3"
"23","愛知県","23223","大府市","232230016002","桜木町二丁目","34.988825","136.919975","0","3"
"23","愛知県","23223","大府市","232230016003","桜木町三丁目","34.985031","136.921033","0","3"
"23","愛知県","23223","大府市","232230016004","桜木町四丁目","34.984359","136.918301","0","3"
"23","愛知県","23223","大府市","232230016005","桜木町五丁目","34.979967","136.922181","0","3"
"23","愛知県","23223","大府市","232230017001","大東町一丁目","35.008832","136.971411","0","3"
"23","愛知県","23223","大府市","232230017002","大東町二丁目","35.004496","136.974534","0","3"
"23","愛知県","23223","大府市","232230017003","大東町三丁目","35.009079","136.974916","0","3"
"23","愛知県","23223","大府市","232230017004","大東町四丁目","35.005381","136.977269","0","3"
"23","愛知県","23223","大府市","232230017005","大東町五丁目","35.003272","136.979883","0","3"
"23","愛知県","23223","大府市","232230018001","高丘町一丁目","34.994586","136.935763","0","3"
"23","愛知県","23223","大府市","232230018002","高丘町二丁目","34.995104","136.933084","0","3"
"23","愛知県","23223","大府市","232230018003","高丘町三丁目","34.995734","136.930801","0","3"
"23","愛知県","23223","大府市","232230019001","中央町一丁目","35.015970","136.959166","0","3"
"23","愛知県","23223","大府市","232230019002","中央町二丁目","35.012152","136.960746","0","3"
"23","愛知県","23223","大府市","232230019003","中央町三丁目","35.009397","136.962407","0","3"
"23","愛知県","23223","大府市","232230019004","中央町四丁目","35.007454","136.963959","0","3"
"23","愛知県","23223","大府市","232230019005","中央町五丁目","35.012063","136.962551","0","3"
"23","愛知県","23223","大府市","232230019006","中央町六丁目","35.010657","136.964147","0","3"
"23","愛知県","23223","大府市","232230019007","中央町七丁目","35.008987","136.965821","0","3"
"23","愛知県","23223","大府市","232230020001","月見町一丁目","35.006610","136.961074","0","3"
"23","愛知県","23223","大府市","232230020002","月見町二丁目","35.003804","136.963035","0","3"
"23","愛知県","23223","大府市","232230020003","月見町三丁目","35.006343","136.958062","0","3"
"23","愛知県","23223","大府市","232230020004","月見町四丁目","35.004005","136.959842","0","3"
"23","愛知県","23223","大府市","232230020005","月見町五丁目","35.006821","136.954530","0","3"
"23","愛知県","23223","大府市","232230020006","月見町六丁目","35.003669","136.957029","0","3"
"23","愛知県","23223","大府市","232230021001","東新町一丁目","35.036902","136.959197","0","3"
"23","愛知県","23223","大府市","232230021002","東新町二丁目","35.034104","136.957858","0","3"
"23","愛知県","23223","大府市","232230021003","東新町三丁目","35.032277","136.958220","0","3"
"23","愛知県","23223","大府市","232230021004","東新町四丁目","35.038059","136.962443","0","3"
"23","愛知県","23223","大府市","232230021005","東新町五丁目","35.035476","136.962342","0","3"
"23","愛知県","23223","大府市","232230021006","東新町六丁目","35.032825","136.962904","0","3"
"23","愛知県","23223","大府市","232230022000","長草町","35.023419","136.940474","0","1"
"23","愛知県","23223","大府市","232230023001","長根町一丁目","35.027874","136.964034","0","3"
"23","愛知県","23223","大府市","232230023002","長根町二丁目","35.022901","136.962878","0","3"
"23","愛知県","23223","大府市","232230023003","長根町三丁目","35.025438","136.965573","0","3"
"23","愛知県","23223","大府市","232230023004","長根町四丁目","35.024305","136.967655","0","3"
"23","愛知県","23223","大府市","232230023005","長根町五丁目","35.021846","136.966479","0","3"
"23","愛知県","23223","大府市","232230023006","長根町六丁目","35.020161","136.967021","0","3"
"23","愛知県","23223","大府市","232230024001","半月町一丁目","35.006353","136.941767","0","3"
"23","愛知県","23223","大府市","232230024002","半月町二丁目","35.002995","136.942046","0","3"
"23","愛知県","23223","大府市","232230024003","半月町三丁目","34.998555","136.941042","0","3"
"23","愛知県","23223","大府市","232230024004","半月町四丁目","34.996008","136.940732","0","3"
"23","愛知県","23223","大府市","232230025001","柊山町一丁目","35.017576","136.955946","0","3"
"23","愛知県","23223","大府市","232230025002","柊山町二丁目","35.015399","136.955080","0","3"
"23","愛知県","23223","大府市","232230025003","柊山町三丁目","35.019272","136.950752","0","3"
"23","愛知県","23223","大府市","232230025004","柊山町四丁目","35.017153","136.950519","0","3"
"23","愛知県","23223","大府市","232230025005","柊山町五丁目","35.014443","136.951605","0","3"
"23","愛知県","23223","大府市","232230025006","柊山町六丁目","35.018902","136.946590","0","3"
"23","愛知県","23223","大府市","232230025007","柊山町七丁目","35.015891","136.945889","0","3"
"23","愛知県","23223","大府市","232230025008","柊山町八丁目","35.013912","136.947903","0","3"
"23","愛知県","23223","大府市","232230026001","一屋町一丁目","35.027457","136.955042","0","3"
"23","愛知県","23223","大府市","232230026002","一屋町二丁目","35.024004","136.955256","0","3"
"23","愛知県","23223","大府市","232230026003","一屋町三丁目","35.021075","136.955304","0","3"
"23","愛知県","23223","大府市","232230026004","一屋町四丁目","35.027208","136.953143","0","3"
"23","愛知県","23223","大府市","232230026005","一屋町五丁目","35.024409","136.953089","0","3"
"23","愛知県","23223","大府市","232230027001","宮内町一丁目","35.011585","136.930232","0","3"
"23","愛知県","23223","大府市","232230027002","宮内町二丁目","35.009308","136.931006","0","3"
"23","愛知県","23223","大府市","232230027003","宮内町三丁目","35.006987","136.931140","0","3"
"23","愛知県","23223","大府市","232230027004","宮内町四丁目","35.007311","136.927258","0","3"
"23","愛知県","23223","大府市","232230027005","宮内町五丁目","35.011053","136.924741","0","3"
"23","愛知県","23223","大府市","232230027006","宮内町六丁目","35.006972","136.922633","0","3"
"23","愛知県","23223","大府市","232230027007","宮内町七丁目","35.008667","136.919277","0","3"
"23","愛知県","23223","大府市","232230028001","明成町一丁目","35.029720","136.949144","0","3"
"23","愛知県","23223","大府市","232230028002","明成町二丁目","35.027473","136.949238","0","3"
"23","愛知県","23223","大府市","232230028003","明成町三丁目","35.023458","136.950968","0","3"
"23","愛知県","23223","大府市","232230028004","明成町四丁目","35.022497","136.948956","0","3"
"23","愛知県","23223","大府市","232230029001","桃山町一丁目","35.019725","136.961034","0","3"
"23","愛知県","23223","大府市","232230029002","桃山町二丁目","35.016613","136.961667","0","3"
"23","愛知県","23223","大府市","232230029003","桃山町三丁目","35.018238","136.965836","0","3"
"23","愛知県","23223","大府市","232230029004","桃山町四丁目","35.015511","136.966097","0","3"
"23","愛知県","23223","大府市","232230029005","桃山町五丁目","35.012937","136.965214","0","3"
"23","愛知県","23223","大府市","232230030001","森岡町一丁目","35.007551","136.950430","0","3"
"23","愛知県","23223","大府市","232230030002","森岡町二丁目","35.007683","136.947703","0","3"
"23","愛知県","23223","大府市","232230030003","森岡町三丁目","35.007779","136.943848","0","3"
"23","愛知県","23223","大府市","232230030004","森岡町四丁目","35.004444","136.950763","0","3"
"23","愛知県","23223","大府市","232230030005","森岡町五丁目","35.004477","136.946626","0","3"
"23","愛知県","23223","大府市","232230030006","森岡町六丁目","35.002477","136.946158","0","3"
"23","愛知県","23223","大府市","232230031000","横根町","35.023227","136.975257","0","1"
"23","愛知県","23223","大府市","232230032001","吉川町一丁目","35.004084","136.927212","0","3"
"23","愛知県","23223","大府市","232230032002","吉川町二丁目","35.002089","136.926396","0","3"
"23","愛知県","23223","大府市","232230032003","吉川町三丁目","34.999054","136.927222","0","3"
"23","愛知県","23223","大府市","232230032004","吉川町四丁目","35.003449","136.923738","0","3"
"23","愛知県","23223","大府市","232230032005","吉川町五丁目","35.000770","136.923571","0","3"
"23","愛知県","23223","大府市","232230032006","吉川町六丁目","35.003489","136.919387","0","3"
"23","愛知県","23223","大府市","232230032007","吉川町七丁目","35.000430","136.919977","0","3"
"23","愛知県","23223","大府市","232230033001","吉田町一丁目","35.003171","136.938924","0","3"
"23","愛知県","23223","大府市","232230033002","吉田町二丁目","35.000081","136.937477","0","3"
"23","愛知県","23223","大府市","232230033003","吉田町三丁目","35.003783","136.935365","0","3"
"23","愛知県","23223","大府市","232230033004","吉田町四丁目","35.000615","136.934036","0","3"
"23","愛知県","23223","大府市","232230033005","吉田町五丁目","35.004034","136.931044","0","3"
"23","愛知県","23223","大府市","232230033006","吉田町六丁目","35.001441","136.930270","0","3"
"23","愛知県","23223","大府市","232230034000","吉田町","34.989565","136.934060","0","1"
"23","愛知県","23223","大府市","232230035001","若草町一丁目","35.016653","136.970157","0","3"
"23","愛知県","23223","大府市","232230035002","若草町二丁目","35.012578","136.968439","0","3"
"23","愛知県","23223","大府市","232230035003","若草町三丁目","35.010859","136.969314","0","3"
"23","愛知県","23223","大府市","232230035004","若草町四丁目","35.012930","136.972467","0","3"
"23","愛知県","23223","大府市","232230030009","森岡町九丁目","34.998267","136.946586","0","3"
"23","愛知県","23223","大府市","232230030008","森岡町八丁目","35.001472","136.951393","0","3"
"23","愛知県","23223","大府市","232230030007","森岡町七丁目","35.001106","136.955280","0","3"
