"PrefCode","PrefName","MuniCode","MuniName","DistCode","DistName","lat","lon","SrcCode","CatCode"
"23","愛知県","23361","丹羽郡大口町","233610001001","秋田一丁目","35.321759","136.900830","0","3"
"23","愛知県","23361","丹羽郡大口町","233610001002","秋田二丁目","35.322054","136.906648","0","3"
"23","愛知県","23361","丹羽郡大口町","233610001003","秋田三丁目","35.318591","136.902253","0","3"
"23","愛知県","23361","丹羽郡大口町","233610001004","秋田四丁目","35.316150","136.903049","0","3"
"23","愛知県","23361","丹羽郡大口町","233610002000","大字小口","35.344326","136.916370","0","1"
"23","愛知県","23361","丹羽郡大口町","233610003000","大字河北","35.360172","136.939899","0","1"
"23","愛知県","23361","丹羽郡大口町","233610004001","大屋敷一丁目","35.327289","136.894469","0","3"
"23","愛知県","23361","丹羽郡大口町","233610004002","大屋敷二丁目","35.327236","136.899528","0","3"
"23","愛知県","23361","丹羽郡大口町","233610004003","大屋敷三丁目","35.326017","136.901426","0","3"
"23","愛知県","23361","丹羽郡大口町","233610005001","大御堂一丁目","35.331752","136.895314","0","3"
"23","愛知県","23361","丹羽郡大口町","233610005002","大御堂二丁目","35.331600","136.899267","0","3"
"23","愛知県","23361","丹羽郡大口町","233610006001","替地一丁目","35.314201","136.897953","0","3"
"23","愛知県","23361","丹羽郡大口町","233610006002","替地二丁目","35.314602","136.903667","0","3"
"23","愛知県","23361","丹羽郡大口町","233610006003","替地三丁目","35.311011","136.897777","0","3"
"23","愛知県","23361","丹羽郡大口町","233610007000","垣田","35.346660","136.910684","0","1"
"23","愛知県","23361","丹羽郡大口町","233610008001","上小口一丁目","35.349088","136.920797","0","3"
"23","愛知県","23361","丹羽郡大口町","233610008002","上小口二丁目","35.346213","136.927797","0","3"
"23","愛知県","23361","丹羽郡大口町","233610008003","上小口三丁目","35.344323","136.922027","0","3"
"23","愛知県","23361","丹羽郡大口町","233610009001","河北一丁目","35.354260","136.939919","0","3"
"23","愛知県","23361","丹羽郡大口町","233610009002","河北二丁目","35.347203","136.933607","0","3"
"23","愛知県","23361","丹羽郡大口町","233610009003","河北三丁目","35.344069","136.933009","0","3"
"23","愛知県","23361","丹羽郡大口町","233610010001","御供所一丁目","35.318303","136.885150","0","3"
"23","愛知県","23361","丹羽郡大口町","233610010002","御供所二丁目","35.315099","136.886693","0","3"
"23","愛知県","23361","丹羽郡大口町","233610010003","御供所三丁目","35.314816","136.893634","0","3"
"23","愛知県","23361","丹羽郡大口町","233610011001","さつきケ丘一丁目","35.347647","136.909447","0","3"
"23","愛知県","23361","丹羽郡大口町","233610011002","さつきケ丘二丁目","35.345559","136.907964","0","3"
"23","愛知県","23361","丹羽郡大口町","233610012001","下小口一丁目","35.338820","136.910546","0","3"
"23","愛知県","23361","丹羽郡大口町","233610012002","下小口二丁目","35.340220","136.913025","0","3"
"23","愛知県","23361","丹羽郡大口町","233610012003","下小口三丁目","35.338284","136.914457","0","3"
"23","愛知県","23361","丹羽郡大口町","233610012004","下小口四丁目","35.334780","136.912456","0","3"
"23","愛知県","23361","丹羽郡大口町","233610012005","下小口五丁目","35.332992","136.918092","0","3"
"23","愛知県","23361","丹羽郡大口町","233610012006","下小口六丁目","35.331311","136.912853","0","3"
"23","愛知県","23361","丹羽郡大口町","233610012007","下小口七丁目","35.333550","136.908780","0","3"
"23","愛知県","23361","丹羽郡大口町","233610013001","城屋敷一丁目","35.340960","136.916469","0","3"
"23","愛知県","23361","丹羽郡大口町","233610013002","城屋敷二丁目","35.339027","136.918124","0","3"
"23","愛知県","23361","丹羽郡大口町","233610014001","新宮一丁目","35.330973","136.922161","0","3"
"23","愛知県","23361","丹羽郡大口町","233610014002","新宮二丁目","35.327589","136.920591","0","3"
"23","愛知県","23361","丹羽郡大口町","233610015001","高橋一丁目","35.323838","136.895547","0","3"
"23","愛知県","23361","丹羽郡大口町","233610015002","高橋二丁目","35.326074","136.904640","0","3"
"23","愛知県","23361","丹羽郡大口町","233610016001","竹田一丁目","35.338814","136.900146","0","3"
"23","愛知県","23361","丹羽郡大口町","233610016002","竹田二丁目","35.334869","136.904412","0","3"
"23","愛知県","23361","丹羽郡大口町","233610016003","竹田三丁目","35.334703","136.897558","0","3"
"23","愛知県","23361","丹羽郡大口町","233610017001","伝右一丁目","35.327107","136.911288","0","3"
"23","愛知県","23361","丹羽郡大口町","233610017002","伝右二丁目","35.324105","136.909118","0","3"
"23","愛知県","23361","丹羽郡大口町","233610018001","外坪一丁目","35.324719","136.921447","0","3"
"23","愛知県","23361","丹羽郡大口町","233610018002","外坪二丁目","35.326912","136.926399","0","3"
"23","愛知県","23361","丹羽郡大口町","233610018003","外坪三丁目","35.322231","136.922360","0","3"
"23","愛知県","23361","丹羽郡大口町","233610018004","外坪四丁目","35.321023","136.919228","0","3"
"23","愛知県","23361","丹羽郡大口町","233610018005","外坪五丁目","35.322162","136.916614","0","3"
"23","愛知県","23361","丹羽郡大口町","233610019001","豊田一丁目","35.310947","136.884627","0","3"
"23","愛知県","23361","丹羽郡大口町","233610019002","豊田二丁目","35.309833","136.887740","0","3"
"23","愛知県","23361","丹羽郡大口町","233610019003","豊田三丁目","35.308643","136.891621","0","3"
"23","愛知県","23361","丹羽郡大口町","233610020001","仲沖一丁目","35.339763","136.931860","0","3"
"23","愛知県","23361","丹羽郡大口町","233610020002","仲沖二丁目","35.337372","136.931185","0","3"
"23","愛知県","23361","丹羽郡大口町","233610021001","中小口一丁目","35.348510","136.913965","0","3"
"23","愛知県","23361","丹羽郡大口町","233610021002","中小口二丁目","35.342612","136.920957","0","3"
"23","愛知県","23361","丹羽郡大口町","233610021003","中小口三丁目","35.339265","136.922284","0","3"
"23","愛知県","23361","丹羽郡大口町","233610021004","中小口四丁目","35.342161","136.927914","0","3"
"23","愛知県","23361","丹羽郡大口町","233610021005","中小口五丁目","35.335080","136.922446","0","3"
"23","愛知県","23361","丹羽郡大口町","233610022001","奈良子一丁目","35.322787","136.891881","0","3"
"23","愛知県","23361","丹羽郡大口町","233610022002","奈良子二丁目","35.321113","136.895658","0","3"
"23","愛知県","23361","丹羽郡大口町","233610022003","奈良子三丁目","35.318828","136.894861","0","3"
"23","愛知県","23361","丹羽郡大口町","233610023001","萩島一丁目","35.336688","136.926781","0","3"
"23","愛知県","23361","丹羽郡大口町","233610023002","萩島二丁目","35.330990","136.926626","0","3"
"23","愛知県","23361","丹羽郡大口町","233610024001","二ツ屋一丁目","35.335034","136.931210","0","3"
"23","愛知県","23361","丹羽郡大口町","233610024002","二ツ屋二丁目","35.330588","136.930603","0","3"
"23","愛知県","23361","丹羽郡大口町","233610025001","堀尾跡一丁目","35.318645","136.888390","0","3"
"23","愛知県","23361","丹羽郡大口町","233610025002","堀尾跡二丁目","35.318381","136.891013","0","3"
"23","愛知県","23361","丹羽郡大口町","233610026001","丸一丁目","35.331502","136.902531","0","3"
"23","愛知県","23361","丹羽郡大口町","233610026002","丸二丁目","35.330840","136.905441","0","3"
"23","愛知県","23361","丹羽郡大口町","233610027001","余野一丁目","35.343449","136.903417","0","3"
"23","愛知県","23361","丹羽郡大口町","233610027002","余野二丁目","35.344119","136.907653","0","3"
"23","愛知県","23361","丹羽郡大口町","233610027003","余野三丁目","35.344449","136.911963","0","3"
"23","愛知県","23361","丹羽郡大口町","233610027004","余野四丁目","35.341488","136.906826","0","3"
"23","愛知県","23361","丹羽郡大口町","233610027005","余野五丁目","35.339028","136.907718","0","3"
"23","愛知県","23361","丹羽郡大口町","233610027006","余野六丁目","35.340005","136.903061","0","3"
