"PrefCode","PrefName","MuniCode","MuniName","DistCode","DistName","lat","lon","SrcCode","CatCode"
"25","滋賀県","25202","彦根市","252020001000","旭町","35.273953","136.261864","0","1"
"25","滋賀県","25202","彦根市","252020002000","安食中町","35.209701","136.217785","0","1"
"25","滋賀県","25202","彦根市","252020003000","池州町","35.270179","136.246760","0","1"
"25","滋賀県","25202","彦根市","252020004000","石寺町","35.236909","136.185344","0","1"
"25","滋賀県","25202","彦根市","252020005000","稲枝町","35.200741","136.191919","0","1"
"25","滋賀県","25202","彦根市","252020006000","稲里町","35.222931","136.197154","0","1"
"25","滋賀県","25202","彦根市","252020007000","稲部町","35.208177","136.194924","0","1"
"25","滋賀県","25202","彦根市","252020008000","犬方町","35.233606","136.245880","0","1"
"25","滋賀県","25202","彦根市","252020009000","宇尾町","35.242610","136.233021","0","1"
"25","滋賀県","25202","彦根市","252020010000","大橋町","35.260015","136.257308","0","1"
"25","滋賀県","25202","彦根市","252020011000","大堀町","35.242792","136.267743","0","1"
"25","滋賀県","25202","彦根市","252020012000","大藪町","35.268075","136.232671","0","1"
"25","滋賀県","25202","彦根市","252020013000","男鬼町","35.272434","136.335531","0","1"
"25","滋賀県","25202","彦根市","252020014000","岡町","35.254131","136.255637","0","1"
"25","滋賀県","25202","彦根市","252020015000","尾末町","35.276717","136.257651","0","1"
"25","滋賀県","25202","彦根市","252020016000","小野町","35.269596","136.282664","0","1"
"25","滋賀県","25202","彦根市","252020017000","海瀬町","35.207694","136.210326","0","1"
"25","滋賀県","25202","彦根市","252020018000","開出今町","35.256266","136.226131","0","1"
"25","滋賀県","25202","彦根市","252020019000","賀田山町","35.220797","136.210290","0","1"
"25","滋賀県","25202","彦根市","252020020000","金沢町","35.211988","136.201096","0","1"
"25","滋賀県","25202","彦根市","252020021000","金田町","35.213066","136.187909","0","1"
"25","滋賀県","25202","彦根市","252020022000","上稲葉町","35.199813","136.184562","0","1"
"25","滋賀県","25202","彦根市","252020023000","上岡部町","35.222933","136.186689","0","1"
"25","滋賀県","25202","彦根市","252020024000","上西川町","35.219808","136.174594","0","1"
"25","滋賀県","25202","彦根市","252020025000","川瀬馬場町","35.226775","136.230254","0","1"
"25","滋賀県","25202","彦根市","252020026001","河原一丁目","35.262926","136.257037","0","3"
"25","滋賀県","25202","彦根市","252020026002","河原二丁目","35.264766","136.254520","0","3"
"25","滋賀県","25202","彦根市","252020026003","河原三丁目","35.264708","136.256775","0","3"
"25","滋賀県","25202","彦根市","252020027000","甘呂町","35.247678","136.219016","0","1"
"25","滋賀県","25202","彦根市","252020028001","京町一丁目","35.267720","136.258976","0","3"
"25","滋賀県","25202","彦根市","252020028002","京町二丁目","35.268385","136.256769","0","3"
"25","滋賀県","25202","彦根市","252020028003","京町三丁目","35.271105","136.258736","0","3"
"25","滋賀県","25202","彦根市","252020029000","清崎町","35.227692","136.210389","0","1"
"25","滋賀県","25202","彦根市","252020030000","銀座町","35.267287","136.253740","0","1"
"25","滋賀県","25202","彦根市","252020031000","小泉町","35.249386","136.248535","0","1"
"25","滋賀県","25202","彦根市","252020032000","甲崎町","35.225517","136.168174","0","1"
"25","滋賀県","25202","彦根市","252020033000","甲田町","35.295135","136.287002","0","1"
"25","滋賀県","25202","彦根市","252020034000","広野町","35.238019","136.244305","0","1"
"25","滋賀県","25202","彦根市","252020035000","極楽寺町","35.229895","136.233796","0","1"
"25","滋賀県","25202","彦根市","252020036000","後三条町","35.262882","136.250093","0","1"
"25","滋賀県","25202","彦根市","252020037000","金亀町","35.276556","136.251825","0","1"
"25","滋賀県","25202","彦根市","252020038000","金剛寺町","35.232175","136.238957","0","1"
"25","滋賀県","25202","彦根市","252020039000","幸町","35.264355","136.269136","0","1"
"25","滋賀県","25202","彦根市","252020040001","栄町一丁目","35.272641","136.245845","0","3"
"25","滋賀県","25202","彦根市","252020040002","栄町二丁目","35.274097","136.242495","0","3"
"25","滋賀県","25202","彦根市","252020041000","笹尾町","35.261310","136.300931","0","1"
"25","滋賀県","25202","彦根市","252020042000","薩摩町","35.232319","136.166747","0","1"
"25","滋賀県","25202","彦根市","252020043000","里根町","35.267513","136.270849","0","1"
"25","滋賀県","25202","彦根市","252020044000","佐和町","35.272985","136.259362","0","1"
"25","滋賀県","25202","彦根市","252020045000","佐和山町","35.280493","136.274270","0","1"
"25","滋賀県","25202","彦根市","252020046000","地蔵町","35.253765","136.268826","0","1"
"25","滋賀県","25202","彦根市","252020047000","下稲葉町","35.199568","136.179070","0","1"
"25","滋賀県","25202","彦根市","252020048000","下岡部町","35.224962","136.182479","0","1"
"25","滋賀県","25202","彦根市","252020049000","下西川町","35.229541","136.179798","0","1"
"25","滋賀県","25202","彦根市","252020050000","下矢倉町","35.291067","136.284468","0","1"
"25","滋賀県","25202","彦根市","252020051000","荘厳寺町","35.277827","136.304033","0","1"
"25","滋賀県","25202","彦根市","252020052000","正法寺町","35.251686","136.276863","0","1"
"25","滋賀県","25202","彦根市","252020053001","城町一丁目","35.274026","136.247399","0","3"
"25","滋賀県","25202","彦根市","252020053002","城町二丁目","35.276311","136.244542","0","3"
"25","滋賀県","25202","彦根市","252020054000","新海町","35.214828","136.135403","0","1"
"25","滋賀県","25202","彦根市","252020055001","新海浜一丁目","35.215181","136.119449","0","3"
"25","滋賀県","25202","彦根市","252020055002","新海浜二丁目","35.215750","136.124202","0","3"
"25","滋賀県","25202","彦根市","252020056000","新町","35.263113","136.255015","0","1"
"25","滋賀県","25202","彦根市","252020057000","須越町","35.250097","136.201201","0","1"
"25","滋賀県","25202","彦根市","252020058000","芹川町","35.260096","136.262369","0","1"
"25","滋賀県","25202","彦根市","252020059000","芹中町","35.261491","136.256206","0","1"
"25","滋賀県","25202","彦根市","252020060001","芹橋一丁目","35.266333","136.252375","0","3"
"25","滋賀県","25202","彦根市","252020060002","芹橋二丁目","35.268285","136.249372","0","3"
"25","滋賀県","25202","彦根市","252020061000","芹町","35.261568","136.258834","0","1"
"25","滋賀県","25202","彦根市","252020062000","善谷町","35.285968","136.312729","0","1"
"25","滋賀県","25202","彦根市","252020063000","太堂町","35.214175","136.210404","0","1"
"25","滋賀県","25202","彦根市","252020064000","大東町","35.270454","136.261304","0","1"
"25","滋賀県","25202","彦根市","252020065000","高宮町","35.235438","136.260158","0","1"
"25","滋賀県","25202","彦根市","252020066000","竹ケ鼻町","35.242443","136.243504","0","1"
"25","滋賀県","25202","彦根市","252020067000","立花町","35.272102","136.256447","0","1"
"25","滋賀県","25202","彦根市","252020068000","田附町","35.214844","136.149279","0","1"
"25","滋賀県","25202","彦根市","252020069000","田原町","35.215465","136.176949","0","1"
"25","滋賀県","25202","彦根市","252020070000","千尋町","35.215685","136.215227","0","1"
"25","滋賀県","25202","彦根市","252020071000","中央町","35.269452","136.254758","0","1"
"25","滋賀県","25202","彦根市","252020072000","辻堂町","35.235266","136.232530","0","1"
"25","滋賀県","25202","彦根市","252020073000","葛籠町","35.220945","136.248114","0","1"
"25","滋賀県","25202","彦根市","252020074000","出路町","35.209552","136.178231","0","1"
"25","滋賀県","25202","彦根市","252020075000","出町","35.216549","136.239315","0","1"
"25","滋賀県","25202","彦根市","252020076000","戸賀町","35.253830","136.240522","0","1"
"25","滋賀県","25202","彦根市","252020077000","外町","35.266095","136.265007","0","1"
"25","滋賀県","25202","彦根市","252020078000","鳥居本町","35.280972","136.287521","0","1"
"25","滋賀県","25202","彦根市","252020079000","長曽根町","35.276439","136.239730","0","1"
"25","滋賀県","25202","彦根市","252020080000","長曽根南町","35.263630","136.243528","0","1"
"25","滋賀県","25202","彦根市","252020081001","中藪一丁目","35.271272","136.243858","0","3"
"25","滋賀県","25202","彦根市","252020081002","中藪二丁目","35.272565","136.240929","0","3"
"25","滋賀県","25202","彦根市","252020082000","中藪町","35.269831","136.241285","0","1"
"25","滋賀県","25202","彦根市","252020083000","中山町","35.291745","136.301344","0","1"
"25","滋賀県","25202","彦根市","252020084000","西今町","35.252040","136.238942","0","1"
"25","滋賀県","25202","彦根市","252020085000","錦町","35.266479","136.256061","0","1"
"25","滋賀県","25202","彦根市","252020086000","西葛籠町","35.224333","136.243088","0","1"
"25","滋賀県","25202","彦根市","252020087000","西沼波町","35.256909","136.263446","0","1"
"25","滋賀県","25202","彦根市","252020088000","楡町","35.216814","136.220731","0","1"
"25","滋賀県","25202","彦根市","252020089000","野口町","35.221132","136.237717","0","1"
"25","滋賀県","25202","彦根市","252020090000","野瀬町","35.252063","136.234186","0","1"
"25","滋賀県","25202","彦根市","252020091000","野田山町","35.247683","136.284446","0","1"
"25","滋賀県","25202","彦根市","252020092000","沼波町","35.257041","136.258338","0","1"
"25","滋賀県","25202","彦根市","252020093000","野良田町","35.199580","136.197117","0","1"
"25","滋賀県","25202","彦根市","252020094000","橋向町","35.263699","136.252698","0","1"
"25","滋賀県","25202","彦根市","252020095000","八坂町","35.260655","136.219379","0","1"
"25","滋賀県","25202","彦根市","252020096000","服部町","35.194823","136.186283","0","1"
"25","滋賀県","25202","彦根市","252020097000","原町","35.260530","136.278864","0","1"
"25","滋賀県","25202","彦根市","252020098001","馬場一丁目","35.279628","136.247178","0","3"
"25","滋賀県","25202","彦根市","252020098002","馬場二丁目","35.280735","136.245228","0","3"
"25","滋賀県","25202","彦根市","252020099000","東沼波町","35.250354","136.259491","0","1"
"25","滋賀県","25202","彦根市","252020100000","彦富町","35.205083","136.186563","0","1"
"25","滋賀県","25202","彦根市","252020101000","肥田町","35.200343","136.205058","0","1"
"25","滋賀県","25202","彦根市","252020102000","日夏町","35.238871","136.212409","0","1"
"25","滋賀県","25202","彦根市","252020103000","平田町","35.257957","136.242515","0","1"
"25","滋賀県","25202","彦根市","252020104000","普光寺町","35.220468","136.164587","0","1"
"25","滋賀県","25202","彦根市","252020105000","仏生寺町","35.274054","136.312867","0","1"
"25","滋賀県","25202","彦根市","252020106000","武奈町","35.286091","136.335743","0","1"
"25","滋賀県","25202","彦根市","252020107000","船町","35.275807","136.262217","0","1"
"25","滋賀県","25202","彦根市","252020108000","古沢町","35.277533","136.266164","0","1"
"25","滋賀県","25202","彦根市","252020109000","法士町","35.227754","136.248929","0","1"
"25","滋賀県","25202","彦根市","252020110000","堀町","35.237377","136.235867","0","1"
"25","滋賀県","25202","彦根市","252020111000","本庄町","35.207781","136.168396","0","1"
"25","滋賀県","25202","彦根市","252020112001","本町一丁目","35.270308","136.252520","0","3"
"25","滋賀県","25202","彦根市","252020112002","本町二丁目","35.271446","136.250643","0","3"
"25","滋賀県","25202","彦根市","252020112003","本町三丁目","35.272636","136.249093","0","3"
"25","滋賀県","25202","彦根市","252020113001","松原一丁目","35.283454","136.251739","0","3"
"25","滋賀県","25202","彦根市","252020113002","松原二丁目","35.284725","136.249313","0","3"
"25","滋賀県","25202","彦根市","252020114000","松原町","35.288820","136.260920","0","1"
"25","滋賀県","25202","彦根市","252020115000","三津町","35.202961","136.212290","0","1"
"25","滋賀県","25202","彦根市","252020116000","三津屋町","35.242630","136.194406","0","1"
"25","滋賀県","25202","彦根市","252020117000","南川瀬町","35.219391","136.230895","0","1"
"25","滋賀県","25202","彦根市","252020118000","南三ツ谷町","35.217476","136.156398","0","1"
"25","滋賀県","25202","彦根市","252020119000","宮田町","35.289019","136.275915","0","1"
"25","滋賀県","25202","彦根市","252020120000","元岡町","35.258354","136.257820","0","1"
"25","滋賀県","25202","彦根市","252020121000","元町","35.275292","136.259369","0","1"
"25","滋賀県","25202","彦根市","252020122000","森堂町","35.230212","136.236987","0","1"
"25","滋賀県","25202","彦根市","252020123000","安清町","35.265559","136.260029","0","1"
"25","滋賀県","25202","彦根市","252020124000","安清東町","35.268239","136.263072","0","1"
"25","滋賀県","25202","彦根市","252020125000","柳川町","35.226443","136.155135","0","1"
"25","滋賀県","25202","彦根市","252020126000","山之脇町","35.255652","136.251067","0","1"
"25","滋賀県","25202","彦根市","252020127000","蓮台寺町","35.236061","136.227923","0","1"
"25","滋賀県","25202","彦根市","252020128000","和田町","35.258237","136.250948","0","1"
