"PrefCode","PrefName","MuniCode","MuniName","DistCode","DistName","lat","lon","SrcCode","CatCode"
"25","滋賀県","25201","大津市","252010001001","青山一丁目","34.982740","135.968774","0","3"
"25","滋賀県","25201","大津市","252010001002","青山二丁目","34.982838","135.972031","0","3"
"25","滋賀県","25201","大津市","252010001003","青山三丁目","34.980064","135.973061","0","3"
"25","滋賀県","25201","大津市","252010001004","青山四丁目","34.980415","135.969033","0","3"
"25","滋賀県","25201","大津市","252010001005","青山五丁目","34.979484","135.966794","0","3"
"25","滋賀県","25201","大津市","252010001006","青山六丁目","34.977649","135.971970","0","3"
"25","滋賀県","25201","大津市","252010001007","青山七丁目","34.975333","135.972433","0","3"
"25","滋賀県","25201","大津市","252010001008","青山八丁目","34.975475","135.975072","0","3"
"25","滋賀県","25201","大津市","252010002000","赤尾町","34.942668","135.899597","0","1"
"25","滋賀県","25201","大津市","252010003000","あかね町","35.042651","135.863475","0","1"
"25","滋賀県","25201","大津市","252010004000","秋葉台","34.988599","135.883157","0","1"
"25","滋賀県","25201","大津市","252010005001","朝日一丁目","35.140133","135.916437","0","3"
"25","滋賀県","25201","大津市","252010005002","朝日二丁目","35.144159","135.914367","0","3"
"25","滋賀県","25201","大津市","252010006001","朝日が丘一丁目","35.000367","135.868752","0","3"
"25","滋賀県","25201","大津市","252010006002","朝日が丘二丁目","34.997522","135.869116","0","3"
"25","滋賀県","25201","大津市","252010007001","穴太一丁目","35.055769","135.867613","0","3"
"25","滋賀県","25201","大津市","252010007002","穴太二丁目","35.053806","135.866412","0","3"
"25","滋賀県","25201","大津市","252010007003","穴太三丁目","35.054352","135.863054","0","3"
"25","滋賀県","25201","大津市","252010008000","荒川","35.214224","135.910833","0","1"
"25","滋賀県","25201","大津市","252010009000","粟津町","34.979402","135.900029","0","1"
"25","滋賀県","25201","大津市","252010010000","伊香立上在地町","35.146914","135.856097","0","1"
"25","滋賀県","25201","大津市","252010011000","伊香立上龍華町","35.166096","135.876172","0","1"
"25","滋賀県","25201","大津市","252010012000","伊香立北在地町","35.150071","135.865018","0","1"
"25","滋賀県","25201","大津市","252010013000","伊香立下在地町","35.146203","135.883335","0","1"
"25","滋賀県","25201","大津市","252010014000","伊香立下龍華町","35.156553","135.893984","0","1"
"25","滋賀県","25201","大津市","252010015000","伊香立途中町","35.170524","135.855428","0","1"
"25","滋賀県","25201","大津市","252010016000","伊香立生津町","35.137272","135.860742","0","1"
"25","滋賀県","25201","大津市","252010017000","伊香立南庄町","35.126381","135.873439","0","1"
"25","滋賀県","25201","大津市","252010018000","伊香立向在地町","35.136915","135.876679","0","1"
"25","滋賀県","25201","大津市","252010019000","池の里","34.989697","135.873153","0","1"
"25","滋賀県","25201","大津市","252010020001","石居一丁目","34.947411","135.925377","0","3"
"25","滋賀県","25201","大津市","252010020002","石居二丁目","34.946411","135.929569","0","3"
"25","滋賀県","25201","大津市","252010020003","石居三丁目","34.950531","135.932685","0","3"
"25","滋賀県","25201","大津市","252010021000","石場","35.002644","135.875635","0","1"
"25","滋賀県","25201","大津市","252010022000","石山内畑町","34.928216","135.878836","0","1"
"25","滋賀県","25201","大津市","252010023000","石山千町","34.943726","135.881269","0","1"
"25","滋賀県","25201","大津市","252010024000","石山外畑町","34.921120","135.893393","0","1"
"25","滋賀県","25201","大津市","252010025001","石山寺一丁目","34.962506","135.901024","0","3"
"25","滋賀県","25201","大津市","252010025002","石山寺二丁目","34.958117","135.905831","0","3"
"25","滋賀県","25201","大津市","252010025003","石山寺三丁目","34.957221","135.909497","0","3"
"25","滋賀県","25201","大津市","252010025004","石山寺四丁目","34.957534","135.895335","0","3"
"25","滋賀県","25201","大津市","252010025005","石山寺五丁目","34.952244","135.901764","0","3"
"25","滋賀県","25201","大津市","252010026000","石山寺辺町","34.955511","135.883872","0","1"
"25","滋賀県","25201","大津市","252010027000","石山南郷町","34.925063","135.905330","0","1"
"25","滋賀県","25201","大津市","252010028000","石山平津町","34.934049","135.888163","0","1"
"25","滋賀県","25201","大津市","252010029001","一里山一丁目","34.984967","135.927546","0","3"
"25","滋賀県","25201","大津市","252010029002","一里山二丁目","34.982915","135.929565","0","3"
"25","滋賀県","25201","大津市","252010029003","一里山三丁目","34.983151","135.934733","0","3"
"25","滋賀県","25201","大津市","252010029004","一里山四丁目","34.978934","135.931612","0","3"
"25","滋賀県","25201","大津市","252010029005","一里山五丁目","34.978907","135.935803","0","3"
"25","滋賀県","25201","大津市","252010029006","一里山六丁目","34.975419","135.938956","0","3"
"25","滋賀県","25201","大津市","252010029007","一里山七丁目","34.973548","135.933497","0","3"
"25","滋賀県","25201","大津市","252010030001","稲津一丁目","34.948633","135.913525","0","3"
"25","滋賀県","25201","大津市","252010030002","稲津二丁目","34.945564","135.917119","0","3"
"25","滋賀県","25201","大津市","252010030003","稲津三丁目","34.944957","135.919282","0","3"
"25","滋賀県","25201","大津市","252010030004","稲津四丁目","34.941268","135.920381","0","3"
"25","滋賀県","25201","大津市","252010030005","稲津五丁目","34.946127","135.921672","0","3"
"25","滋賀県","25201","大津市","252010031000","稲葉台","34.997932","135.842140","0","1"
"25","滋賀県","25201","大津市","252010032001","今堅田一丁目","35.119971","135.925335","0","3"
"25","滋賀県","25201","大津市","252010032002","今堅田二丁目","35.122593","135.921925","0","3"
"25","滋賀県","25201","大津市","252010032003","今堅田三丁目","35.126797","135.926364","0","3"
"25","滋賀県","25201","大津市","252010033000","打出浜","35.004910","135.877382","0","1"
"25","滋賀県","25201","大津市","252010034001","梅林一丁目","35.003488","135.868857","0","3"
"25","滋賀県","25201","大津市","252010034002","梅林二丁目","35.002506","135.868693","0","3"
"25","滋賀県","25201","大津市","252010035000","梅林町","34.995863","135.865958","0","1"
"25","滋賀県","25201","大津市","252010036001","枝一丁目","34.943177","135.930698","0","3"
"25","滋賀県","25201","大津市","252010036002","枝二丁目","34.941776","135.935508","0","3"
"25","滋賀県","25201","大津市","252010036003","枝三丁目","34.934865","135.939344","0","3"
"25","滋賀県","25201","大津市","252010036004","枝四丁目","34.933341","135.936948","0","3"
"25","滋賀県","25201","大津市","252010037000","追分町","34.992755","135.840607","0","1"
"25","滋賀県","25201","大津市","252010038001","逢坂一丁目","34.991806","135.860142","0","3"
"25","滋賀県","25201","大津市","252010038002","逢坂二丁目","35.005104","135.858839","0","3"
"25","滋賀県","25201","大津市","252010039001","皇子が丘一丁目","35.025604","135.852175","0","3"
"25","滋賀県","25201","大津市","252010039002","皇子が丘二丁目","35.023527","135.856700","0","3"
"25","滋賀県","25201","大津市","252010039003","皇子が丘三丁目","35.023411","135.859998","0","3"
"25","滋賀県","25201","大津市","252010040001","大石小田原一丁目","34.882790","135.898321","0","3"
"25","滋賀県","25201","大津市","252010040002","大石小田原二丁目","34.883538","135.900106","0","3"
"25","滋賀県","25201","大津市","252010041000","大石小田原町","34.880174","135.900825","0","1"
"25","滋賀県","25201","大津市","252010042001","大石曽束一丁目","34.907849","135.875629","0","3"
"25","滋賀県","25201","大津市","252010042002","大石曽束二丁目","34.905002","135.878630","0","3"
"25","滋賀県","25201","大津市","252010042003","大石曽束三丁目","34.902040","135.881179","0","3"
"25","滋賀県","25201","大津市","252010042004","大石曽束四丁目","34.905930","135.873312","0","3"
"25","滋賀県","25201","大津市","252010042005","大石曽束五丁目","34.904128","135.873779","0","3"
"25","滋賀県","25201","大津市","252010043000","大石曽束町","34.899399","135.879980","0","1"
"25","滋賀県","25201","大津市","252010044001","大石富川一丁目","34.904533","135.950982","0","3"
"25","滋賀県","25201","大津市","252010044002","大石富川二丁目","34.900634","135.952379","0","3"
"25","滋賀県","25201","大津市","252010044003","大石富川三丁目","34.895903","135.950143","0","3"
"25","滋賀県","25201","大津市","252010044004","大石富川四丁目","34.884552","135.953172","0","3"
"25","滋賀県","25201","大津市","252010045000","大石富川町","34.898211","135.968778","0","1"
"25","滋賀県","25201","大津市","252010046001","大石中一丁目","34.910058","135.911633","0","3"
"25","滋賀県","25201","大津市","252010046002","大石中二丁目","34.908512","135.912371","0","3"
"25","滋賀県","25201","大津市","252010046003","大石中三丁目","34.909042","135.913912","0","3"
"25","滋賀県","25201","大津市","252010046004","大石中四丁目","34.907979","135.915455","0","3"
"25","滋賀県","25201","大津市","252010046005","大石中五丁目","34.907538","135.918852","0","3"
"25","滋賀県","25201","大津市","252010046006","大石中六丁目","34.904311","135.919754","0","3"
"25","滋賀県","25201","大津市","252010046007","大石中七丁目","34.905695","135.915858","0","3"
"25","滋賀県","25201","大津市","252010047000","大石中町","34.900814","135.935887","0","1"
"25","滋賀県","25201","大津市","252010048001","大石東一丁目","34.917209","135.918154","0","3"
"25","滋賀県","25201","大津市","252010048002","大石東二丁目","34.918234","135.923862","0","3"
"25","滋賀県","25201","大津市","252010048003","大石東三丁目","34.914591","135.926714","0","3"
"25","滋賀県","25201","大津市","252010048004","大石東四丁目","34.915099","135.923282","0","3"
"25","滋賀県","25201","大津市","252010048005","大石東五丁目","34.912207","135.920304","0","3"
"25","滋賀県","25201","大津市","252010048006","大石東六丁目","34.913694","135.917329","0","3"
"25","滋賀県","25201","大津市","252010048007","大石東七丁目","34.910964","135.915801","0","3"
"25","滋賀県","25201","大津市","252010049000","大石東町","34.912061","135.931791","0","1"
"25","滋賀県","25201","大津市","252010050001","大石淀一丁目","34.909267","135.908345","0","3"
"25","滋賀県","25201","大津市","252010050002","大石淀二丁目","34.904171","135.908401","0","3"
"25","滋賀県","25201","大津市","252010050003","大石淀三丁目","34.908134","135.904884","0","3"
"25","滋賀県","25201","大津市","252010051000","大石淀町","34.901409","135.898051","0","1"
"25","滋賀県","25201","大津市","252010052001","大石龍門一丁目","34.902320","135.910359","0","3"
"25","滋賀県","25201","大津市","252010052002","大石龍門二丁目","34.903532","135.914496","0","3"
"25","滋賀県","25201","大津市","252010052003","大石龍門三丁目","34.901563","135.919400","0","3"
"25","滋賀県","25201","大津市","252010052004","大石龍門四丁目","34.895545","135.917592","0","3"
"25","滋賀県","25201","大津市","252010052005","大石龍門五丁目","34.897415","135.909504","0","3"
"25","滋賀県","25201","大津市","252010052006","大石龍門六丁目","34.894310","135.909470","0","3"
"25","滋賀県","25201","大津市","252010053000","大石龍門町","34.890366","135.922186","0","1"
"25","滋賀県","25201","大津市","252010054001","大江一丁目","34.983618","135.915226","0","3"
"25","滋賀県","25201","大津市","252010054002","大江二丁目","34.979600","135.913993","0","3"
"25","滋賀県","25201","大津市","252010054003","大江三丁目","34.978565","135.917993","0","3"
"25","滋賀県","25201","大津市","252010054004","大江四丁目","34.981009","135.924034","0","3"
"25","滋賀県","25201","大津市","252010054005","大江五丁目","34.977642","135.924235","0","3"
"25","滋賀県","25201","大津市","252010054006","大江六丁目","34.974835","135.922879","0","3"
"25","滋賀県","25201","大津市","252010054007","大江七丁目","34.975430","135.929919","0","3"
"25","滋賀県","25201","大津市","252010054008","大江八丁目","34.971012","135.929491","0","3"
"25","滋賀県","25201","大津市","252010055001","大萱一丁目","34.985454","135.924631","0","3"
"25","滋賀県","25201","大津市","252010055002","大萱二丁目","34.987254","135.923035","0","3"
"25","滋賀県","25201","大津市","252010055003","大萱三丁目","34.988268","135.919648","0","3"
"25","滋賀県","25201","大津市","252010055004","大萱四丁目","34.987180","135.914665","0","3"
"25","滋賀県","25201","大津市","252010055005","大萱五丁目","34.989887","135.916243","0","3"
"25","滋賀県","25201","大津市","252010055006","大萱六丁目","34.992726","135.915505","0","3"
"25","滋賀県","25201","大津市","252010055007","大萱七丁目","34.994422","135.915237","0","3"
"25","滋賀県","25201","大津市","252010056001","仰木一丁目","35.098030","135.884740","0","3"
"25","滋賀県","25201","大津市","252010056002","仰木二丁目","35.101019","135.871706","0","3"
"25","滋賀県","25201","大津市","252010056003","仰木三丁目","35.106229","135.883814","0","3"
"25","滋賀県","25201","大津市","252010056004","仰木四丁目","35.111830","135.879732","0","3"
"25","滋賀県","25201","大津市","252010056005","仰木五丁目","35.116070","135.884442","0","3"
"25","滋賀県","25201","大津市","252010056006","仰木六丁目","35.110830","135.887634","0","3"
"25","滋賀県","25201","大津市","252010056007","仰木七丁目","35.117571","135.894681","0","3"
"25","滋賀県","25201","大津市","252010057000","仰木町","35.114655","135.864021","0","1"
"25","滋賀県","25201","大津市","252010058001","仰木の里一丁目","35.102736","135.890275","0","3"
"25","滋賀県","25201","大津市","252010058002","仰木の里二丁目","35.102593","135.885065","0","3"
"25","滋賀県","25201","大津市","252010058003","仰木の里三丁目","35.105968","135.887878","0","3"
"25","滋賀県","25201","大津市","252010058004","仰木の里四丁目","35.106046","135.891918","0","3"
"25","滋賀県","25201","大津市","252010058005","仰木の里五丁目","35.109856","135.890263","0","3"
"25","滋賀県","25201","大津市","252010058006","仰木の里六丁目","35.109471","135.892193","0","3"
"25","滋賀県","25201","大津市","252010058007","仰木の里七丁目","35.110935","135.895039","0","3"
"25","滋賀県","25201","大津市","252010059001","仰木の里東一丁目","35.101593","135.893508","0","3"
"25","滋賀県","25201","大津市","252010059002","仰木の里東二丁目","35.104384","135.898613","0","3"
"25","滋賀県","25201","大津市","252010059003","仰木の里東三丁目","35.106544","135.897301","0","3"
"25","滋賀県","25201","大津市","252010059004","仰木の里東四丁目","35.109983","135.902418","0","3"
"25","滋賀県","25201","大津市","252010059005","仰木の里東五丁目","35.108024","135.897271","0","3"
"25","滋賀県","25201","大津市","252010059006","仰木の里東六丁目","35.109514","135.898629","0","3"
"25","滋賀県","25201","大津市","252010059007","仰木の里東七丁目","35.111494","135.898306","0","3"
"25","滋賀県","25201","大津市","252010059008","仰木の里東八丁目","35.112923","135.901510","0","3"
"25","滋賀県","25201","大津市","252010060000","大谷町","34.993918","135.851708","0","1"
"25","滋賀県","25201","大津市","252010061000","大鳥居","34.962606","135.953106","0","1"
"25","滋賀県","25201","大津市","252010062001","大平一丁目","34.955617","135.895252","0","3"
"25","滋賀県","25201","大津市","252010062002","大平二丁目","34.952834","135.899072","0","3"
"25","滋賀県","25201","大津市","252010063001","雄琴一丁目","35.090111","135.892391","0","3"
"25","滋賀県","25201","大津市","252010063002","雄琴二丁目","35.094236","135.895866","0","3"
"25","滋賀県","25201","大津市","252010063003","雄琴三丁目","35.099589","135.901510","0","3"
"25","滋賀県","25201","大津市","252010063004","雄琴四丁目","35.097765","135.905039","0","3"
"25","滋賀県","25201","大津市","252010063005","雄琴五丁目","35.094650","135.903208","0","3"
"25","滋賀県","25201","大津市","252010063006","雄琴六丁目","35.090189","135.899037","0","3"
"25","滋賀県","25201","大津市","252010064001","雄琴北一丁目","35.099901","135.898579","0","3"
"25","滋賀県","25201","大津市","252010064002","雄琴北二丁目","35.100365","135.895979","0","3"
"25","滋賀県","25201","大津市","252010065000","音羽台","34.999923","135.862401","0","1"
"25","滋賀県","25201","大津市","252010066000","小野","35.146365","135.923995","0","1"
"25","滋賀県","25201","大津市","252010067000","尾花川","35.019346","135.859653","0","1"
"25","滋賀県","25201","大津市","252010068000","園城寺町","35.012734","135.849668","0","1"
"25","滋賀県","25201","大津市","252010069000","鏡が浜","35.032333","135.865798","0","1"
"25","滋賀県","25201","大津市","252010070000","春日町","35.003748","135.862629","0","1"
"25","滋賀県","25201","大津市","252010071001","堅田一丁目","35.107164","135.910401","0","3"
"25","滋賀県","25201","大津市","252010071002","堅田二丁目","35.108008","135.915188","0","3"
"25","滋賀県","25201","大津市","252010072000","葛川梅ノ木町","35.268921","135.861011","0","1"
"25","滋賀県","25201","大津市","252010073000","葛川木戸口町","35.218233","135.876729","0","1"
"25","滋賀県","25201","大津市","252010074000","葛川坂下町","35.202011","135.851095","0","1"
"25","滋賀県","25201","大津市","252010075000","葛川中村町","35.232581","135.858930","0","1"
"25","滋賀県","25201","大津市","252010076000","葛川貫井町","35.271666","135.881911","0","1"
"25","滋賀県","25201","大津市","252010077000","葛川坊村町","35.241914","135.885316","0","1"
"25","滋賀県","25201","大津市","252010078000","葛川細川町","35.275565","135.895402","0","1"
"25","滋賀県","25201","大津市","252010079000","葛川町居町","35.259283","135.862169","0","1"
"25","滋賀県","25201","大津市","252010080000","上田上大鳥居町","34.938948","136.026392","0","1"
"25","滋賀県","25201","大津市","252010081000","上田上桐生町","34.961064","135.989655","0","1"
"25","滋賀県","25201","大津市","252010082000","上田上芝原町","34.964039","135.947587","0","1"
"25","滋賀県","25201","大津市","252010083000","上田上新免町","34.943934","135.953908","0","1"
"25","滋賀県","25201","大津市","252010084000","上田上堂町","34.958344","135.940952","0","1"
"25","滋賀県","25201","大津市","252010085000","上田上中野町","34.946659","135.960635","0","1"
"25","滋賀県","25201","大津市","252010086000","上田上平野町","34.967315","135.971301","0","1"
"25","滋賀県","25201","大津市","252010087000","上田上牧町","34.947579","135.981657","0","1"
"25","滋賀県","25201","大津市","252010088000","神出開町","35.003182","135.851424","0","1"
"25","滋賀県","25201","大津市","252010089000","萱野浦","34.990083","135.911244","0","1"
"25","滋賀県","25201","大津市","252010090001","唐崎一丁目","35.048084","135.872236","0","3"
"25","滋賀県","25201","大津市","252010090002","唐崎二丁目","35.049680","135.869187","0","3"
"25","滋賀県","25201","大津市","252010090003","唐崎三丁目","35.050053","135.865432","0","3"
"25","滋賀県","25201","大津市","252010090004","唐崎四丁目","35.053342","135.870588","0","3"
"25","滋賀県","25201","大津市","252010091000","唐橋町","34.974406","135.904900","0","1"
"25","滋賀県","25201","大津市","252010092001","勧学一丁目","35.033969","135.858619","0","3"
"25","滋賀県","25201","大津市","252010092002","勧学二丁目","35.033903","135.863136","0","3"
"25","滋賀県","25201","大津市","252010093000","観音寺","35.015526","135.859990","0","1"
"25","滋賀県","25201","大津市","252010094001","北大路一丁目","34.975699","135.897584","0","3"
"25","滋賀県","25201","大津市","252010094002","北大路二丁目","34.973338","135.895049","0","3"
"25","滋賀県","25201","大津市","252010094003","北大路三丁目","34.969994","135.882547","0","3"
"25","滋賀県","25201","大津市","252010095000","北小松","35.259444","135.961656","0","1"
"25","滋賀県","25201","大津市","252010096000","北比良","35.247101","135.921047","0","1"
"25","滋賀県","25201","大津市","252010097000","木戸","35.202559","135.909324","0","1"
"25","滋賀県","25201","大津市","252010098001","衣川一丁目","35.107380","135.906179","0","3"
"25","滋賀県","25201","大津市","252010098002","衣川二丁目","35.111121","135.905913","0","3"
"25","滋賀県","25201","大津市","252010098003","衣川三丁目","35.118709","135.904111","0","3"
"25","滋賀県","25201","大津市","252010099000","木下町","34.999883","135.890654","0","1"
"25","滋賀県","25201","大津市","252010100001","京町一丁目","35.006896","135.863042","0","3"
"25","滋賀県","25201","大津市","252010100002","京町二丁目","35.006259","135.865103","0","3"
"25","滋賀県","25201","大津市","252010100003","京町三丁目","35.005196","135.866934","0","3"
"25","滋賀県","25201","大津市","252010100004","京町四丁目","35.004626","135.869773","0","3"
"25","滋賀県","25201","大津市","252010101001","桐生一丁目","34.973802","135.986543","0","3"
"25","滋賀県","25201","大津市","252010101002","桐生二丁目","34.969718","135.986023","0","3"
"25","滋賀県","25201","大津市","252010101003","桐生三丁目","34.979192","135.981568","0","3"
"25","滋賀県","25201","大津市","252010102000","栗林町","34.991187","135.939083","0","1"
"25","滋賀県","25201","大津市","252010103000","栗原","35.174588","135.885087","0","1"
"25","滋賀県","25201","大津市","252010104001","黒津一丁目","34.944229","135.912217","0","3"
"25","滋賀県","25201","大津市","252010104002","黒津二丁目","34.942674","135.916468","0","3"
"25","滋賀県","25201","大津市","252010104003","黒津三丁目","34.938121","135.913333","0","3"
"25","滋賀県","25201","大津市","252010104004","黒津四丁目","34.938303","135.911677","0","3"
"25","滋賀県","25201","大津市","252010104005","黒津五丁目","34.939024","135.916506","0","3"
"25","滋賀県","25201","大津市","252010105000","向陽町","35.137099","135.915315","0","1"
"25","滋賀県","25201","大津市","252010106001","国分一丁目","34.968200","135.893304","0","3"
"25","滋賀県","25201","大津市","252010106002","国分二丁目","34.960933","135.879192","0","3"
"25","滋賀県","25201","大津市","252010107000","湖城が丘","34.993929","135.881518","0","1"
"25","滋賀県","25201","大津市","252010108001","湖青一丁目","35.140171","135.921701","0","3"
"25","滋賀県","25201","大津市","252010108002","湖青二丁目","35.141209","135.919486","0","3"
"25","滋賀県","25201","大津市","252010109000","小関町","35.007705","135.854749","0","1"
"25","滋賀県","25201","大津市","252010110000","御殿浜","34.987484","135.896959","0","1"
"25","滋賀県","25201","大津市","252010111000","木の岡町","35.077734","135.884842","0","1"
"25","滋賀県","25201","大津市","252010112000","御陵町","35.018665","135.855868","0","1"
"25","滋賀県","25201","大津市","252010113001","際川一丁目","35.037229","135.867206","0","3"
"25","滋賀県","25201","大津市","252010113002","際川二丁目","35.038742","135.863451","0","3"
"25","滋賀県","25201","大津市","252010113003","際川三丁目","35.042535","135.866538","0","3"
"25","滋賀県","25201","大津市","252010113004","際川四丁目","35.045089","135.868727","0","3"
"25","滋賀県","25201","大津市","252010114000","栄町","34.976021","135.901258","0","1"
"25","滋賀県","25201","大津市","252010115000","相模町","34.995093","135.885900","0","1"
"25","滋賀県","25201","大津市","252010116001","坂本一丁目","35.061828","135.867044","0","3"
"25","滋賀県","25201","大津市","252010116002","坂本二丁目","35.062721","135.870637","0","3"
"25","滋賀県","25201","大津市","252010116003","坂本三丁目","35.067733","135.874313","0","3"
"25","滋賀県","25201","大津市","252010116004","坂本四丁目","35.068340","135.867484","0","3"
"25","滋賀県","25201","大津市","252010116005","坂本五丁目","35.076350","135.867438","0","3"
"25","滋賀県","25201","大津市","252010116006","坂本六丁目","35.076086","135.872546","0","3"
"25","滋賀県","25201","大津市","252010116007","坂本七丁目","35.074547","135.878104","0","3"
"25","滋賀県","25201","大津市","252010116008","坂本八丁目","35.081616","135.870547","0","3"
"25","滋賀県","25201","大津市","252010117000","坂本穴太町","35.057142","135.855505","0","1"
"25","滋賀県","25201","大津市","252010118000","坂本本町","35.081059","135.850948","0","1"
"25","滋賀県","25201","大津市","252010119001","桜野町一丁目","35.026403","135.856622","0","3"
"25","滋賀県","25201","大津市","252010119002","桜野町二丁目","35.026487","135.860005","0","3"
"25","滋賀県","25201","大津市","252010120001","里一丁目","34.941632","135.923994","0","3"
"25","滋賀県","25201","大津市","252010120002","里二丁目","34.937787","135.922842","0","3"
"25","滋賀県","25201","大津市","252010120003","里三丁目","34.940083","135.928178","0","3"
"25","滋賀県","25201","大津市","252010120004","里四丁目","34.936638","135.926130","0","3"
"25","滋賀県","25201","大津市","252010120005","里五丁目","34.936958","135.930907","0","3"
"25","滋賀県","25201","大津市","252010120006","里六丁目","34.934971","135.933984","0","3"
"25","滋賀県","25201","大津市","252010120007","里七丁目","34.931542","135.934400","0","3"
"25","滋賀県","25201","大津市","252010121000","三大寺","34.974410","135.916575","0","1"
"25","滋賀県","25201","大津市","252010122001","滋賀里一丁目","35.043275","135.855296","0","3"
"25","滋賀県","25201","大津市","252010122002","滋賀里二丁目","35.045889","135.856788","0","3"
"25","滋賀県","25201","大津市","252010122003","滋賀里三丁目","35.049301","135.858782","0","3"
"25","滋賀県","25201","大津市","252010122004","滋賀里四丁目","35.047025","135.861518","0","3"
"25","滋賀県","25201","大津市","252010123000","滋賀里町乙","35.049755","135.852203","0","1"
"25","滋賀県","25201","大津市","252010124000","滋賀里町甲","35.048046","135.843276","0","1"
"25","滋賀県","25201","大津市","252010125001","芝原一丁目","34.961249","135.948242","0","3"
"25","滋賀県","25201","大津市","252010125002","芝原二丁目","34.955270","135.944414","0","3"
"25","滋賀県","25201","大津市","252010126000","島の関","35.008632","135.869948","0","1"
"25","滋賀県","25201","大津市","252010127001","下阪本一丁目","35.055384","135.875997","0","3"
"25","滋賀県","25201","大津市","252010127002","下阪本二丁目","35.057807","135.871505","0","3"
"25","滋賀県","25201","大津市","252010127003","下阪本三丁目","35.060993","135.875317","0","3"
"25","滋賀県","25201","大津市","252010127004","下阪本四丁目","35.063682","135.877339","0","3"
"25","滋賀県","25201","大津市","252010127005","下阪本五丁目","35.065655","135.879901","0","3"
"25","滋賀県","25201","大津市","252010127006","下阪本六丁目","35.068812","135.882205","0","3"
"25","滋賀県","25201","大津市","252010128001","松陽一丁目","34.961941","135.915500","0","3"
"25","滋賀県","25201","大津市","252010128002","松陽二丁目","34.963618","135.918440","0","3"
"25","滋賀県","25201","大津市","252010128003","松陽三丁目","34.965281","135.920461","0","3"
"25","滋賀県","25201","大津市","252010128004","松陽四丁目","34.967157","135.923667","0","3"
"25","滋賀県","25201","大津市","252010129000","昭和町","34.998428","135.886798","0","1"
"25","滋賀県","25201","大津市","252010130000","神宮町","35.032062","135.852442","0","1"
"25","滋賀県","25201","大津市","252010131001","新免一丁目","34.948184","135.946196","0","3"
"25","滋賀県","25201","大津市","252010131002","新免二丁目","34.946845","135.951424","0","3"
"25","滋賀県","25201","大津市","252010132001","神領一丁目","34.973791","135.912475","0","3"
"25","滋賀県","25201","大津市","252010132002","神領二丁目","34.971203","135.919516","0","3"
"25","滋賀県","25201","大津市","252010132003","神領三丁目","34.970637","135.912977","0","3"
"25","滋賀県","25201","大津市","252010132004","神領四丁目","34.967917","135.925771","0","3"
"25","滋賀県","25201","大津市","252010132005","神領五丁目","34.966816","135.921057","0","3"
"25","滋賀県","25201","大津市","252010133001","水明一丁目","35.145061","135.920674","0","3"
"25","滋賀県","25201","大津市","252010133002","水明二丁目","35.145152","135.917053","0","3"
"25","滋賀県","25201","大津市","252010134000","末広町","35.004777","135.864597","0","1"
"25","滋賀県","25201","大津市","252010135000","杉浦町","34.986353","135.893100","0","1"
"25","滋賀県","25201","大津市","252010136000","清風町","35.138462","135.908762","0","1"
"25","滋賀県","25201","大津市","252010137001","晴嵐一丁目","34.983165","135.902593","0","3"
"25","滋賀県","25201","大津市","252010137002","晴嵐二丁目","34.982787","135.898467","0","3"
"25","滋賀県","25201","大津市","252010138000","清和町","35.145689","135.906338","0","1"
"25","滋賀県","25201","大津市","252010139001","関津一丁目","34.929596","135.919680","0","3"
"25","滋賀県","25201","大津市","252010139002","関津二丁目","34.922495","135.916228","0","3"
"25","滋賀県","25201","大津市","252010139003","関津三丁目","34.925360","135.923396","0","3"
"25","滋賀県","25201","大津市","252010139004","関津四丁目","34.929623","135.930015","0","3"
"25","滋賀県","25201","大津市","252010139005","関津五丁目","34.933091","135.923751","0","3"
"25","滋賀県","25201","大津市","252010139006","関津六丁目","34.934153","135.929783","0","3"
"25","滋賀県","25201","大津市","252010140001","膳所一丁目","34.993298","135.888837","0","3"
"25","滋賀県","25201","大津市","252010140002","膳所二丁目","34.996446","135.889300","0","3"
"25","滋賀県","25201","大津市","252010141000","膳所池ノ内町","34.980922","135.865493","0","1"
"25","滋賀県","25201","大津市","252010142000","膳所上別保町","34.978018","135.877479","0","1"
"25","滋賀県","25201","大津市","252010143000","膳所雲雀丘町","34.980069","135.873505","0","1"
"25","滋賀県","25201","大津市","252010144000","膳所平尾町","34.978783","135.868351","0","1"
"25","滋賀県","25201","大津市","252010145000","膳所焼野町","34.966330","135.864870","0","1"
"25","滋賀県","25201","大津市","252010146001","瀬田一丁目","34.976460","135.909639","0","3"
"25","滋賀県","25201","大津市","252010146002","瀬田二丁目","34.971039","135.907803","0","3"
"25","滋賀県","25201","大津市","252010146003","瀬田三丁目","34.966273","135.909168","0","3"
"25","滋賀県","25201","大津市","252010146004","瀬田四丁目","34.963482","135.908761","0","3"
"25","滋賀県","25201","大津市","252010146005","瀬田五丁目","34.960689","135.913531","0","3"
"25","滋賀県","25201","大津市","252010146006","瀬田六丁目","34.953699","135.911974","0","3"
"25","滋賀県","25201","大津市","252010147000","瀬田大江町","34.964172","135.936075","0","1"
"25","滋賀県","25201","大津市","252010148000","瀬田神領町","34.962267","135.925334","0","1"
"25","滋賀県","25201","大津市","252010149000","瀬田月輪町","34.974438","135.946915","0","1"
"25","滋賀県","25201","大津市","252010150000","瀬田橋本町","34.955853","135.921050","0","1"
"25","滋賀県","25201","大津市","252010151000","瀬田南大萱町","34.966947","135.942353","0","1"
"25","滋賀県","25201","大津市","252010152000","千石台","35.026143","135.847401","0","1"
"25","滋賀県","25201","大津市","252010153001","千町一丁目","34.946636","135.901844","0","3"
"25","滋賀県","25201","大津市","252010153002","千町二丁目","34.944926","135.899710","0","3"
"25","滋賀県","25201","大津市","252010153003","千町三丁目","34.943806","135.894098","0","3"
"25","滋賀県","25201","大津市","252010153004","千町四丁目","34.946403","135.892691","0","3"
"25","滋賀県","25201","大津市","252010154001","園山一丁目","34.978482","135.894797","0","3"
"25","滋賀県","25201","大津市","252010154002","園山二丁目","34.978306","135.887291","0","3"
"25","滋賀県","25201","大津市","252010154003","園山三丁目","34.974604","135.888694","0","3"
"25","滋賀県","25201","大津市","252010155001","太子一丁目","34.935225","135.916567","0","3"
"25","滋賀県","25201","大津市","252010155002","太子二丁目","34.932884","135.917989","0","3"
"25","滋賀県","25201","大津市","252010156001","大将軍一丁目","34.993172","135.924938","0","3"
"25","滋賀県","25201","大津市","252010156002","大将軍二丁目","34.993919","135.933001","0","3"
"25","滋賀県","25201","大津市","252010156003","大将軍三丁目","34.990033","135.927835","0","3"
"25","滋賀県","25201","大津市","252010157000","大物","35.221412","135.919129","0","1"
"25","滋賀県","25201","大津市","252010158000","大門通","35.013154","135.857309","0","1"
"25","滋賀県","25201","大津市","252010159000","高砂町","35.040674","135.852930","0","1"
"25","滋賀県","25201","大津市","252010160000","竜が丘","34.996343","135.878233","0","1"
"25","滋賀県","25201","大津市","252010161000","田上石居町","34.955565","135.931105","0","1"
"25","滋賀県","25201","大津市","252010162000","田上稲津町","34.949989","135.918533","0","1"
"25","滋賀県","25201","大津市","252010163000","田上里町","34.917591","135.959824","0","1"
"25","滋賀県","25201","大津市","252010164000","田上関津町","34.923393","135.932334","0","1"
"25","滋賀県","25201","大津市","252010165000","田上羽栗町","34.933129","135.977608","0","1"
"25","滋賀県","25201","大津市","252010166000","田上森町","34.921154","135.985111","0","1"
"25","滋賀県","25201","大津市","252010167000","田辺町","34.970515","135.899600","0","1"
"25","滋賀県","25201","大津市","252010168000","玉野浦","34.983465","135.909528","0","1"
"25","滋賀県","25201","大津市","252010169001","千野一丁目","35.092441","135.884159","0","3"
"25","滋賀県","25201","大津市","252010169002","千野二丁目","35.089421","135.878753","0","3"
"25","滋賀県","25201","大津市","252010169003","千野三丁目","35.087173","135.875502","0","3"
"25","滋賀県","25201","大津市","252010170000","茶が崎","35.021217","135.862388","0","1"
"25","滋賀県","25201","大津市","252010171000","茶戸町","34.995386","135.832418","0","1"
"25","滋賀県","25201","大津市","252010172001","中央一丁目","35.008781","135.863679","0","3"
"25","滋賀県","25201","大津市","252010172002","中央二丁目","35.007919","135.866364","0","3"
"25","滋賀県","25201","大津市","252010172003","中央三丁目","35.006600","135.868506","0","3"
"25","滋賀県","25201","大津市","252010172004","中央四丁目","35.006994","135.871548","0","3"
"25","滋賀県","25201","大津市","252010173001","月輪一丁目","34.989826","135.932497","0","3"
"25","滋賀県","25201","大津市","252010173002","月輪二丁目","34.988944","135.936497","0","3"
"25","滋賀県","25201","大津市","252010173003","月輪三丁目","34.985109","135.939849","0","3"
"25","滋賀県","25201","大津市","252010173004","月輪四丁目","34.981338","135.943826","0","3"
"25","滋賀県","25201","大津市","252010173005","月輪五丁目","34.978116","135.945352","0","3"
"25","滋賀県","25201","大津市","252010174000","鶴の里","34.992452","135.872967","0","1"
"25","滋賀県","25201","大津市","252010175001","堂一丁目","34.953513","135.941187","0","3"
"25","滋賀県","25201","大津市","252010175002","堂二丁目","34.950608","135.944090","0","3"
"25","滋賀県","25201","大津市","252010176000","鳥居川町","34.973646","135.901799","0","1"
"25","滋賀県","25201","大津市","252010177001","中庄一丁目","34.989972","135.894150","0","3"
"25","滋賀県","25201","大津市","252010177002","中庄二丁目","34.990438","135.889127","0","3"
"25","滋賀県","25201","大津市","252010178001","中野一丁目","34.958751","135.951425","0","3"
"25","滋賀県","25201","大津市","252010178002","中野二丁目","34.954541","135.955153","0","3"
"25","滋賀県","25201","大津市","252010178003","中野三丁目","34.951639","135.954913","0","3"
"25","滋賀県","25201","大津市","252010179001","長等一丁目","35.007361","135.859048","0","3"
"25","滋賀県","25201","大津市","252010179002","長等二丁目","35.009125","135.860312","0","3"
"25","滋賀県","25201","大津市","252010179003","長等三丁目","35.010643","135.860183","0","3"
"25","滋賀県","25201","大津市","252010180001","南郷一丁目","34.940738","135.908289","0","3"
"25","滋賀県","25201","大津市","252010180002","南郷二丁目","34.941673","135.902712","0","3"
"25","滋賀県","25201","大津市","252010180003","南郷三丁目","34.937766","135.898091","0","3"
"25","滋賀県","25201","大津市","252010180004","南郷四丁目","34.934351","135.904038","0","3"
"25","滋賀県","25201","大津市","252010180005","南郷五丁目","34.934552","135.908989","0","3"
"25","滋賀県","25201","大津市","252010180006","南郷六丁目","34.929095","135.911429","0","3"
"25","滋賀県","25201","大津市","252010181000","南郷上山町","34.935774","135.901409","0","1"
"25","滋賀県","25201","大津市","252010182001","におの浜一丁目","35.005991","135.878765","0","3"
"25","滋賀県","25201","大津市","252010182002","におの浜二丁目","35.005203","135.881458","0","3"
"25","滋賀県","25201","大津市","252010182003","におの浜三丁目","35.004604","135.883995","0","3"
"25","滋賀県","25201","大津市","252010182004","におの浜四丁目","35.004236","135.887607","0","3"
"25","滋賀県","25201","大津市","252010183001","錦織一丁目","35.028849","135.851454","0","3"
"25","滋賀県","25201","大津市","252010183002","錦織二丁目","35.029323","135.856422","0","3"
"25","滋賀県","25201","大津市","252010183003","錦織三丁目","35.029337","135.859923","0","3"
"25","滋賀県","25201","大津市","252010184000","錦織町","35.032029","135.843781","0","1"
"25","滋賀県","25201","大津市","252010185000","西の庄","35.000868","135.886875","0","1"
"25","滋賀県","25201","大津市","252010186000","二本松","35.029567","135.863648","0","1"
"25","滋賀県","25201","大津市","252010187001","苗鹿一丁目","35.082141","135.886357","0","3"
"25","滋賀県","25201","大津市","252010187002","苗鹿二丁目","35.086927","135.889544","0","3"
"25","滋賀県","25201","大津市","252010187003","苗鹿三丁目","35.081605","135.892365","0","3"
"25","滋賀県","25201","大津市","252010188001","野郷原一丁目","34.967327","135.917232","0","3"
"25","滋賀県","25201","大津市","252010188002","野郷原二丁目","34.966333","135.914360","0","3"
"25","滋賀県","25201","大津市","252010189001","羽栗一丁目","34.953156","135.935504","0","3"
"25","滋賀県","25201","大津市","252010189002","羽栗二丁目","34.946192","135.942646","0","3"
"25","滋賀県","25201","大津市","252010189003","羽栗三丁目","34.942085","135.946592","0","3"
"25","滋賀県","25201","大津市","252010190000","蓮池町","35.046019","135.864666","0","1"
"25","滋賀県","25201","大津市","252010191000","八屋戸","35.194212","135.899581","0","1"
"25","滋賀県","25201","大津市","252010192000","花園町","35.138596","135.914564","0","1"
"25","滋賀県","25201","大津市","252010193001","浜大津一丁目","35.010856","135.864316","0","3"
"25","滋賀県","25201","大津市","252010193002","浜大津二丁目","35.011616","135.862266","0","3"
"25","滋賀県","25201","大津市","252010193003","浜大津三丁目","35.012380","135.859891","0","3"
"25","滋賀県","25201","大津市","252010193004","浜大津四丁目","35.013395","135.862318","0","3"
"25","滋賀県","25201","大津市","252010193005","浜大津五丁目","35.012059","135.865676","0","3"
"25","滋賀県","25201","大津市","252010194000","浜町","35.009946","135.867388","0","1"
"25","滋賀県","25201","大津市","252010195001","馬場一丁目","35.002071","135.882458","0","3"
"25","滋賀県","25201","大津市","252010195002","馬場二丁目","35.000188","135.879562","0","3"
"25","滋賀県","25201","大津市","252010195003","馬場三丁目","34.998273","135.883427","0","3"
"25","滋賀県","25201","大津市","252010196001","比叡平一丁目","35.030503","135.833302","0","3"
"25","滋賀県","25201","大津市","252010196002","比叡平二丁目","35.027034","135.831389","0","3"
"25","滋賀県","25201","大津市","252010196003","比叡平三丁目","35.033426","135.829228","0","3"
"25","滋賀県","25201","大津市","252010197001","比叡辻一丁目","35.070631","135.885869","0","3"
"25","滋賀県","25201","大津市","252010197002","比叡辻二丁目","35.073330","135.886454","0","3"
"25","滋賀県","25201","大津市","252010198000","光が丘町","34.972481","135.898749","0","1"
"25","滋賀県","25201","大津市","252010199001","日吉台一丁目","35.078675","135.879815","0","3"
"25","滋賀県","25201","大津市","252010199002","日吉台二丁目","35.079767","135.876657","0","3"
"25","滋賀県","25201","大津市","252010199003","日吉台三丁目","35.083974","135.876690","0","3"
"25","滋賀県","25201","大津市","252010199004","日吉台四丁目","35.083015","135.881128","0","3"
"25","滋賀県","25201","大津市","252010200001","平津一丁目","34.949783","135.909775","0","3"
"25","滋賀県","25201","大津市","252010200002","平津二丁目","34.950307","135.904717","0","3"
"25","滋賀県","25201","大津市","252010201001","平野一丁目","34.963005","135.962859","0","3"
"25","滋賀県","25201","大津市","252010201002","平野二丁目","34.967588","135.957812","0","3"
"25","滋賀県","25201","大津市","252010201003","平野三丁目","34.971181","135.973220","0","3"
"25","滋賀県","25201","大津市","252010202000","藤尾奥町","35.005955","135.838260","0","1"
"25","滋賀県","25201","大津市","252010203000","富士見台","34.982457","135.884823","0","1"
"25","滋賀県","25201","大津市","252010204000","札の辻","35.006754","135.861038","0","1"
"25","滋賀県","25201","大津市","252010205001","別保一丁目","34.983210","135.894572","0","3"
"25","滋賀県","25201","大津市","252010205002","別保二丁目","34.982542","135.892441","0","3"
"25","滋賀県","25201","大津市","252010205003","別保三丁目","34.986299","135.889561","0","3"
"25","滋賀県","25201","大津市","252010206000","螢谷","34.969412","135.902734","0","1"
"25","滋賀県","25201","大津市","252010207001","本堅田一丁目","35.110236","135.919145","0","3"
"25","滋賀県","25201","大津市","252010207002","本堅田二丁目","35.115519","135.921841","0","3"
"25","滋賀県","25201","大津市","252010207003","本堅田三丁目","35.114375","135.916220","0","3"
"25","滋賀県","25201","大津市","252010207004","本堅田四丁目","35.118270","135.918583","0","3"
"25","滋賀県","25201","大津市","252010207005","本堅田五丁目","35.117675","135.913895","0","3"
"25","滋賀県","25201","大津市","252010207006","本堅田六丁目","35.118538","135.910596","0","3"
"25","滋賀県","25201","大津市","252010208000","本丸町","34.993892","135.893225","0","1"
"25","滋賀県","25201","大津市","252010209001","牧一丁目","34.958153","135.964906","0","3"
"25","滋賀県","25201","大津市","252010209002","牧二丁目","34.956642","135.961044","0","3"
"25","滋賀県","25201","大津市","252010209003","牧三丁目","34.953085","135.973580","0","3"
"25","滋賀県","25201","大津市","252010210001","松が丘一丁目","34.975280","135.969630","0","3"
"25","滋賀県","25201","大津市","252010210002","松が丘二丁目","34.972566","135.970121","0","3"
"25","滋賀県","25201","大津市","252010210003","松が丘三丁目","34.972055","135.967474","0","3"
"25","滋賀県","25201","大津市","252010210004","松が丘四丁目","34.973808","135.966964","0","3"
"25","滋賀県","25201","大津市","252010210005","松が丘五丁目","34.972835","135.963552","0","3"
"25","滋賀県","25201","大津市","252010210006","松が丘六丁目","34.973235","135.961154","0","3"
"25","滋賀県","25201","大津市","252010210007","松が丘七丁目","34.969645","135.962356","0","3"
"25","滋賀県","25201","大津市","252010211000","松原町","34.978598","135.904232","0","1"
"25","滋賀県","25201","大津市","252010212001","松本一丁目","35.003508","135.872922","0","3"
"25","滋賀県","25201","大津市","252010212002","松本二丁目","35.005436","135.873690","0","3"
"25","滋賀県","25201","大津市","252010213000","松本本宮町","34.991601","135.866812","0","1"
"25","滋賀県","25201","大津市","252010214000","松山町","35.026907","135.863202","0","1"
"25","滋賀県","25201","大津市","252010215001","真野一丁目","35.123112","135.912242","0","3"
"25","滋賀県","25201","大津市","252010215002","真野二丁目","35.125126","135.917334","0","3"
"25","滋賀県","25201","大津市","252010215003","真野三丁目","35.128094","135.912864","0","3"
"25","滋賀県","25201","大津市","252010215004","真野四丁目","35.132058","135.916619","0","3"
"25","滋賀県","25201","大津市","252010215005","真野五丁目","35.132694","135.923595","0","3"
"25","滋賀県","25201","大津市","252010215006","真野六丁目","35.135820","135.921393","0","3"
"25","滋賀県","25201","大津市","252010216000","真野家田町","35.129219","135.902850","0","1"
"25","滋賀県","25201","大津市","252010217001","真野大野一丁目","35.135874","135.893196","0","3"
"25","滋賀県","25201","大津市","252010217002","真野大野二丁目","35.132073","135.896998","0","3"
"25","滋賀県","25201","大津市","252010218000","真野佐川町","35.141711","135.896468","0","1"
"25","滋賀県","25201","大津市","252010219000","真野谷口町","35.124070","135.904321","0","1"
"25","滋賀県","25201","大津市","252010220001","真野普門一丁目","35.133314","135.910005","0","3"
"25","滋賀県","25201","大津市","252010220002","真野普門二丁目","35.131303","135.907859","0","3"
"25","滋賀県","25201","大津市","252010220003","真野普門三丁目","35.141585","135.902780","0","3"
"25","滋賀県","25201","大津市","252010221000","真野普門町","35.142390","135.912063","0","1"
"25","滋賀県","25201","大津市","252010222000","丸の内町","34.996505","135.892932","0","1"
"25","滋賀県","25201","大津市","252010223000","三井寺町","35.010126","135.856803","0","1"
"25","滋賀県","25201","大津市","252010224000","美崎町","34.982541","135.889892","0","1"
"25","滋賀県","25201","大津市","252010225001","見世一丁目","35.039657","135.859842","0","3"
"25","滋賀県","25201","大津市","252010225002","見世二丁目","35.042970","135.860587","0","3"
"25","滋賀県","25201","大津市","252010226000","美空町","35.137016","135.918509","0","1"
"25","滋賀県","25201","大津市","252010227000","緑町","35.145022","135.909040","0","1"
"25","滋賀県","25201","大津市","252010228000","南小松","35.242514","135.946758","0","1"
"25","滋賀県","25201","大津市","252010229001","南志賀一丁目","35.035020","135.853539","0","3"
"25","滋賀県","25201","大津市","252010229002","南志賀二丁目","35.038280","135.853838","0","3"
"25","滋賀県","25201","大津市","252010229003","南志賀三丁目","35.036632","135.859427","0","3"
"25","滋賀県","25201","大津市","252010229004","南志賀四丁目","35.036383","135.863344","0","3"
"25","滋賀県","25201","大津市","252010230000","南滋賀町","35.039066","135.843931","0","1"
"25","滋賀県","25201","大津市","252010231000","南比良","35.230193","135.928897","0","1"
"25","滋賀県","25201","大津市","252010232000","南船路","35.179094","135.904955","0","1"
"25","滋賀県","25201","大津市","252010233000","御幸町","35.005220","135.862463","0","1"
"25","滋賀県","25201","大津市","252010234001","本宮一丁目","35.001364","135.875794","0","3"
"25","滋賀県","25201","大津市","252010234002","本宮二丁目","34.998790","135.874291","0","3"
"25","滋賀県","25201","大津市","252010235001","森一丁目","34.947050","135.934542","0","3"
"25","滋賀県","25201","大津市","252010235002","森二丁目","34.943291","135.939327","0","3"
"25","滋賀県","25201","大津市","252010235003","森三丁目","34.939061","135.941289","0","3"
"25","滋賀県","25201","大津市","252010236000","柳が崎","35.027931","135.867048","0","1"
"25","滋賀県","25201","大津市","252010237001","柳川一丁目","35.031955","135.858466","0","3"
"25","滋賀県","25201","大津市","252010237002","柳川二丁目","35.031967","135.862236","0","3"
"25","滋賀県","25201","大津市","252010238000","山上町","35.027056","135.840369","0","1"
"25","滋賀県","25201","大津市","252010239000","山中町","35.043836","135.827452","0","1"
"25","滋賀県","25201","大津市","252010240000","山百合の丘","35.138769","135.888577","0","1"
"25","滋賀県","25201","大津市","252010241000","弥生町","35.050635","135.862315","0","1"
"25","滋賀県","25201","大津市","252010242000","由美浜","35.001706","135.891488","0","1"
"25","滋賀県","25201","大津市","252010243000","陽明町","35.143934","135.904108","0","1"
"25","滋賀県","25201","大津市","252010244001","横木一丁目","34.991539","135.831648","0","3"
"25","滋賀県","25201","大津市","252010244002","横木二丁目","34.993246","135.831659","0","3"
"25","滋賀県","25201","大津市","252010245000","若葉台","34.974599","135.878951","0","1"
"25","滋賀県","25201","大津市","252010246000","和邇今宿","35.153797","135.928357","0","1"
"25","滋賀県","25201","大津市","252010247001","和邇春日一丁目","35.160649","135.912262","0","3"
"25","滋賀県","25201","大津市","252010247002","和邇春日二丁目","35.158238","135.912436","0","3"
"25","滋賀県","25201","大津市","252010247003","和邇春日三丁目","35.158717","135.910324","0","3"
"25","滋賀県","25201","大津市","252010248000","和邇北浜","35.183300","135.887468","0","1"
"25","滋賀県","25201","大津市","252010249000","和邇高城","35.162378","135.915528","0","1"
"25","滋賀県","25201","大津市","252010250000","和邇中","35.158542","135.904046","0","1"
"25","滋賀県","25201","大津市","252010251000","和邇中浜","35.163309","135.922987","0","1"
"25","滋賀県","25201","大津市","252010252000","和邇南浜","35.158763","135.926949","0","1"
