"PrefCode","PrefName","MuniCode","MuniName","DistCode","DistName","lat","lon","SrcCode","CatCode"
"26","京都府","26102","京都市上京区","261020001000","相生町","35.031139","135.769041","0","0"
"26","京都府","26102","京都市上京区","261020002000","愛染寺町","35.023434","135.743465","0","0"
"26","京都府","26102","京都市上京区","261020003000","飛鳥井町","35.029842","135.753079","0","0"
"26","京都府","26102","京都市上京区","261020004000","油橋詰町","35.025653","135.753523","0","0"
"26","京都府","26102","京都市上京区","261020005000","尼ケ崎横町","35.021598","135.742387","0","0"
"26","京都府","26102","京都市上京区","261020006000","阿弥陀寺町","35.032220","135.749331","0","0"
"26","京都府","26102","京都市上京区","261020007000","阿弥陀寺前町","35.033310","135.765990","0","0"
"26","京都府","26102","京都市上京区","261020008000","有春町","35.023716","135.754295","0","0"
"26","京都府","26102","京都市上京区","261020009000","有馬町","35.030378","135.745478","0","0"
"26","京都府","26102","京都市上京区","261020010000","安楽小路町","35.032849","135.755488","0","0"
"26","京都府","26102","京都市上京区","261020011000","家永町","35.020743","135.749078","0","0"
"26","京都府","26102","京都市上京区","261020012000","伊佐町","35.032834","135.747370","0","0"
"26","京都府","26102","京都市上京区","261020013000","石薬師町","35.027471","135.749063","0","0"
"26","京都府","26102","京都市上京区","261020014000","伊勢殿構町","35.026553","135.743506","0","0"
"26","京都府","26102","京都市上京区","261020015000","伊勢屋町","35.017112","135.769074","0","0"
"26","京都府","26102","京都市上京区","261020016000","井田町","35.034754","135.742738","0","0"
"26","京都府","26102","京都市上京区","261020017000","一観音町","35.027087","135.739757","0","0"
"26","京都府","26102","京都市上京区","261020018000","一条殿町","35.027147","135.756102","0","0"
"26","京都府","26102","京都市上京区","261020019000","一条横町","35.026402","135.753960","0","0"
"26","京都府","26102","京都市上京区","261020020000","一番町","35.024854","135.738679","0","0"
"26","京都府","26102","京都市上京区","261020021000","一松町","35.027136","135.757086","0","0"
"26","京都府","26102","京都市上京区","261020022000","一色町","35.031076","135.745196","0","0"
"26","京都府","26102","京都市上京区","261020023000","一真町","35.029716","135.768508","0","0"
"26","京都府","26102","京都市上京区","261020024000","一町目","35.020678","135.748429","0","0"
"26","京都府","26102","京都市上京区","261020025000","一町目","35.024238","135.752277","0","0"
"26","京都府","26102","京都市上京区","261020026000","一町目","35.018054","135.749007","0","0"
"26","京都府","26102","京都市上京区","261020027000","五辻町","35.031078","135.747171","0","0"
"26","京都府","26102","京都市上京区","261020028000","糸屋町","35.025640","135.748861","0","0"
"26","京都府","26102","京都市上京区","261020029000","稲葉町","35.019837","135.741502","0","0"
"26","京都府","26102","京都市上京区","261020030000","戌亥町","35.035228","135.744102","0","0"
"26","京都府","26102","京都市上京区","261020031001","猪熊一丁目","35.024170","135.750560","0","3"
"26","京都府","26102","京都市上京区","261020031002","猪熊二丁目","35.023077","135.750518","0","3"
"26","京都府","26102","京都市上京区","261020032000","射場町","35.032961","135.753325","0","0"
"26","京都府","26102","京都市上京区","261020033000","今薬屋町","35.018160","135.757231","0","0"
"26","京都府","26102","京都市上京区","261020034000","今新在家町","35.025702","135.746031","0","0"
"26","京都府","26102","京都市上京区","261020035000","今図子町","35.028475","135.757165","0","0"
"26","京都府","26102","京都市上京区","261020036000","今出川町","35.028692","135.745117","0","0"
"26","京都府","26102","京都市上京区","261020037000","今出川町","35.029043","135.758848","0","0"
"26","京都府","26102","京都市上京区","261020038000","浮田町","35.020014","135.748404","0","0"
"26","京都府","26102","京都市上京区","261020039000","内構町","35.036263","135.758817","0","0"
"26","京都府","26102","京都市上京区","261020040000","靭屋町","35.028188","135.754395","0","0"
"26","京都府","26102","京都市上京区","261020041000","姥ケ榎木町","35.031794","135.743859","0","0"
"26","京都府","26102","京都市上京区","261020042000","姥ケ北町","35.033298","135.743953","0","0"
"26","京都府","26102","京都市上京区","261020043000","姥ケ寺之前町","35.033343","135.743157","0","0"
"26","京都府","26102","京都市上京区","261020044000","姥ケ東西町","35.032415","135.743777","0","0"
"26","京都府","26102","京都市上京区","261020045000","梅屋町","35.028214","135.758861","0","0"
"26","京都府","26102","京都市上京区","261020046000","裏築地町","35.031185","135.758013","0","0"
"26","京都府","26102","京都市上京区","261020047000","裏風呂町","35.032648","135.756834","0","0"
"26","京都府","26102","京都市上京区","261020048000","榎町","35.024153","135.749876","0","0"
"26","京都府","26102","京都市上京区","261020049000","夷川町","35.018125","135.754939","0","0"
"26","京都府","26102","京都市上京区","261020050000","蛭子町","35.032268","135.744990","0","0"
"26","京都府","26102","京都市上京区","261020051000","蛭子町","35.022071","135.750558","0","0"
"26","京都府","26102","京都市上京区","261020052000","閻魔前町","35.035425","135.740668","0","0"
"26","京都府","26102","京都市上京区","261020053000","老松町","35.032566","135.738511","0","0"
"26","京都府","26102","京都市上京区","261020054000","桜鶴円町","35.021273","135.759234","0","0"
"26","京都府","26102","京都市上京区","261020055000","正親町","35.025752","135.756455","0","0"
"26","京都府","26102","京都市上京区","261020056000","扇町","35.027762","135.767996","0","0"
"26","京都府","26102","京都市上京区","261020057000","扇町","35.036446","135.752091","0","0"
"26","京都府","26102","京都市上京区","261020058000","大猪熊町","35.027722","135.768639","0","0"
"26","京都府","26102","京都市上京区","261020059000","大猪熊町","35.034037","135.747446","0","0"
"26","京都府","26102","京都市上京区","261020060000","大上之町","35.026620","135.734783","0","0"
"26","京都府","26102","京都市上京区","261020061000","大北小路東町","35.032968","135.751106","0","0"
"26","京都府","26102","京都市上京区","261020062000","大原口町","35.029013","135.767294","0","0"
"26","京都府","26102","京都市上京区","261020063000","大原口突抜町","35.028845","135.767056","0","0"
"26","京都府","26102","京都市上京区","261020064000","大東町","35.025741","135.735119","0","0"
"26","京都府","26102","京都市上京区","261020065000","大峰図子町","35.027122","135.755166","0","0"
"26","京都府","26102","京都市上京区","261020066000","大宮町","35.028503","135.769167","0","0"
"26","京都府","26102","京都市上京区","261020067000","大宮町","35.021213","135.735044","0","0"
"26","京都府","26102","京都市上京区","261020068000","岡松町","35.029634","135.759274","0","0"
"26","京都府","26102","京都市上京区","261020069000","小川町","35.025699","135.754325","0","0"
"26","京都府","26102","京都市上京区","261020070000","表町","35.030360","135.768023","0","0"
"26","京都府","26102","京都市上京区","261020071000","戒光寺町","35.027976","135.753960","0","0"
"26","京都府","26102","京都市上京区","261020072000","甲斐守町","35.024392","135.753522","0","0"
"26","京都府","26102","京都市上京区","261020073000","鏡石町","35.026564","135.747744","0","0"
"26","京都府","26102","京都市上京区","261020074000","加賀屋町","35.024999","135.744645","0","0"
"26","京都府","26102","京都市上京区","261020075000","勘解由小路町","35.020610","135.758033","0","0"
"26","京都府","26102","京都市上京区","261020076000","梶井町","35.026055","135.770431","0","0"
"26","京都府","26102","京都市上京区","261020077000","頭町","35.023311","135.754919","0","0"
"26","京都府","26102","京都市上京区","261020078000","頭町","35.028229","135.753421","0","0"
"26","京都府","26102","京都市上京区","261020079000","柏清盛町","35.034046","135.740264","0","0"
"26","京都府","26102","京都市上京区","261020080000","春日町","35.018173","135.758900","0","0"
"26","京都府","26102","京都市上京区","261020081000","片原町","35.030332","135.739750","0","0"
"26","京都府","26102","京都市上京区","261020082000","上生洲町","35.020525","135.770128","0","0"
"26","京都府","26102","京都市上京区","261020083000","上小川町","35.031393","135.754228","0","0"
"26","京都府","26102","京都市上京区","261020084000","上鍛冶町","35.018034","135.754191","0","0"
"26","京都府","26102","京都市上京区","261020085000","上片原町","35.032979","135.765824","0","0"
"26","京都府","26102","京都市上京区","261020086000","上木下町","35.035350","135.756820","0","0"
"26","京都府","26102","京都市上京区","261020087000","上御霊竪町","35.036690","135.761218","0","0"
"26","京都府","26102","京都市上京区","261020088000","上御霊中町","35.037112","135.759480","0","0"
"26","京都府","26102","京都市上京区","261020089000","上御霊馬場町","35.035991","135.762649","0","0"
"26","京都府","26102","京都市上京区","261020090000","上御霊前町","35.036430","135.759975","0","0"
"26","京都府","26102","京都市上京区","261020091000","上立売町","35.031802","135.756929","0","0"
"26","京都府","26102","京都市上京区","261020092000","上立売東町","35.031917","135.758856","0","0"
"26","京都府","26102","京都市上京区","261020093000","上天神町","35.036344","135.750390","0","0"
"26","京都府","26102","京都市上京区","261020094000","上塔之段町","35.031122","135.766011","0","0"
"26","京都府","26102","京都市上京区","261020095000","上之町","35.019448","135.770918","0","0"
"26","京都府","26102","京都市上京区","261020096000","上堀川町","35.018048","135.751729","0","0"
"26","京都府","26102","京都市上京区","261020097000","上神輿町","35.031473","135.766997","0","0"
"26","京都府","26102","京都市上京区","261020098000","紙屋川町","35.028417","135.733834","0","0"
"26","京都府","26102","京都市上京区","261020099000","上柳原町","35.035540","135.758175","0","0"
"26","京都府","26102","京都市上京区","261020100000","亀木町","35.023097","135.746078","0","0"
"26","京都府","26102","京都市上京区","261020101000","亀屋町","35.024900","135.742251","0","0"
"26","京都府","26102","京都市上京区","261020102000","亀屋町","35.021902","135.751205","0","0"
"26","京都府","26102","京都市上京区","261020103000","亀屋町","35.023192","135.753408","0","0"
"26","京都府","26102","京都市上京区","261020104000","亀屋町","35.021873","135.770769","0","0"
"26","京都府","26102","京都市上京区","261020105000","烏丸町","35.026562","135.741582","0","0"
"26","京都府","26102","京都市上京区","261020106000","川瀬町","35.022237","135.735269","0","0"
"26","京都府","26102","京都市上京区","261020107000","歓喜寺前町","35.034190","135.765269","0","0"
"26","京都府","26102","京都市上京区","261020108000","歓喜町","35.034634","135.745798","0","0"
"26","京都府","26102","京都市上京区","261020109000","観三橘町","35.027087","135.758889","0","0"
"26","京都府","26102","京都市上京区","261020110000","岩栖院町","35.036751","135.756718","0","0"
"26","京都府","26102","京都市上京区","261020111000","観世町","35.030452","135.748786","0","0"
"26","京都府","26102","京都市上京区","261020112000","観音寺門前町","35.029304","135.734538","0","0"
"26","京都府","26102","京都市上京区","261020113000","勘兵衛町","35.020673","135.754346","0","0"
"26","京都府","26102","京都市上京区","261020114000","菊屋町","35.023073","135.751152","0","0"
"26","京都府","26102","京都市上京区","261020115000","菊屋町","35.024274","135.755075","0","0"
"26","京都府","26102","京都市上京区","261020116000","北伊勢殿構町","35.026568","135.742589","0","0"
"26","京都府","26102","京都市上京区","261020117000","北伊勢屋町","35.018306","135.747784","0","0"
"26","京都府","26102","京都市上京区","261020118000","北猪熊町","35.030614","135.750627","0","0"
"26","京都府","26102","京都市上京区","261020119000","北蟹屋町","35.020965","135.749836","0","0"
"26","京都府","26102","京都市上京区","261020120000","北兼康町","35.030212","135.754986","0","0"
"26","京都府","26102","京都市上京区","261020121000","北玄蕃町","35.035192","135.741830","0","0"
"26","京都府","26102","京都市上京区","261020122000","北小路中之町","35.029838","135.745381","0","0"
"26","京都府","26102","京都市上京区","261020123000","北小路室町","35.028538","135.758000","0","0"
"26","京都府","26102","京都市上京区","261020124000","北小大門町","35.023244","135.749879","0","0"
"26","京都府","26102","京都市上京区","261020125000","北新在家町","35.026599","135.746060","0","0"
"26","京都府","26102","京都市上京区","261020126000","北俵町","35.024537","135.751195","0","0"
"26","京都府","26102","京都市上京区","261020127000","北仲之町","35.036166","135.748880","0","0"
"26","京都府","26102","京都市上京区","261020128000","北之御門町","35.028226","135.748897","0","0"
"26","京都府","26102","京都市上京区","261020129000","北之辺町","35.025433","135.768293","0","0"
"26","京都府","26102","京都市上京区","261020130000","北舟橋町","35.031009","135.751862","0","0"
"26","京都府","26102","京都市上京区","261020131000","北町","35.032943","135.736151","0","0"
"26","京都府","26102","京都市上京区","261020132000","北町","35.022510","135.733990","0","0"
"26","京都府","26102","京都市上京区","261020133000","北横町","35.031910","135.766168","0","0"
"26","京都府","26102","京都市上京区","261020134000","木下突抜町","35.033252","135.757088","0","0"
"26","京都府","26102","京都市上京区","261020135000","木屋之町","35.018037","135.750516","0","0"
"26","京都府","26102","京都市上京区","261020136000","九軒町","35.025439","135.769112","0","0"
"26","京都府","26102","京都市上京区","261020137000","京都御苑","35.023396","135.763200","0","0"
"26","京都府","26102","京都市上京区","261020138000","清元町","35.021895","135.749073","0","0"
"26","京都府","26102","京都市上京区","261020139000","桐木町","35.031819","135.742849","0","0"
"26","京都府","26102","京都市上京区","261020140000","錦砂町","35.018364","135.768629","0","0"
"26","京都府","26102","京都市上京区","261020141000","金馬場町","35.021393","135.747101","0","0"
"26","京都府","26102","京都市上京区","261020142000","櫛笥町","35.019341","135.747769","0","0"
"26","京都府","26102","京都市上京区","261020143000","薬屋町","35.025679","135.757985","0","0"
"26","京都府","26102","京都市上京区","261020144000","花開院町","35.033446","135.748915","0","0"
"26","京都府","26102","京都市上京区","261020145000","継孝院町","35.035982","135.756455","0","0"
"26","京都府","26102","京都市上京区","261020146000","玄蕃町","35.036042","135.757404","0","0"
"26","京都府","26102","京都市上京区","261020147000","玄武町","35.029292","135.760572","0","0"
"26","京都府","26102","京都市上京区","261020148000","玄武町","35.029484","135.763365","0","0"
"26","京都府","26102","京都市上京区","261020149000","幸在町","35.032059","135.750019","0","0"
"26","京都府","26102","京都市上京区","261020150000","荒神町","35.020706","135.750540","0","0"
"26","京都府","26102","京都市上京区","261020151000","荒神町","35.021366","135.768517","0","0"
"26","京都府","26102","京都市上京区","261020152000","高台院竪町","35.024275","135.746062","0","0"
"26","京都府","26102","京都市上京区","261020153000","高台院町","35.023566","135.745594","0","0"
"26","京都府","26102","京都市上京区","261020154000","革堂内町","35.029280","135.767158","0","0"
"26","京都府","26102","京都市上京区","261020155000","革堂町","35.028724","135.744379","0","0"
"26","京都府","26102","京都市上京区","261020156000","講堂町","35.018702","135.751143","0","0"
"26","京都府","26102","京都市上京区","261020157000","革堂町","35.027040","135.754332","0","0"
"26","京都府","26102","京都市上京区","261020158000","革堂仲之町","35.027460","135.753966","0","0"
"26","京都府","26102","京都市上京区","261020159000","革堂西町","35.027515","135.753402","0","0"
"26","京都府","26102","京都市上京区","261020160000","革堂之内町","35.026437","135.744749","0","0"
"26","京都府","26102","京都市上京区","261020161000","革堂前之町","35.023075","135.742595","0","0"
"26","京都府","26102","京都市上京区","261020162000","高徳寺町","35.036382","135.764344","0","0"
"26","京都府","26102","京都市上京区","261020163000","御三軒町","35.032169","135.754113","0","0"
"26","京都府","26102","京都市上京区","261020164000","小島町","35.026731","135.757945","0","0"
"26","京都府","26102","京都市上京区","261020165000","御所八幡町","35.030924","135.759161","0","0"
"26","京都府","26102","京都市上京区","261020166000","五町目","35.019204","135.752537","0","0"
"26","京都府","26102","京都市上京区","261020167000","五町目町","35.019977","135.758749","0","0"
"26","京都府","26102","京都市上京区","261020168000","小寺町","35.025751","135.750580","0","0"
"26","京都府","26102","京都市上京区","261020169000","小伝馬町","35.018105","135.749742","0","0"
"26","京都府","26102","京都市上京区","261020170000","後藤町","35.031662","135.770006","0","0"
"26","京都府","26102","京都市上京区","261020171000","近衛町","35.020717","135.753427","0","0"
"26","京都府","26102","京都市上京区","261020172000","近衛町","35.021811","135.758151","0","0"
"26","京都府","26102","京都市上京区","261020173000","近衛殿表町","35.031003","135.755736","0","0"
"26","京都府","26102","京都市上京区","261020174000","近衛殿北口町","35.031183","135.754978","0","0"
"26","京都府","26102","京都市上京区","261020175000","五番町","35.023936","135.741671","0","0"
"26","京都府","26102","京都市上京区","261020176000","駒之町","35.017078","135.770477","0","0"
"26","京都府","26102","京都市上京区","261020177000","米屋町","35.028789","135.768488","0","0"
"26","京都府","26102","京都市上京区","261020178000","米屋町","35.018137","135.753220","0","0"
"26","京都府","26102","京都市上京区","261020179000","小山町","35.018924","135.742821","0","0"
"26","京都府","26102","京都市上京区","261020180000","御霊町","35.021784","135.757229","0","0"
"26","京都府","26102","京都市上京区","261020181000","坤高町","35.022712","135.745527","0","0"
"26","京都府","26102","京都市上京区","261020182000","西院町","35.018827","135.746811","0","0"
"26","京都府","26102","京都市上京区","261020183000","皀莢町","35.024132","135.751726","0","0"
"26","京都府","26102","京都市上京区","261020184000","西東町","35.020084","135.737356","0","0"
"26","京都府","26102","京都市上京区","261020185000","幸神町","35.030628","135.766830","0","0"
"26","京都府","26102","京都市上京区","261020186000","栄町","35.027359","135.769068","0","0"
"26","京都府","26102","京都市上京区","261020187000","栄町","35.027445","135.748001","0","0"
"26","京都府","26102","京都市上京区","261020188000","作庵町","35.032624","135.741577","0","0"
"26","京都府","26102","京都市上京区","261020189000","桜井町","35.030441","135.747145","0","0"
"26","京都府","26102","京都市上京区","261020190000","桜木町","35.033588","135.764954","0","0"
"26","京都府","26102","京都市上京区","261020191004","笹屋四丁目","35.028212","135.741662","0","3"
"26","京都府","26102","京都市上京区","261020191005","笹屋五丁目","35.028046","135.740158","0","3"
"26","京都府","26102","京都市上京区","261020192001","笹屋町一丁目","35.027847","135.746002","0","3"
"26","京都府","26102","京都市上京区","261020192002","笹屋町二丁目","35.027604","135.744322","0","3"
"26","京都府","26102","京都市上京区","261020192003","笹屋町三丁目","35.028153","135.743276","0","3"
"26","京都府","26102","京都市上京区","261020193000","佐竹町","35.030309","135.740806","0","0"
"26","京都府","26102","京都市上京区","261020194000","左馬松町","35.017153","135.748251","0","0"
"26","京都府","26102","京都市上京区","261020195000","三栄町","35.030986","135.768636","0","0"
"26","京都府","26102","京都市上京区","261020196000","三軒町","35.025605","135.740125","0","0"
"26","京都府","26102","京都市上京区","261020197000","讃州寺町","35.025662","135.755382","0","0"
"26","京都府","26102","京都市上京区","261020198000","三条殿町","35.026531","135.740867","0","0"
"26","京都府","26102","京都市上京区","261020199000","三助町","35.022591","135.737391","0","0"
"26","京都府","26102","京都市上京区","261020200000","三町目","35.018157","135.748380","0","0"
"26","京都府","26102","京都市上京区","261020201000","三町目","35.021887","135.752445","0","0"
"26","京都府","26102","京都市上京区","261020202000","三丁町","35.025042","135.755921","0","0"
"26","京都府","26102","京都市上京区","261020203000","山王町","35.023189","135.743991","0","0"
"26","京都府","26102","京都市上京区","261020204000","三番町","35.022055","135.738989","0","0"
"26","京都府","26102","京都市上京区","261020205000","慈眼庵町","35.030874","135.749790","0","0"
"26","京都府","26102","京都市上京区","261020206000","七番町","35.021774","135.740553","0","0"
"26","京都府","26102","京都市上京区","261020207000","実相院町","35.030812","135.753239","0","0"
"26","京都府","26102","京都市上京区","261020208000","仕丁町","35.024273","135.756505","0","0"
"26","京都府","26102","京都市上京区","261020209000","信濃町","35.023834","135.743328","0","0"
"26","京都府","26102","京都市上京区","261020210000","芝大宮町","35.031694","135.748752","0","0"
"26","京都府","26102","京都市上京区","261020211000","芝之町","35.032871","135.751770","0","0"
"26","京都府","26102","京都市上京区","261020212000","芝薬師町","35.032176","135.751236","0","0"
"26","京都府","26102","京都市上京区","261020213000","下石橋町","35.026891","135.749096","0","0"
"26","京都府","26102","京都市上京区","261020214000","下石橋南半町","35.026407","135.749090","0","0"
"26","京都府","26102","京都市上京区","261020215000","下小川町","35.024231","135.754288","0","0"
"26","京都府","26102","京都市上京区","261020216000","下鏡石町","35.025733","135.748411","0","0"
"26","京都府","26102","京都市上京区","261020217000","下木下町","35.034532","135.757302","0","0"
"26","京都府","26102","京都市上京区","261020218000","下清蔵口町","35.036819","135.754207","0","0"
"26","京都府","26102","京都市上京区","261020219000","下竪町","35.024535","135.735677","0","0"
"26","京都府","26102","京都市上京区","261020220000","下天神町","35.035557","135.750402","0","0"
"26","京都府","26102","京都市上京区","261020221000","下塔之段町","35.029972","135.766523","0","0"
"26","京都府","26102","京都市上京区","261020222000","下之町","35.019509","135.736132","0","0"
"26","京都府","26102","京都市上京区","261020223000","下堀川町","35.016721","135.751698","0","0"
"26","京都府","26102","京都市上京区","261020224000","下丸屋町","35.020149","135.745512","0","0"
"26","京都府","26102","京都市上京区","261020225000","下御輿町","35.029856","135.767341","0","0"
"26","京都府","26102","京都市上京区","261020226000","下柳原北半町","35.034594","135.758337","0","0"
"26","京都府","26102","京都市上京区","261020227000","下柳原南半町","35.033968","135.758286","0","0"
"26","京都府","26102","京都市上京区","261020228000","下山里町","35.023109","135.746609","0","0"
"26","京都府","26102","京都市上京区","261020229000","下横町","35.024099","135.734337","0","0"
"26","京都府","26102","京都市上京区","261020230000","社家長屋町","35.031231","135.736739","0","0"
"26","京都府","26102","京都市上京区","261020231000","社家長屋町","35.030676","135.736536","0","0"
"26","京都府","26102","京都市上京区","261020232000","十念寺前町","35.032526","135.766513","0","0"
"26","京都府","26102","京都市上京区","261020233000","十四軒町","35.020824","135.742762","0","0"
"26","京都府","26102","京都市上京区","261020234000","主計町","35.025774","135.752211","0","0"
"26","京都府","26102","京都市上京区","261020235000","主税町","35.016484","135.745056","0","0"
"26","京都府","26102","京都市上京区","261020236000","聚楽町","35.016110","135.743138","0","0"
"26","京都府","26102","京都市上京区","261020237000","常泉院町","35.020725","135.757214","0","0"
"26","京都府","26102","京都市上京区","261020238000","上善寺町","35.030277","135.742450","0","0"
"26","京都府","26102","京都市上京区","261020239000","聖天町","35.033042","135.746334","0","0"
"26","京都府","26102","京都市上京区","261020240000","紹巴町","35.022602","135.752722","0","0"
"26","京都府","26102","京都市上京区","261020241000","白竹町","35.023843","135.740044","0","0"
"26","京都府","26102","京都市上京区","261020242000","白銀町","35.021979","135.745495","0","0"
"26","京都府","26102","京都市上京区","261020243000","新猪熊町","35.034316","135.742315","0","0"
"26","京都府","26102","京都市上京区","261020244000","新猪熊東町","35.034337","135.743782","0","0"
"26","京都府","26102","京都市上京区","261020245000","新夷町","35.027170","135.768444","0","0"
"26","京都府","26102","京都市上京区","261020246000","新烏丸頭町","35.019735","135.768550","0","0"
"26","京都府","26102","京都市上京区","261020247000","新北小路町","35.029627","135.761697","0","0"
"26","京都府","26102","京都市上京区","261020248000","新御幸町","35.022622","135.744533","0","0"
"26","京都府","26102","京都市上京区","261020249000","新御霊口町","35.036554","135.763039","0","0"
"26","京都府","26102","京都市上京区","261020250000","真盛町","35.030912","135.736784","0","0"
"26","京都府","26102","京都市上京区","261020251000","真盛町","35.032606","135.742689","0","0"
"26","京都府","26102","京都市上京区","261020252000","真盛町","35.029962","135.737718","0","0"
"26","京都府","26102","京都市上京区","261020253000","新建町","35.026771","135.736404","0","0"
"26","京都府","26102","京都市上京区","261020254000","真町","35.018583","135.770146","0","0"
"26","京都府","26102","京都市上京区","261020255000","新ン町","35.037201","135.749845","0","0"
"26","京都府","26102","京都市上京区","261020256000","信富町","35.017927","135.767812","0","0"
"26","京都府","26102","京都市上京区","261020257000","真如堂突抜町","35.028497","135.767209","0","0"
"26","京都府","26102","京都市上京区","261020258000","真如堂前町","35.028495","135.767659","0","0"
"26","京都府","26102","京都市上京区","261020259000","新白水丸町","35.025401","135.747348","0","0"
"26","京都府","26102","京都市上京区","261020260000","新桝屋町","35.024986","135.745508","0","0"
"26","京都府","26102","京都市上京区","261020261000","新美濃部町","35.033495","135.748015","0","0"
"26","京都府","26102","京都市上京区","261020262000","神明町","35.034295","135.735786","0","0"
"26","京都府","26102","京都市上京区","261020263000","神明町","35.024153","135.748256","0","0"
"26","京都府","26102","京都市上京区","261020264000","新元町","35.024940","135.748878","0","0"
"26","京都府","26102","京都市上京区","261020265000","新柳馬場頭町","35.023581","135.744596","0","0"
"26","京都府","26102","京都市上京区","261020266000","瑞光院前町","35.037641","135.751429","0","0"
"26","京都府","26102","京都市上京区","261020267000","末之口町","35.028114","135.738809","0","0"
"26","京都府","26102","京都市上京区","261020268000","末広町","35.031623","135.741197","0","0"
"26","京都府","26102","京都市上京区","261020269000","杉本町","35.023487","135.750488","0","0"
"26","京都府","26102","京都市上京区","261020270000","杉若町","35.031712","135.745303","0","0"
"26","京都府","26102","京都市上京区","261020271000","筋違橋町","35.037308","135.748885","0","0"
"26","京都府","26102","京都市上京区","261020272000","硯屋町","35.032366","135.747846","0","0"
"26","京都府","26102","京都市上京区","261020273000","須浜池町","35.024255","135.747524","0","0"
"26","京都府","26102","京都市上京区","261020274000","須浜町","35.023380","135.746950","0","0"
"26","京都府","26102","京都市上京区","261020275000","須浜東町","35.023435","135.747875","0","0"
"26","京都府","26102","京都市上京区","261020276000","晴明町","35.027095","135.751309","0","0"
"26","京都府","26102","京都市上京区","261020277000","青龍町","35.031939","135.769526","0","0"
"26","京都府","26102","京都市上京区","261020278000","青龍町","35.030351","135.770291","0","0"
"26","京都府","26102","京都市上京区","261020279000","清和院町","35.023178","135.758006","0","0"
"26","京都府","26102","京都市上京区","261020280000","禅昌院町","35.035477","135.753470","0","0"
"26","京都府","26102","京都市上京区","261020281000","相国寺門前町","35.032914","135.761781","0","0"
"26","京都府","26102","京都市上京区","261020282000","染殿町","35.025535","135.767358","0","0"
"26","京都府","26102","京都市上京区","261020283000","大黒町","35.019254","135.750504","0","0"
"26","京都府","26102","京都市上京区","261020284000","大黒町","35.033000","135.745597","0","0"
"26","京都府","26102","京都市上京区","261020285000","大黒屋町","35.021912","135.753429","0","0"
"26","京都府","26102","京都市上京区","261020286000","大心院町","35.035526","135.755683","0","0"
"26","京都府","26102","京都市上京区","261020287000","泰童片原町","35.027358","135.742497","0","0"
"26","京都府","26102","京都市上京区","261020288000","泰童町","35.026520","135.744283","0","0"
"26","京都府","26102","京都市上京区","261020289000","大文字町","35.028911","135.740468","0","0"
"26","京都府","26102","京都市上京区","261020290000","大門町","35.018174","135.758026","0","0"
"26","京都府","26102","京都市上京区","261020291000","高島町","35.017667","135.768653","0","0"
"26","京都府","26102","京都市上京区","261020292000","鷹司町","35.022726","135.758721","0","0"
"26","京都府","26102","京都市上京区","261020293000","鷹司町","35.022577","135.754353","0","0"
"26","京都府","26102","京都市上京区","261020294000","滝ケ鼻町","35.026887","135.738079","0","0"
"26","京都府","26102","京都市上京区","261020295000","竹園町","35.036466","135.757930","0","0"
"26","京都府","26102","京都市上京区","261020296000","竹屋町","35.032794","135.752196","0","0"
"26","京都府","26102","京都市上京区","261020297000","橘町","35.027515","135.746757","0","0"
"26","京都府","26102","京都市上京区","261020298000","龍前町","35.024813","135.759196","0","0"
"26","京都府","26102","京都市上京区","261020299000","竪亀屋町","35.029325","135.745474","0","0"
"26","京都府","26102","京都市上京区","261020300000","竪神明町","35.027558","135.750569","0","0"
"26","京都府","26102","京都市上京区","261020301000","竪富田町","35.027249","135.752494","0","0"
"26","京都府","26102","京都市上京区","261020302000","竪門前町","35.029086","135.751199","0","0"
"26","京都府","26102","京都市上京区","261020303000","竪社北半町","35.036994","135.748084","0","0"
"26","京都府","26102","京都市上京区","261020304000","竪社南半町","35.036244","135.748102","0","0"
"26","京都府","26102","京都市上京区","261020305000","田中町","35.020268","135.743868","0","0"
"26","京都府","26102","京都市上京区","261020306000","田畑町","35.035412","135.746739","0","0"
"26","京都府","26102","京都市上京区","261020307000","玉屋町","35.025260","135.742577","0","0"
"26","京都府","26102","京都市上京区","261020308000","玉屋町","35.028843","135.741277","0","0"
"26","京都府","26102","京都市上京区","261020309000","田丸町","35.024976","135.743761","0","0"
"26","京都府","26102","京都市上京区","261020310000","田村備前町","35.021295","135.745657","0","0"
"26","京都府","26102","京都市上京区","261020311000","多門町","35.025064","135.746512","0","0"
"26","京都府","26102","京都市上京区","261020312000","俵屋町","35.017737","135.769804","0","0"
"26","京都府","26102","京都市上京区","261020313000","弾正町","35.026715","135.749837","0","0"
"26","京都府","26102","京都市上京区","261020314000","丹波屋町","35.024984","135.743092","0","0"
"26","京都府","26102","京都市上京区","261020315000","智恵光院前之町","35.026988","135.746440","0","0"
"26","京都府","26102","京都市上京区","261020316000","茶屋町","35.021867","135.754243","0","0"
"26","京都府","26102","京都市上京区","261020317000","中書町","35.018739","135.748311","0","0"
"26","京都府","26102","京都市上京区","261020318000","丁子風呂町","35.021227","135.754295","0","0"
"26","京都府","26102","京都市上京区","261020319000","突抜町","35.030260","135.740142","0","0"
"26","京都府","26102","京都市上京区","261020320000","突抜町","35.024268","135.752845","0","0"
"26","京都府","26102","京都市上京区","261020321000","突抜町","35.020255","135.735180","0","0"
"26","京都府","26102","京都市上京区","261020322000","築山北半町","35.030175","135.758011","0","0"
"26","京都府","26102","京都市上京区","261020323000","築山南半町","35.029457","135.757962","0","0"
"26","京都府","26102","京都市上京区","261020324000","土田町","35.032348","135.750384","0","0"
"26","京都府","26102","京都市上京区","261020325000","土御門町","35.023921","135.755811","0","0"
"26","京都府","26102","京都市上京区","261020326000","鶴山町","35.033653","135.766850","0","0"
"26","京都府","26102","京都市上京区","261020327000","出水町","35.019175","135.769591","0","0"
"26","京都府","26102","京都市上京区","261020328000","寺今町","35.028428","135.750042","0","0"
"26","京都府","26102","京都市上京区","261020329000","寺之内竪町","35.034410","135.751589","0","0"
"26","京都府","26102","京都市上京区","261020330000","天神北町","35.037241","135.750840","0","0"
"26","京都府","26102","京都市上京区","261020331000","天秤町","35.020762","135.747820","0","0"
"26","京都府","26102","京都市上京区","261020332000","天秤丸町","35.022000","135.746687","0","0"
"26","京都府","26102","京都市上京区","261020333000","天満屋町","35.020920","135.736215","0","0"
"26","京都府","26102","京都市上京区","261020334000","藤五郎町","35.023073","135.749367","0","0"
"26","京都府","26102","京都市上京区","261020335000","東西俵屋町","35.025770","135.744252","0","0"
"26","京都府","26102","京都市上京区","261020336000","東西町","35.034042","135.750762","0","0"
"26","京都府","26102","京都市上京区","261020337000","道正町","35.034325","135.756059","0","0"
"26","京都府","26102","京都市上京区","261020338000","常盤井図子町","35.028105","135.755290","0","0"
"26","京都府","26102","京都市上京区","261020339000","常盤井殿町","35.029856","135.765398","0","0"
"26","京都府","26102","京都市上京区","261020340000","徳大寺殿町","35.028419","135.756202","0","0"
"26","京都府","26102","京都市上京区","261020341000","徳屋町","35.028005","135.751319","0","0"
"26","京都府","26102","京都市上京区","261020342000","百々町","35.034084","135.752544","0","0"
"26","京都府","26102","京都市上京区","261020343000","富小路町","35.028316","135.751380","0","0"
"26","京都府","26102","京都市上京区","261020344000","鳥居前町","35.031562","135.737290","0","0"
"26","京都府","26102","京都市上京区","261020345000","内藤町","35.033665","135.755696","0","0"
"26","京都府","26102","京都市上京区","261020346000","直家町","35.018029","135.751187","0","0"
"26","京都府","26102","京都市上京区","261020347000","中猪熊町","35.034069","135.745695","0","0"
"26","京都府","26102","京都市上京区","261020348000","中小川町","35.030173","135.754262","0","0"
"26","京都府","26102","京都市上京区","261020349000","長尾町","35.019273","135.751748","0","0"
"26","京都府","26102","京都市上京区","261020350000","中御霊図子町","35.030839","135.756718","0","0"
"26","京都府","26102","京都市上京区","261020351000","仲御霊町","35.024192","135.742532","0","0"
"26","京都府","26102","京都市上京区","261020352000","中御霊町","35.023535","135.768471","0","0"
"26","京都府","26102","京都市上京区","261020353000","中務町","35.018896","135.745020","0","0"
"26","京都府","26102","京都市上京区","261020354000","中出水町","35.021324","135.758720","0","0"
"26","京都府","26102","京都市上京区","261020355000","長門町","35.020408","135.737449","0","0"
"26","京都府","26102","京都市上京区","261020356000","長門町","35.020373","135.739996","0","0"
"26","京都府","26102","京都市上京区","261020357000","仲之町","35.028421","135.752963","0","0"
"26","京都府","26102","京都市上京区","261020358000","仲之町","35.035487","135.748879","0","0"
"26","京都府","26102","京都市上京区","261020359000","中之町","35.018768","135.770912","0","0"
"26","京都府","26102","京都市上京区","261020360000","仲之町","35.023256","135.755814","0","0"
"26","京都府","26102","京都市上京区","261020361000","中之町","35.016729","135.750953","0","0"
"26","京都府","26102","京都市上京区","261020362000","仲之町","35.021955","135.736372","0","0"
"26","京都府","26102","京都市上京区","261020363000","中橋詰町","35.023228","135.754401","0","0"
"26","京都府","26102","京都市上京区","261020364000","中御門横町","35.018694","135.749828","0","0"
"26","京都府","26102","京都市上京区","261020365000","中宮町","35.029303","135.744489","0","0"
"26","京都府","26102","京都市上京区","261020366000","中村町","35.020105","135.746986","0","0"
"26","京都府","26102","京都市上京区","261020367000","中社町","35.035108","135.746981","0","0"
"26","京都府","26102","京都市上京区","261020368000","梨木町","35.025553","135.749277","0","0"
"26","京都府","26102","京都市上京区","261020369000","納屋町","35.033760","135.757406","0","0"
"26","京都府","26102","京都市上京区","261020370000","奈良物町","35.023047","135.751716","0","0"
"26","京都府","26102","京都市上京区","261020371000","西石屋町","35.031296","135.749323","0","0"
"26","京都府","26102","京都市上京区","261020372000","西五辻北町","35.034183","135.741063","0","0"
"26","京都府","26102","京都市上京区","261020373000","西五辻東町","35.031049","135.743365","0","0"
"26","京都府","26102","京都市上京区","261020374000","西今小路町","35.028268","135.736840","0","0"
"26","京都府","26102","京都市上京区","261020375000","西今町","35.029167","135.752508","0","0"
"26","京都府","26102","京都市上京区","261020376000","西今出川町","35.026603","135.740216","0","0"
"26","京都府","26102","京都市上京区","261020377000","西裏辻町","35.019328","135.753489","0","0"
"26","京都府","26102","京都市上京区","261020378000","西大路町","35.019884","135.754272","0","0"
"26","京都府","26102","京都市上京区","261020379000","西大路町","35.031986","135.755574","0","0"
"26","京都府","26102","京都市上京区","261020380000","西上之町","35.022997","135.735986","0","0"
"26","京都府","26102","京都市上京区","261020381000","西亀屋町","35.029314","135.743313","0","0"
"26","京都府","26102","京都市上京区","261020382000","西川端町","35.026503","135.753006","0","0"
"26","京都府","26102","京都市上京区","261020383000","西北小路町","35.033160","135.749883","0","0"
"26","京都府","26102","京都市上京区","261020384000","西北小路町","35.029937","135.746381","0","0"
"26","京都府","26102","京都市上京区","261020385000","西熊町","35.034624","135.744539","0","0"
"26","京都府","26102","京都市上京区","261020386000","西上善寺町","35.029640","135.740258","0","0"
"26","京都府","26102","京都市上京区","261020387000","西神明町","35.021404","135.743537","0","0"
"26","京都府","26102","京都市上京区","261020388000","西千本町","35.034575","135.746801","0","0"
"26","京都府","26102","京都市上京区","261020389000","西鷹司町","35.022554","135.757266","0","0"
"26","京都府","26102","京都市上京区","261020390000","西辰巳町","35.022640","135.747489","0","0"
"26","京都府","26102","京都市上京区","261020391000","西出水町","35.021219","135.757242","0","0"
"26","京都府","26102","京都市上京区","261020392000","西天秤町","35.021440","135.747957","0","0"
"26","京都府","26102","京都市上京区","261020393000","西富仲町","35.024242","135.743734","0","0"
"26","京都府","26102","京都市上京区","261020394000","西中筋町","35.025756","135.741672","0","0"
"26","京都府","26102","京都市上京区","261020395000","西之口町","35.026309","135.754757","0","0"
"26","京都府","26102","京都市上京区","261020396000","西橋詰町","35.020025","135.751279","0","0"
"26","京都府","26102","京都市上京区","261020397000","西日野殿町","35.026269","135.756751","0","0"
"26","京都府","26102","京都市上京区","261020398000","西船橋町","35.029767","135.751267","0","0"
"26","京都府","26102","京都市上京区","261020399000","西町","35.028575","135.752650","0","0"
"26","京都府","26102","京都市上京区","261020400000","西町","35.025789","135.737397","0","0"
"26","京都府","26102","京都市上京区","261020401000","西町","35.025937","135.733679","0","0"
"26","京都府","26102","京都市上京区","261020402000","西丸太町","35.017414","135.751234","0","0"
"26","京都府","26102","京都市上京区","261020403000","西無車小路町","35.027691","135.755325","0","0"
"26","京都府","26102","京都市上京区","261020404000","西社町","35.035299","135.745693","0","0"
"26","京都府","26102","京都市上京区","261020405000","西柳町","35.031006","135.737732","0","0"
"26","京都府","26102","京都市上京区","261020406000","西山崎町","35.018563","135.752549","0","0"
"26","京都府","26102","京都市上京区","261020407000","西芦山寺町","35.035215","135.742831","0","0"
"26","京都府","26102","京都市上京区","261020408000","西若宮北半町","35.038414","135.748106","0","0"
"26","京都府","26102","京都市上京区","261020409000","西若宮南半町","35.037605","135.748099","0","0"
"26","京都府","26102","京都市上京区","261020410000","二神町","35.030325","135.768998","0","0"
"26","京都府","26102","京都市上京区","261020411000","二町目","35.019347","135.748356","0","0"
"26","京都府","26102","京都市上京区","261020412000","二町目","35.023206","135.752280","0","0"
"26","京都府","26102","京都市上京区","261020413000","二番町","35.023855","135.738715","0","0"
"26","京都府","26102","京都市上京区","261020414000","二本松町","35.022514","135.743487","0","0"
"26","京都府","26102","京都市上京区","261020415000","如水町","35.026400","135.750553","0","0"
"26","京都府","26102","京都市上京区","261020416000","秤口町","35.022042","135.747439","0","0"
"26","京都府","26102","京都市上京区","261020417000","馬喰町","35.033540","135.735457","0","0"
"26","京都府","26102","京都市上京区","261020418000","馬喰町","35.032846","135.737199","0","0"
"26","京都府","26102","京都市上京区","261020419000","馬喰町","35.029373","135.735731","0","0"
"26","京都府","26102","京都市上京区","261020420000","橋詰町","35.028330","135.752037","0","0"
"26","京都府","26102","京都市上京区","261020421000","橋西二町目","35.020002","135.749801","0","0"
"26","京都府","26102","京都市上京区","261020422000","橋之上町","35.029601","135.752152","0","0"
"26","京都府","26102","京都市上京区","261020423000","橋本町","35.023327","135.752805","0","0"
"26","京都府","26102","京都市上京区","261020424000","長谷町","35.023098","135.744908","0","0"
"26","京都府","26102","京都市上京区","261020425000","畠山町","35.029988","135.757102","0","0"
"26","京都府","26102","京都市上京区","261020426000","畠中町","35.034989","135.756348","0","0"
"26","京都府","26102","京都市上京区","261020427000","花車町","35.033463","135.741668","0","0"
"26","京都府","26102","京都市上京区","261020428000","花立町","35.024410","135.757972","0","0"
"26","京都府","26102","京都市上京区","261020429000","針屋町","35.029120","135.754202","0","0"
"26","京都府","26102","京都市上京区","261020430000","春帯町","35.018688","135.756647","0","0"
"26","京都府","26102","京都市上京区","261020431000","般舟院前町","35.030153","135.743409","0","0"
"26","京都府","26102","京都市上京区","261020432000","東石橋町","35.025828","135.742675","0","0"
"26","京都府","26102","京都市上京区","261020433000","東石屋町","35.031402","135.749948","0","0"
"26","京都府","26102","京都市上京区","261020434000","東今小路町","35.028536","135.737778","0","0"
"26","京都府","26102","京都市上京区","261020435000","東今町","35.029203","135.753404","0","0"
"26","京都府","26102","京都市上京区","261020436000","東魚屋町","35.018640","135.754327","0","0"
"26","京都府","26102","京都市上京区","261020437000","東裏辻町","35.019039","135.755508","0","0"
"26","京都府","26102","京都市上京区","261020438000","東桜町","35.022331","135.769170","0","0"
"26","京都府","26102","京都市上京区","261020439000","東上善寺町","35.029883","135.744506","0","0"
"26","京都府","26102","京都市上京区","261020440000","東神明町","35.021327","135.744325","0","0"
"26","京都府","26102","京都市上京区","261020441000","東千本町","35.034550","135.747853","0","0"
"26","京都府","26102","京都市上京区","261020442000","東立売町","35.019928","135.757086","0","0"
"26","京都府","26102","京都市上京区","261020443000","東辰巳町","35.022529","135.748568","0","0"
"26","京都府","26102","京都市上京区","261020444000","東竪町","35.025729","135.736213","0","0"
"26","京都府","26102","京都市上京区","261020445000","東長者町","35.023127","135.757215","0","0"
"26","京都府","26102","京都市上京区","261020446000","東土御門町","35.016988","135.768521","0","0"
"26","京都府","26102","京都市上京区","261020447000","東天秤町","35.021292","135.748583","0","0"
"26","京都府","26102","京都市上京区","261020448000","東橋詰町","35.025012","135.752566","0","0"
"26","京都府","26102","京都市上京区","261020449000","東橋詰町","35.020018","135.752730","0","0"
"26","京都府","26102","京都市上京区","261020450000","東日野殿町","35.026056","135.757344","0","0"
"26","京都府","26102","京都市上京区","261020451000","東堀町","35.023074","135.748696","0","0"
"26","京都府","26102","京都市上京区","261020452000","東町","35.028568","135.753773","0","0"
"26","京都府","26102","京都市上京区","261020453000","東町","35.025025","135.758801","0","0"
"26","京都府","26102","京都市上京区","261020454000","東町","35.026134","135.738483","0","0"
"26","京都府","26102","京都市上京区","261020455000","東社町","35.035116","135.747972","0","0"
"26","京都府","26102","京都市上京区","261020456000","東柳町","35.031033","135.739004","0","0"
"26","京都府","26102","京都市上京区","261020457000","東若宮町","35.038220","135.749845","0","0"
"26","京都府","26102","京都市上京区","261020458000","挽木町","35.032874","135.754465","0","0"
"26","京都府","26102","京都市上京区","261020459000","庇町","35.025606","135.749511","0","0"
"26","京都府","26102","京都市上京区","261020460000","菱丸町","35.024271","135.745068","0","0"
"26","京都府","26102","京都市上京区","261020461000","菱屋町","35.029290","135.746254","0","0"
"26","京都府","26102","京都市上京区","261020462000","菱屋町","35.019258","135.749023","0","0"
"26","京都府","26102","京都市上京区","261020463000","毘沙門町","35.027610","135.749850","0","0"
"26","京都府","26102","京都市上京区","261020464000","毘沙門町","35.029668","135.739173","0","0"
"26","京都府","26102","京都市上京区","261020465000","毘沙門町","35.031535","135.765213","0","0"
"26","京都府","26102","京都市上京区","261020466000","毘沙門横町","35.032434","135.765957","0","0"
"26","京都府","26102","京都市上京区","261020467000","常陸町","35.024259","135.749310","0","0"
"26","京都府","26102","京都市上京区","261020468000","飛弾殿町","35.025682","135.749906","0","0"
"26","京都府","26102","京都市上京区","261020469000","樋之口町","35.032591","135.748780","0","0"
"26","京都府","26102","京都市上京区","261020470000","百万遍町","35.023815","135.742540","0","0"
"26","京都府","26102","京都市上京区","261020471000","瓢箪図子町","35.031226","135.757284","0","0"
"26","京都府","26102","京都市上京区","261020472000","広橋殿町","35.026273","135.758615","0","0"
"26","京都府","26102","京都市上京区","261020473000","武衛陣町","35.019348","135.758093","0","0"
"26","京都府","26102","京都市上京区","261020474000","福島町","35.022222","135.742131","0","0"
"26","京都府","26102","京都市上京区","261020475000","福大明神町","35.025836","135.751280","0","0"
"26","京都府","26102","京都市上京区","261020476000","福長町","35.027469","135.757950","0","0"
"26","京都府","26102","京都市上京区","261020477000","福本町","35.026830","135.745290","0","0"
"26","京都府","26102","京都市上京区","261020478000","袋町","35.018789","135.769758","0","0"
"26","京都府","26102","京都市上京区","261020479000","藤木町","35.031429","135.750634","0","0"
"26","京都府","26102","京都市上京区","261020480000","不動前町","35.035103","135.764548","0","0"
"26","京都府","26102","京都市上京区","261020481000","古木町","35.033510","135.756299","0","0"
"26","京都府","26102","京都市上京区","261020482000","古美濃部町","35.033494","135.747050","0","0"
"26","京都府","26102","京都市上京区","261020483000","風呂屋町","35.030781","135.741609","0","0"
"26","京都府","26102","京都市上京区","261020484000","分銅町","35.020712","135.746412","0","0"
"26","京都府","26102","京都市上京区","261020485000","弁財天町","35.029139","135.755504","0","0"
"26","京都府","26102","京都市上京区","261020486000","弁天町","35.022089","135.744085","0","0"
"26","京都府","26102","京都市上京区","261020487000","宝鏡院東町","35.033745","135.753593","0","0"
"26","京都府","26102","京都市上京区","261020488000","鳳瑞町","35.022939","135.738407","0","0"
"26","京都府","26102","京都市上京区","261020489000","木瓜原町","35.035532","135.743468","0","0"
"26","京都府","26102","京都市上京区","261020490000","木瓜原町","35.035655","135.742715","0","0"
"26","京都府","26102","京都市上京区","261020491000","牡丹鉾町","35.031707","135.742025","0","0"
"26","京都府","26102","京都市上京区","261020492000","堀川上之町","35.027254","135.751853","0","0"
"26","京都府","26102","京都市上京区","261020493000","堀川下之町","35.025816","135.751782","0","0"
"26","京都府","26102","京都市上京区","261020494000","堀川町","35.021228","135.733689","0","0"
"26","京都府","26102","京都市上京区","261020495000","堀出シ町","35.029144","135.756865","0","0"
"26","京都府","26102","京都市上京区","261020496000","堀之上町","35.031947","135.752745","0","0"
"26","京都府","26102","京都市上京区","261020497000","堀松町","35.019423","135.759142","0","0"
"26","京都府","26102","京都市上京区","261020498000","本法寺前町","35.034939","135.752912","0","0"
"26","京都府","26102","京都市上京区","261020499000","本満寺前町","35.031663","135.767255","0","0"
"26","京都府","26102","京都市上京区","261020500000","前之町","35.034523","135.748889","0","0"
"26","京都府","26102","京都市上京区","261020501000","蒔鳥屋町","35.030669","135.757412","0","0"
"26","京都府","26102","京都市上京区","261020502000","真倉町","35.033241","135.744777","0","0"
"26","京都府","26102","京都市上京区","261020503000","桝屋町","35.018101","135.769159","0","0"
"26","京都府","26102","京都市上京区","261020504000","桝屋町","35.028027","135.747837","0","0"
"26","京都府","26102","京都市上京区","261020505000","桝屋町","35.021896","135.751747","0","0"
"26","京都府","26102","京都市上京区","261020506000","松蔭町","35.019725","135.767664","0","0"
"26","京都府","26102","京都市上京区","261020507000","松永町","35.027137","135.736566","0","0"
"26","京都府","26102","京都市上京区","261020508000","松之木町","35.031247","135.766620","0","0"
"26","京都府","26102","京都市上京区","261020509000","松之下町","35.025835","135.752771","0","0"
"26","京都府","26102","京都市上京区","261020510000","松屋町","35.028847","135.742015","0","0"
"26","京都府","26102","京都市上京区","261020511000","丸屋町","35.019367","135.751085","0","0"
"26","京都府","26102","京都市上京区","261020512000","曼陀羅町","35.032657","135.749848","0","0"
"26","京都府","26102","京都市上京区","261020513000","水落町","35.031520","135.753425","0","0"
"26","京都府","26102","京都市上京区","261020514000","溝前町","35.031597","135.740075","0","0"
"26","京都府","26102","京都市上京区","261020515000","南伊勢屋町","35.017404","135.747689","0","0"
"26","京都府","26102","京都市上京区","261020516000","南蟹屋町","35.020521","135.749816","0","0"
"26","京都府","26102","京都市上京区","261020517000","南兼康町","35.029437","135.754881","0","0"
"26","京都府","26102","京都市上京区","261020518000","南小大門町","35.022783","135.749881","0","0"
"26","京都府","26102","京都市上京区","261020519000","南佐竹町","35.029216","135.741309","0","0"
"26","京都府","26102","京都市上京区","261020520000","南清水町","35.021976","135.748293","0","0"
"26","京都府","26102","京都市上京区","261020521000","南上善寺町","35.029824","135.741726","0","0"
"26","京都府","26102","京都市上京区","261020522000","南新在家町","35.026266","135.745964","0","0"
"26","京都府","26102","京都市上京区","261020523000","南俵町","35.023980","135.751157","0","0"
"26","京都府","26102","京都市上京区","261020524000","南町","35.018180","135.770909","0","0"
"26","京都府","26102","京都市上京区","261020525000","南辻町","35.029313","135.742491","0","0"
"26","京都府","26102","京都市上京区","261020526000","南舟橋町","35.030146","135.751752","0","0"
"26","京都府","26102","京都市上京区","261020527000","南門前町","35.028551","135.751075","0","0"
"26","京都府","26102","京都市上京区","261020528000","宮垣町","35.021719","135.768927","0","0"
"26","京都府","26102","京都市上京区","261020529000","妙顕寺前町","35.034663","135.754660","0","0"
"26","京都府","26102","京都市上京区","261020530000","妙蓮寺前町","35.034328","135.749944","0","0"
"26","京都府","26102","京都市上京区","261020531000","三芳町","35.029707","135.769127","0","0"
"26","京都府","26102","京都市上京区","261020532000","武者小路町","35.027894","135.756827","0","0"
"26","京都府","26102","京都市上京区","261020533000","村雲町","35.028831","135.752248","0","0"
"26","京都府","26102","京都市上京区","261020534000","室町頭町","35.032844","135.757979","0","0"
"26","京都府","26102","京都市上京区","261020535000","元伊佐町","35.029861","135.749767","0","0"
"26","京都府","26102","京都市上京区","261020536000","元観音町","35.029009","135.739649","0","0"
"26","京都府","26102","京都市上京区","261020537000","元北小路町","35.029853","135.747823","0","0"
"26","京都府","26102","京都市上京区","261020538000","元浄花院町","35.023706","135.758699","0","0"
"26","京都府","26102","京都市上京区","261020539000","元新在家町","35.029968","135.756142","0","0"
"26","京都府","26102","京都市上京区","261020540000","元真如堂町","35.026288","135.755738","0","0"
"26","京都府","26102","京都市上京区","261020541000","元図子町","35.028573","135.755104","0","0"
"26","京都府","26102","京都市上京区","261020542000","元頂妙寺町","35.023077","135.756703","0","0"
"26","京都府","26102","京都市上京区","261020543000","元土御門町","35.023910","135.757295","0","0"
"26","京都府","26102","京都市上京区","261020544000","元中之町","35.028662","135.746301","0","0"
"26","京都府","26102","京都市上京区","261020545000","元百万遍町","35.026694","135.753542","0","0"
"26","京都府","26102","京都市上京区","261020546000","元福大明神町","35.020738","135.751186","0","0"
"26","京都府","26102","京都市上京区","261020547000","元本満寺町","35.029998","135.755514","0","0"
"26","京都府","26102","京都市上京区","261020548000","元妙蓮寺町","35.028639","135.747757","0","0"
"26","京都府","26102","京都市上京区","261020549004","元四丁目","35.028771","135.743292","0","3"
"26","京都府","26102","京都市上京区","261020550000","森中町","35.019362","135.749778","0","0"
"26","京都府","26102","京都市上京区","261020551000","森之木町","35.037181","135.758079","0","0"
"26","京都府","26102","京都市上京区","261020552000","門跡町","35.019112","135.757207","0","0"
"26","京都府","26102","京都市上京区","261020553000","紋屋町","35.031804","135.746895","0","0"
"26","京都府","26102","京都市上京区","261020554000","薬師町","35.029163","135.749047","0","0"
"26","京都府","26102","京都市上京区","261020555000","薬師前町","35.035599","135.747381","0","0"
"26","京都府","26102","京都市上京区","261020556000","役人町","35.024988","135.750919","0","0"
"26","京都府","26102","京都市上京区","261020557000","社突抜町","35.036596","135.747482","0","0"
"26","京都府","26102","京都市上京区","261020558000","社横町","35.035820","135.747999","0","0"
"26","京都府","26102","京都市上京区","261020559000","柳図子町","35.032917","135.758850","0","0"
"26","京都府","26102","京都市上京区","261020560000","柳風呂町","35.029856","135.766909","0","0"
"26","京都府","26102","京都市上京区","261020561000","八幡町","35.019279","135.754216","0","0"
"26","京都府","26102","京都市上京区","261020562000","藪之内町","35.021410","135.755632","0","0"
"26","京都府","26102","京都市上京区","261020563000","藪之下町","35.033559","135.764348","0","0"
"26","京都府","26102","京都市上京区","261020564000","山里町","35.024244","135.746817","0","0"
"26","京都府","26102","京都市上京区","261020565000","山名町","35.031501","135.751346","0","0"
"26","京都府","26102","京都市上京区","261020566000","山本町","35.022578","135.746400","0","0"
"26","京都府","26102","京都市上京区","261020567000","行衛町","35.020204","135.733998","0","0"
"26","京都府","26102","京都市上京区","261020568000","養安町","35.018840","135.758883","0","0"
"26","京都府","26102","京都市上京区","261020569000","横大宮町","35.029259","135.747585","0","0"
"26","京都府","26102","京都市上京区","261020570000","横神明町","35.026959","135.750686","0","0"
"26","京都府","26102","京都市上京区","261020571000","吉野町","35.021897","135.749830","0","0"
"26","京都府","26102","京都市上京区","261020572000","四町目","35.016471","135.747541","0","0"
"26","京都府","26102","京都市上京区","261020573000","四町目","35.020677","135.751751","0","0"
"26","京都府","26102","京都市上京区","261020574000","四町目","35.020906","135.752447","0","0"
"26","京都府","26102","京都市上京区","261020575000","四番町","35.024224","135.740667","0","0"
"26","京都府","26102","京都市上京区","261020576000","利生町","35.022777","135.740361","0","0"
"26","京都府","26102","京都市上京区","261020577000","立本寺前町","35.030309","135.767713","0","0"
"26","京都府","26102","京都市上京区","261020578000","両御霊町","35.021047","135.756646","0","0"
"26","京都府","26102","京都市上京区","261020579000","六町目","35.018133","135.752307","0","0"
"26","京都府","26102","京都市上京区","261020580000","六番町","35.022535","135.741548","0","0"
"26","京都府","26102","京都市上京区","261020581000","若松町","35.027376","135.740980","0","0"
"26","京都府","26102","京都市上京区","261020582000","若宮竪町","35.038439","135.748952","0","0"
"26","京都府","26102","京都市上京区","261020583000","若宮横町","35.039064","135.748719","0","0"
"26","京都府","26102","京都市上京区","261020584000","和水町","35.024168","135.748835","0","0"
"26","京都府","26102","京都市上京区","261020585000","藁屋町","35.016867","135.749442","0","0"
