"PrefCode","PrefName","MuniCode","MuniName","DistCode","DistName","lat","lon","SrcCode","CatCode"
"26","京都府","26110","京都市山科区","261100001000","安朱稲荷山町","35.002201","135.818163","0","1"
"26","京都府","26110","京都市山科区","261100002000","安朱奥ノ田","34.998381","135.818253","0","1"
"26","京都府","26110","京都市山科区","261100003000","安朱川向町","34.997085","135.817709","0","1"
"26","京都府","26110","京都市山科区","261100004000","安朱北屋敷町","34.991371","135.818634","0","1"
"26","京都府","26110","京都市山科区","261100005000","安朱桟敷町","34.992611","135.817040","0","1"
"26","京都府","26110","京都市山科区","261100006000","安朱堂ノ後町","34.998482","135.819364","0","1"
"26","京都府","26110","京都市山科区","261100007000","安朱中小路町","34.992824","135.817745","0","1"
"26","京都府","26110","京都市山科区","261100008000","安朱中溝町","34.994351","135.818642","0","1"
"26","京都府","26110","京都市山科区","261100009000","安朱馬場ノ西町","34.994559","135.819205","0","1"
"26","京都府","26110","京都市山科区","261100010000","安朱馬場ノ東町","34.994800","135.819799","0","1"
"26","京都府","26110","京都市山科区","261100011000","安朱東海道町","34.995519","135.820414","0","1"
"26","京都府","26110","京都市山科区","261100012000","安朱東谷","35.004274","135.824732","0","1"
"26","京都府","26110","京都市山科区","261100013000","安朱毘沙門堂町","35.005546","135.819999","0","1"
"26","京都府","26110","京都市山科区","261100014000","安朱南屋敷町","34.990635","135.818166","0","1"
"26","京都府","26110","京都市山科区","261100015000","安朱屋敷町","34.999849","135.819282","0","1"
"26","京都府","26110","京都市山科区","261100016000","安朱山川町","34.995538","135.818154","0","1"
"26","京都府","26110","京都市山科区","261100017000","安朱山田","34.994390","135.817546","0","1"
"26","京都府","26110","京都市山科区","261100018000","上野池ノ下","34.995517","135.815139","0","1"
"26","京都府","26110","京都市山科区","261100019000","上野御所ノ内町","34.992452","135.816092","0","1"
"26","京都府","26110","京都市山科区","261100020000","上野寺井町","34.992512","135.813730","0","1"
"26","京都府","26110","京都市山科区","261100021000","上野山田","34.995084","135.817339","0","1"
"26","京都府","26110","京都市山科区","261100022000","大塚大岩","34.975609","135.832972","0","1"
"26","京都府","26110","京都市山科区","261100023000","大塚北溝町","34.981437","135.828381","0","1"
"26","京都府","26110","京都市山科区","261100024000","大塚高岩","34.979566","135.833187","0","1"
"26","京都府","26110","京都市山科区","261100025000","大塚丹田","34.979867","135.828888","0","1"
"26","京都府","26110","京都市山科区","261100026000","大塚檀ノ浦","34.975313","135.825258","0","1"
"26","京都府","26110","京都市山科区","261100027000","大塚中溝","34.980447","135.826555","0","1"
"26","京都府","26110","京都市山科区","261100028000","大塚西浦町","34.977594","135.823243","0","1"
"26","京都府","26110","京都市山科区","261100029000","大塚野溝町","34.982873","135.829508","0","1"
"26","京都府","26110","京都市山科区","261100030000","大塚南溝町","34.978807","135.825276","0","1"
"26","京都府","26110","京都市山科区","261100031000","大塚向畑町","34.981095","135.838625","0","1"
"26","京都府","26110","京都市山科区","261100032000","大塚元屋敷町","34.977161","135.825608","0","1"
"26","京都府","26110","京都市山科区","261100033000","大塚森町","34.981057","135.823519","0","1"
"26","京都府","26110","京都市山科区","261100034000","大塚葭ケ谷","34.976544","135.841171","0","1"
"26","京都府","26110","京都市山科区","261100035000","大宅石郡町","34.965579","135.815288","0","1"
"26","京都府","26110","京都市山科区","261100036000","大宅岩屋殿","34.967698","135.829380","0","1"
"26","京都府","26110","京都市山科区","261100037000","大宅打明町","34.973838","135.821524","0","1"
"26","京都府","26110","京都市山科区","261100038000","大宅奥山","34.969591","135.840302","0","1"
"26","京都府","26110","京都市山科区","261100039000","大宅奥山田","34.966831","135.823927","0","1"
"26","京都府","26110","京都市山科区","261100040000","大宅烏田町","34.967128","135.813210","0","1"
"26","京都府","26110","京都市山科区","261100041000","大宅神納町","34.966263","135.818534","0","1"
"26","京都府","26110","京都市山科区","261100042000","大宅甲ノ辻町","34.968599","135.819307","0","1"
"26","京都府","26110","京都市山科区","261100043000","大宅御供田町","34.968927","135.814791","0","1"
"26","京都府","26110","京都市山科区","261100044000","大宅御所山","34.971843","135.831670","0","1"
"26","京都府","26110","京都市山科区","261100045000","大宅御所田町","34.972886","135.825508","0","1"
"26","京都府","26110","京都市山科区","261100046000","大宅五反畑町","34.973629","135.823190","0","1"
"26","京都府","26110","京都市山科区","261100047000","大宅坂ノ辻町","34.971980","135.819885","0","1"
"26","京都府","26110","京都市山科区","261100048000","大宅桟敷","34.970595","135.816938","0","1"
"26","京都府","26110","京都市山科区","261100049000","大宅沢町","34.969304","135.817061","0","1"
"26","京都府","26110","京都市山科区","261100050000","大宅関生町","34.966859","135.815467","0","1"
"26","京都府","26110","京都市山科区","261100051000","大宅辻脇町","34.969874","135.819504","0","1"
"26","京都府","26110","京都市山科区","261100052000","大宅堂ノ山","34.965398","135.824468","0","1"
"26","京都府","26110","京都市山科区","261100053000","大宅鳥井脇町","34.967616","135.821075","0","1"
"26","京都府","26110","京都市山科区","261100054000","大宅中小路町","34.969571","135.823834","0","1"
"26","京都府","26110","京都市山科区","261100055000","大宅古海道町","34.971212","135.823245","0","1"
"26","京都府","26110","京都市山科区","261100056000","大宅細田町","34.966750","135.814224","0","1"
"26","京都府","26110","京都市山科区","261100057000","大宅向山","34.965297","135.821079","0","1"
"26","京都府","26110","京都市山科区","261100058000","大宅山田","34.968322","135.825150","0","1"
"26","京都府","26110","京都市山科区","261100059000","大宅早稲ノ内町","34.967724","135.817170","0","1"
"26","京都府","26110","京都市山科区","261100060000","音羽伊勢宿町","34.984337","135.821670","0","1"
"26","京都府","26110","京都市山科区","261100061000","音羽稲芝","34.983460","135.825711","0","1"
"26","京都府","26110","京都市山科区","261100062000","音羽乙出町","34.984007","135.819302","0","1"
"26","京都府","26110","京都市山科区","261100063000","音羽草田町","34.988971","135.826913","0","1"
"26","京都府","26110","京都市山科区","261100064000","音羽沢町","34.986897","135.819976","0","1"
"26","京都府","26110","京都市山科区","261100065000","音羽山等地","34.986948","135.826053","0","1"
"26","京都府","26110","京都市山科区","261100066000","音羽千本町","34.982767","135.822941","0","1"
"26","京都府","26110","京都市山科区","261100067000","音羽珍事町","34.988420","135.830577","0","1"
"26","京都府","26110","京都市山科区","261100068000","音羽中芝町","34.984512","135.823853","0","1"
"26","京都府","26110","京都市山科区","261100069000","音羽西林","34.982886","135.819480","0","1"
"26","京都府","26110","京都市山科区","261100070000","音羽野田町","34.984254","135.817108","0","1"
"26","京都府","26110","京都市山科区","261100071000","音羽八ノ坪","34.987811","135.826729","0","1"
"26","京都府","26110","京都市山科区","261100072000","音羽初田町","34.985787","135.821434","0","1"
"26","京都府","26110","京都市山科区","261100073000","音羽平林町","34.989061","135.838385","0","1"
"26","京都府","26110","京都市山科区","261100074000","音羽前田町","34.985631","135.826580","0","1"
"26","京都府","26110","京都市山科区","261100075000","音羽前出町","34.987582","135.822854","0","1"
"26","京都府","26110","京都市山科区","261100076000","音羽森廻り町","34.985641","135.823916","0","1"
"26","京都府","26110","京都市山科区","261100077000","音羽役出町","34.985439","135.818881","0","1"
"26","京都府","26110","京都市山科区","261100078000","小野蚊ケ瀬町","34.963726","135.812270","0","1"
"26","京都府","26110","京都市山科区","261100079000","小野鐘付田町","34.962288","135.813228","0","1"
"26","京都府","26110","京都市山科区","261100080000","小野河原町","34.964130","135.813590","0","1"
"26","京都府","26110","京都市山科区","261100081000","小野御所ノ内町","34.963210","135.817697","0","1"
"26","京都府","26110","京都市山科区","261100082000","小野御霊町","34.959299","135.816176","0","1"
"26","京都府","26110","京都市山科区","261100083000","小野荘司町","34.961563","135.818034","0","1"
"26","京都府","26110","京都市山科区","261100084000","小野高芝町","34.963964","135.816336","0","1"
"26","京都府","26110","京都市山科区","261100085000","小野葛籠尻町","34.961997","135.814677","0","1"
"26","京都府","26110","京都市山科区","261100086000","小野西浦","34.959929","135.813561","0","1"
"26","京都府","26110","京都市山科区","261100087000","小野弓田町","34.963970","135.814545","0","1"
"26","京都府","26110","京都市山科区","261100088000","上花山旭山町","34.985490","135.790556","0","1"
"26","京都府","26110","京都市山科区","261100089000","上花山久保町","34.981767","135.797386","0","1"
"26","京都府","26110","京都市山科区","261100090000","上花山講田町","34.984012","135.797664","0","1"
"26","京都府","26110","京都市山科区","261100091000","上花山坂尻","34.982167","135.794908","0","1"
"26","京都府","26110","京都市山科区","261100092000","上花山桜谷","34.984490","135.793818","0","1"
"26","京都府","26110","京都市山科区","261100093000","上花山花ノ岡町","34.984335","135.796021","0","1"
"26","京都府","26110","京都市山科区","261100094000","川田岩ケ谷","34.981935","135.790660","0","1"
"26","京都府","26110","京都市山科区","261100095000","川田梅ケ谷町","34.980927","135.789225","0","1"
"26","京都府","26110","京都市山科区","261100096000","川田御出町","34.978177","135.794706","0","1"
"26","京都府","26110","京都市山科区","261100097000","川田岡ノ西","34.979799","135.796049","0","1"
"26","京都府","26110","京都市山科区","261100098000","川田欠ノ上","34.977454","135.799916","0","1"
"26","京都府","26110","京都市山科区","261100099000","川田清水焼団地町","34.979778","135.794292","0","1"
"26","京都府","26110","京都市山科区","261100100000","川田土仏","34.979163","135.796806","0","1"
"26","京都府","26110","京都市山科区","261100101000","川田百々","34.978108","135.797181","0","1"
"26","京都府","26110","京都市山科区","261100102000","川田中畑町","34.978047","135.800282","0","1"
"26","京都府","26110","京都市山科区","261100103000","川田西浦町","34.980059","135.800018","0","1"
"26","京都府","26110","京都市山科区","261100104000","川田菱尾田","34.977697","135.798659","0","1"
"26","京都府","26110","京都市山科区","261100105000","川田前畑町","34.980337","135.800835","0","1"
"26","京都府","26110","京都市山科区","261100106000","川田御輿塚町","34.979891","135.798037","0","1"
"26","京都府","26110","京都市山科区","261100107000","川田南畑町","34.978646","135.801573","0","1"
"26","京都府","26110","京都市山科区","261100108000","川田南山","34.978462","135.793438","0","1"
"26","京都府","26110","京都市山科区","261100109000","川田山田","34.977767","135.793098","0","1"
"26","京都府","26110","京都市山科区","261100110000","勧修寺閑林寺","34.957178","135.812175","0","1"
"26","京都府","26110","京都市山科区","261100111000","勧修寺北大日","34.962791","135.794619","0","1"
"26","京都府","26110","京都市山科区","261100112000","勧修寺北大日町","34.959053","135.792868","0","1"
"26","京都府","26110","京都市山科区","261100113000","勧修寺御所内町","34.956607","135.810226","0","1"
"26","京都府","26110","京都市山科区","261100114000","勧修寺小松原町","34.959897","135.799175","0","1"
"26","京都府","26110","京都市山科区","261100115000","勧修寺柴山","34.966852","135.802532","0","1"
"26","京都府","26110","京都市山科区","261100116000","勧修寺下ノ茶屋町","34.959828","135.808039","0","1"
"26","京都府","26110","京都市山科区","261100117000","勧修寺瀬戸河原町","34.964425","135.809559","0","1"
"26","京都府","26110","京都市山科区","261100118000","勧修寺泉玉町","34.963517","135.806060","0","1"
"26","京都府","26110","京都市山科区","261100119000","勧修寺堂田","34.966670","135.804804","0","1"
"26","京都府","26110","京都市山科区","261100120000","勧修寺縄手町","34.962017","135.811602","0","1"
"26","京都府","26110","京都市山科区","261100121000","勧修寺仁王堂町","34.961604","135.807915","0","1"
"26","京都府","26110","京都市山科区","261100122000","勧修寺西金ケ崎","34.968168","135.806606","0","1"
"26","京都府","26110","京都市山科区","261100123000","勧修寺西北出町","34.963664","135.807468","0","1"
"26","京都府","26110","京都市山科区","261100124000","勧修寺西栗栖野町","34.969624","135.806916","0","1"
"26","京都府","26110","京都市山科区","261100125000","勧修寺冷尻","34.966075","135.801468","0","1"
"26","京都府","26110","京都市山科区","261100126000","勧修寺東金ケ崎町","34.966464","135.809379","0","1"
"26","京都府","26110","京都市山科区","261100127000","勧修寺東北出町","34.962480","135.809976","0","1"
"26","京都府","26110","京都市山科区","261100128000","勧修寺東栗栖野町","34.969531","135.808991","0","1"
"26","京都府","26110","京都市山科区","261100129000","勧修寺東出町","34.960343","135.811775","0","1"
"26","京都府","26110","京都市山科区","261100130000","勧修寺東堂田町","34.965614","135.807042","0","1"
"26","京都府","26110","京都市山科区","261100131000","勧修寺平田町","34.966019","135.812302","0","1"
"26","京都府","26110","京都市山科区","261100132000","勧修寺福岡町","34.963687","135.804716","0","1"
"26","京都府","26110","京都市山科区","261100133000","勧修寺風呂尻町","34.960005","135.810290","0","1"
"26","京都府","26110","京都市山科区","261100134000","勧修寺本堂山町","34.961551","135.804155","0","1"
"26","京都府","26110","京都市山科区","261100135000","勧修寺丸山町","34.963883","135.801040","0","1"
"26","京都府","26110","京都市山科区","261100136000","勧修寺南大日","34.956766","135.802899","0","1"
"26","京都府","26110","京都市山科区","261100137000","勧修寺南大日町","34.956917","135.796102","0","1"
"26","京都府","26110","京都市山科区","261100138000","勧修寺南谷町","34.959988","135.802858","0","1"
"26","京都府","26110","京都市山科区","261100139000","北花山市田町","34.986425","135.797768","0","1"
"26","京都府","26110","京都市山科区","261100140000","北花山大林町","34.983112","135.799594","0","1"
"26","京都府","26110","京都市山科区","261100141000","北花山大峰町","34.993545","135.794396","0","1"
"26","京都府","26110","京都市山科区","261100142000","北花山上稚児ケ池","34.995439","135.790102","0","1"
"26","京都府","26110","京都市山科区","261100143000","北花山河原町","34.988583","135.800881","0","1"
"26","京都府","26110","京都市山科区","261100144000","北花山下稚児ケ池","34.994028","135.790344","0","1"
"26","京都府","26110","京都市山科区","261100145000","北花山寺内町","34.988673","135.798915","0","1"
"26","京都府","26110","京都市山科区","261100146000","北花山中道町","34.986420","135.800640","0","1"
"26","京都府","26110","京都市山科区","261100147000","北花山西ノ野町","34.987071","135.796138","0","1"
"26","京都府","26110","京都市山科区","261100148000","北花山山田町","34.996154","135.797047","0","1"
"26","京都府","26110","京都市山科区","261100149000","北花山横田町","34.988544","135.802359","0","1"
"26","京都府","26110","京都市山科区","261100150000","北花山六反田町","34.989914","135.800981","0","1"
"26","京都府","26110","京都市山科区","261100151000","栗栖野打越町","34.972048","135.806856","0","1"
"26","京都府","26110","京都市山科区","261100152000","栗栖野狐塚","34.974214","135.805370","0","1"
"26","京都府","26110","京都市山科区","261100153000","栗栖野中臣町","34.973009","135.807468","0","1"
"26","京都府","26110","京都市山科区","261100154000","栗栖野華ノ木町","34.972303","135.804960","0","1"
"26","京都府","26110","京都市山科区","261100155000","小山一石畑","34.988384","135.836641","0","1"
"26","京都府","26110","京都市山科区","261100156000","小山大石山","34.985034","135.840361","0","1"
"26","京都府","26110","京都市山科区","261100157000","小山小川町","34.982788","135.837888","0","1"
"26","京都府","26110","京都市山科区","261100158000","小山神無森町","34.989381","135.834826","0","1"
"26","京都府","26110","京都市山科区","261100159000","小山北谷","34.982307","135.849883","0","1"
"26","京都府","26110","京都市山科区","261100160000","小山北林町","34.986567","135.832885","0","1"
"26","京都府","26110","京都市山科区","261100161000","小山北溝町","34.986190","135.829643","0","1"
"26","京都府","26110","京都市山科区","261100162000","小山御坊ノ内町","34.983086","135.838546","0","1"
"26","京都府","26110","京都市山科区","261100163000","小山下ノ池","34.988235","135.835243","0","1"
"26","京都府","26110","京都市山科区","261100164000","小山谷田町","34.985745","135.837124","0","1"
"26","京都府","26110","京都市山科区","261100165000","小山谷田山","34.987959","135.837790","0","1"
"26","京都府","26110","京都市山科区","261100166000","小山鎮守町","34.987614","135.833176","0","1"
"26","京都府","26110","京都市山科区","261100167000","小山長尾","34.977977","135.849652","0","1"
"26","京都府","26110","京都市山科区","261100168000","小山中島町","34.982943","135.836787","0","1"
"26","京都府","26110","京都市山科区","261100169000","小山中ノ川町","34.984697","135.829910","0","1"
"26","京都府","26110","京都市山科区","261100170000","小山西御所町","34.985266","135.834428","0","1"
"26","京都府","26110","京都市山科区","261100171000","小山姫子町","34.985125","135.833070","0","1"
"26","京都府","26110","京都市山科区","261100172000","小山松原畑町","34.984826","135.835667","0","1"
"26","京都府","26110","京都市山科区","261100173000","小山南溝町","34.983792","135.830246","0","1"
"26","京都府","26110","京都市山科区","261100174000","小山向山","34.981092","135.835858","0","1"
"26","京都府","26110","京都市山科区","261100175000","四ノ宮岩久保町","34.992142","135.826090","0","1"
"26","京都府","26110","京都市山科区","261100176000","四ノ宮垣ノ内町","34.990769","135.822625","0","1"
"26","京都府","26110","京都市山科区","261100177000","四ノ宮鎌手町","34.990329","135.828724","0","1"
"26","京都府","26110","京都市山科区","261100178000","四ノ宮川原町","34.993141","135.827108","0","1"
"26","京都府","26110","京都市山科区","261100179000","四ノ宮神田町","34.989770","135.822168","0","1"
"26","京都府","26110","京都市山科区","261100180000","四ノ宮行者谷","35.005942","135.830199","0","1"
"26","京都府","26110","京都市山科区","261100181000","四ノ宮熊ケ谷","34.999453","135.830572","0","1"
"26","京都府","26110","京都市山科区","261100182000","四ノ宮小金塚","35.002179","135.834351","0","1"
"26","京都府","26110","京都市山科区","261100183000","四ノ宮芝畑町","34.990340","135.833886","0","1"
"26","京都府","26110","京都市山科区","261100184000","四ノ宮新開畑","34.993733","135.821198","0","1"
"26","京都府","26110","京都市山科区","261100185000","四ノ宮泉水町","34.992151","135.822026","0","1"
"26","京都府","26110","京都市山科区","261100186000","四ノ宮大将軍町","34.990913","135.825062","0","1"
"26","京都府","26110","京都市山科区","261100187000","四ノ宮中在寺町","34.992394","135.820894","0","1"
"26","京都府","26110","京都市山科区","261100188000","四ノ宮堂ノ後町","34.992538","135.824268","0","1"
"26","京都府","26110","京都市山科区","261100189000","四ノ宮奈良野町","34.990373","135.831103","0","1"
"26","京都府","26110","京都市山科区","261100190000","四ノ宮泓","34.989915","135.826553","0","1"
"26","京都府","26110","京都市山科区","261100191000","四ノ宮南河原町","34.990621","135.820872","0","1"
"26","京都府","26110","京都市山科区","261100192000","四ノ宮柳山町","34.998070","135.825800","0","1"
"26","京都府","26110","京都市山科区","261100193000","四ノ宮山田町","34.994619","135.828554","0","1"
"26","京都府","26110","京都市山科区","261100194000","厨子奥尾上町","34.987745","135.807618","0","1"
"26","京都府","26110","京都市山科区","261100195000","厨子奥花鳥町","35.002411","135.789975","0","1"
"26","京都府","26110","京都市山科区","261100196000","厨子奥長通","34.990557","135.801040","0","1"
"26","京都府","26110","京都市山科区","261100197000","厨子奥苗代元町","34.988851","135.804577","0","1"
"26","京都府","26110","京都市山科区","261100198000","厨子奥矢倉町","34.988934","135.807856","0","1"
"26","京都府","26110","京都市山科区","261100199000","厨子奥若林町","34.987447","135.810172","0","1"
"26","京都府","26110","京都市山科区","261100200000","竹鼻扇町","34.988812","135.822462","0","1"
"26","京都府","26110","京都市山科区","261100201000","竹鼻木ノ本町","34.987853","135.821173","0","1"
"26","京都府","26110","京都市山科区","261100202000","竹鼻サイカシ町","34.985430","135.814954","0","1"
"26","京都府","26110","京都市山科区","261100203000","竹鼻地蔵寺南町","34.986932","135.814585","0","1"
"26","京都府","26110","京都市山科区","261100204000","竹鼻四丁野町","34.987036","135.816176","0","1"
"26","京都府","26110","京都市山科区","261100205000","竹鼻外田町","34.990557","135.820041","0","1"
"26","京都府","26110","京都市山科区","261100206000","竹鼻竹ノ街道町","34.990047","135.815957","0","1"
"26","京都府","26110","京都市山科区","261100207000","竹鼻立原町","34.988222","135.819666","0","1"
"26","京都府","26110","京都市山科区","261100208000","竹鼻忠兵衛谷","34.989107","135.848050","0","1"
"26","京都府","26110","京都市山科区","261100209000","竹鼻堂ノ前町","34.987072","135.817735","0","1"
"26","京都府","26110","京都市山科区","261100210000","竹鼻西ノ口町","34.988652","135.815872","0","1"
"26","京都府","26110","京都市山科区","261100211000","竹鼻走リ谷","34.990127","135.849421","0","1"
"26","京都府","26110","京都市山科区","261100212000","竹鼻火打谷","34.987086","135.844864","0","1"
"26","京都府","26110","京都市山科区","261100213000","椥辻池尻町","34.972923","135.813126","0","1"
"26","京都府","26110","京都市山科区","261100214000","椥辻草海道町","34.972122","135.816468","0","1"
"26","京都府","26110","京都市山科区","261100215000","椥辻中在家町","34.974357","135.818088","0","1"
"26","京都府","26110","京都市山科区","261100216000","椥辻西浦町","34.975378","135.813441","0","1"
"26","京都府","26110","京都市山科区","261100217000","椥辻西潰","34.971465","135.811965","0","1"
"26","京都府","26110","京都市山科区","261100218000","椥辻番所ケ口町","34.969704","135.810389","0","1"
"26","京都府","26110","京都市山科区","261100219000","椥辻東浦町","34.976051","135.815965","0","1"
"26","京都府","26110","京都市山科区","261100220000","椥辻東潰","34.971197","135.813837","0","1"
"26","京都府","26110","京都市山科区","261100221000","椥辻平田町","34.969512","135.812258","0","1"
"26","京都府","26110","京都市山科区","261100222000","椥辻封シ川町","34.973718","135.810653","0","1"
"26","京都府","26110","京都市山科区","261100223000","西野阿芸沢町","34.984066","135.811149","0","1"
"26","京都府","26110","京都市山科区","261100224000","西野今屋敷町","34.986025","135.810596","0","1"
"26","京都府","26110","京都市山科区","261100225000","西野大手先町","34.983611","135.813695","0","1"
"26","京都府","26110","京都市山科区","261100226000","西野大鳥井町","34.979366","135.805325","0","1"
"26","京都府","26110","京都市山科区","261100227000","西野岸ノ下町","34.985099","135.806694","0","1"
"26","京都府","26110","京都市山科区","261100228000","西野後藤","34.976920","135.803538","0","1"
"26","京都府","26110","京都市山科区","261100229000","西野小柳町","34.981633","135.805536","0","1"
"26","京都府","26110","京都市山科区","261100230000","西野左義長町","34.979856","135.808734","0","1"
"26","京都府","26110","京都市山科区","261100231000","西野山階町","34.981680","135.810121","0","1"
"26","京都府","26110","京都市山科区","261100232000","西野野色町","34.984977","135.804908","0","1"
"26","京都府","26110","京都市山科区","261100233000","西野八幡田町","34.987771","135.804619","0","1"
"26","京都府","26110","京都市山科区","261100234000","西野東山","34.970922","135.848124","0","1"
"26","京都府","26110","京都市山科区","261100235000","西野櫃川町","34.982426","135.803191","0","1"
"26","京都府","26110","京都市山科区","261100236000","西野広見町","34.982268","135.807945","0","1"
"26","京都府","26110","京都市山科区","261100237000","西野楳本町","34.983366","135.801560","0","1"
"26","京都府","26110","京都市山科区","261100238000","西野山射庭ノ上町","34.972988","135.797512","0","1"
"26","京都府","26110","京都市山科区","261100239000","西野山岩ケ谷町","34.972720","135.789998","0","1"
"26","京都府","26110","京都市山科区","261100240000","西野山欠ノ上町","34.974622","135.800820","0","1"
"26","京都府","26110","京都市山科区","261100241000","西野山桜ノ馬場町","34.971076","135.795527","0","1"
"26","京都府","26110","京都市山科区","261100242000","西野山百々町","34.976320","135.795759","0","1"
"26","京都府","26110","京都市山科区","261100243000","西野山中臣町","34.971779","135.802909","0","1"
"26","京都府","26110","京都市山科区","261100244000","西野山中鳥井町","34.969281","135.800090","0","1"
"26","京都府","26110","京都市山科区","261100245000","西野山中畑町","34.977339","135.800977","0","1"
"26","京都府","26110","京都市山科区","261100246000","西野山南畑町","34.977024","135.802184","0","1"
"26","京都府","26110","京都市山科区","261100247000","西野山山田","34.977658","135.791446","0","1"
"26","京都府","26110","京都市山科区","261100248000","西野様子見町","34.985206","135.810302","0","1"
"26","京都府","26110","京都市山科区","261100249000","西野離宮町","34.981143","135.812517","0","1"
"26","京都府","26110","京都市山科区","261100250000","八軒屋敷町","34.990209","135.838270","0","1"
"26","京都府","26110","京都市山科区","261100251000","東野井ノ上町","34.976594","135.818012","0","1"
"26","京都府","26110","京都市山科区","261100252000","東野片下リ町","34.981377","135.815633","0","1"
"26","京都府","26110","京都市山科区","261100253000","東野北井ノ上町","34.981806","135.820496","0","1"
"26","京都府","26110","京都市山科区","261100254000","東野狐薮町","34.980687","135.813513","0","1"
"26","京都府","26110","京都市山科区","261100255000","東野竹田","34.975616","135.803619","0","1"
"26","京都府","26110","京都市山科区","261100256000","東野中井ノ上町","34.979659","135.820306","0","1"
"26","京都府","26110","京都市山科区","261100257000","東野八反畑町","34.976780","135.811248","0","1"
"26","京都府","26110","京都市山科区","261100258000","東野東山","34.965016","135.853379","0","1"
"26","京都府","26110","京都市山科区","261100259000","東野百拍子町","34.978348","135.815548","0","1"
"26","京都府","26110","京都市山科区","261100260000","東野舞台町","34.975179","135.808804","0","1"
"26","京都府","26110","京都市山科区","261100261000","東野南井ノ上町","34.976657","135.820922","0","1"
"26","京都府","26110","京都市山科区","261100262000","東野森野町","34.975159","135.806747","0","1"
"26","京都府","26110","京都市山科区","261100263000","東野門口町","34.979506","135.815727","0","1"
"26","京都府","26110","京都市山科区","261100264000","東野八代","34.977084","135.806594","0","1"
"26","京都府","26110","京都市山科区","261100265000","髭茶屋桃燈町","34.989660","135.836584","0","1"
"26","京都府","26110","京都市山科区","261100266000","髭茶屋屋敷町","34.990317","135.836619","0","1"
"26","京都府","26110","京都市山科区","261100267000","日ノ岡朝田町","34.997503","135.797534","0","1"
"26","京都府","26110","京都市山科区","261100268000","日ノ岡石塚町","34.992035","135.799899","0","1"
"26","京都府","26110","京都市山科区","261100269000","日ノ岡一切経谷町","35.003848","135.792542","0","1"
"26","京都府","26110","京都市山科区","261100270000","日ノ岡夷谷町","35.002931","135.794104","0","1"
"26","京都府","26110","京都市山科区","261100271000","日ノ岡鴨土町","34.995853","135.800559","0","1"
"26","京都府","26110","京都市山科区","261100272000","日ノ岡坂脇町","34.995387","135.798989","0","1"
"26","京都府","26110","京都市山科区","261100273000","日ノ岡堤谷町","34.999519","135.798817","0","1"
"26","京都府","26110","京都市山科区","261100274000","日ノ岡ホッパラ町","34.993938","135.800275","0","1"
"26","京都府","26110","京都市山科区","261100275000","御陵荒巻町","34.990702","135.803683","0","1"
"26","京都府","26110","京都市山科区","261100276000","御陵安祥寺町","34.997060","135.814252","0","1"
"26","京都府","26110","京都市山科区","261100277000","御陵池堤町","34.997183","135.800887","0","1"
"26","京都府","26110","京都市山科区","261100278000","御陵牛尾町","34.996443","135.808098","0","1"
"26","京都府","26110","京都市山科区","261100279000","御陵大岩","35.001160","135.806075","0","1"
"26","京都府","26110","京都市山科区","261100280000","御陵大谷町","34.997466","135.810717","0","1"
"26","京都府","26110","京都市山科区","261100281000","御陵大津畑町","34.990072","135.813205","0","1"
"26","京都府","26110","京都市山科区","261100282000","御陵岡町","34.992801","135.802530","0","1"
"26","京都府","26110","京都市山科区","261100283000","御陵岡ノ西町","34.991750","135.801182","0","1"
"26","京都府","26110","京都市山科区","261100284000","御陵上御廟野町","34.996239","135.805771","0","1"
"26","京都府","26110","京都市山科区","261100285000","御陵鴨戸町","34.995116","135.801980","0","1"
"26","京都府","26110","京都市山科区","261100286000","御陵久保町","34.992716","135.804942","0","1"
"26","京都府","26110","京都市山科区","261100287000","御陵黒岩","35.001831","135.801933","0","1"
"26","京都府","26110","京都市山科区","261100288000","御陵沢ノ川町","35.003865","135.814181","0","1"
"26","京都府","26110","京都市山科区","261100289000","御陵三蔵町","34.988570","135.810847","0","1"
"26","京都府","26110","京都市山科区","261100290000","御陵四丁野町","34.988000","135.812601","0","1"
"26","京都府","26110","京都市山科区","261100291000","御陵下御廟野町","34.994369","135.804232","0","1"
"26","京都府","26110","京都市山科区","261100292000","御陵進藤町","34.991641","135.807934","0","1"
"26","京都府","26110","京都市山科区","261100293000","御陵田山町","34.994438","135.814804","0","1"
"26","京都府","26110","京都市山科区","261100294000","御陵檀ノ後","34.998138","135.804723","0","1"
"26","京都府","26110","京都市山科区","261100295000","御陵血洗町","34.990542","135.806104","0","1"
"26","京都府","26110","京都市山科区","261100296000","御陵天徳町","34.991928","135.810985","0","1"
"26","京都府","26110","京都市山科区","261100297000","御陵鳥ノ向町","34.991487","135.814729","0","1"
"26","京都府","26110","京都市山科区","261100298000","御陵中内町","34.990261","135.810066","0","1"
"26","京都府","26110","京都市山科区","261100299000","御陵中筋町","34.990332","135.807999","0","1"
"26","京都府","26110","京都市山科区","261100300000","御陵原西町","34.996373","135.803176","0","1"
"26","京都府","26110","京都市山科区","261100301000","御陵平林町","34.995162","135.816189","0","1"
"26","京都府","26110","京都市山科区","261100302000","御陵封ジ山町","35.001272","135.797215","0","1"
"26","京都府","26110","京都市山科区","261100303000","御陵別所町","34.993486","135.807833","0","1"
"26","京都府","26110","京都市山科区","261100304000","御陵山ノ谷","34.999010","135.803190","0","1"
