"PrefCode","PrefName","MuniCode","MuniName","DistCode","DistName","lat","lon","SrcCode","CatCode"
"26","京都府","26211","京田辺市","262110001000","飯岡大森","34.813539","135.795949","0","1"
"26","京都府","26211","京田辺市","262110002000","飯岡北原","34.807253","135.794633","0","1"
"26","京都府","26211","京田辺市","262110003000","飯岡久保田","34.801996","135.797306","0","1"
"26","京都府","26211","京田辺市","262110004000","飯岡香森","34.810264","135.793836","0","1"
"26","京都府","26211","京田辺市","262110005000","飯岡高野","34.809923","135.796316","0","1"
"26","京都府","26211","京田辺市","262110006000","飯岡小山","34.804095","135.799481","0","1"
"26","京都府","26211","京田辺市","262110007000","飯岡権田","34.805599","135.788782","0","1"
"26","京都府","26211","京田辺市","262110008000","飯岡桜田","34.803283","135.79107","0","1"
"26","京都府","26211","京田辺市","262110009000","飯岡城","34.807693","135.799802","0","1"
"26","京都府","26211","京田辺市","262110010000","飯岡大将軍","34.810606","135.799455","0","1"
"26","京都府","26211","京田辺市","262110011000","飯岡外島","34.814778","135.79748","0","1"
"26","京都府","26211","京田辺市","262110012000","飯岡中峯","34.805633","135.793974","0","1"
"26","京都府","26211","京田辺市","262110013000","飯岡奈良田","34.810071","135.795125","0","1"
"26","京都府","26211","京田辺市","262110014000","飯岡西原","34.806261","135.792134","0","1"
"26","京都府","26211","京田辺市","262110015000","飯岡花咲","34.803281","135.789271","0","1"
"26","京都府","26211","京田辺市","262110016000","飯岡東原","34.806048","135.796695","0","1"
"26","京都府","26211","京田辺市","262110017000","飯岡南原","34.804051","135.794839","0","1"
"26","京都府","26211","京田辺市","262110018000","打田池田","34.76173","135.751206","0","1"
"26","京都府","26211","京田辺市","262110019000","打田池ノ谷","34.75639","135.735804","0","1"
"26","京都府","26211","京田辺市","262110020000","打田大谷越","34.762937","135.749955","0","1"
"26","京都府","26211","京田辺市","262110021000","打田奥中山","34.7701","135.743333","0","1"
"26","京都府","26211","京田辺市","262110022000","打田上煤谷","34.760334","135.747895","0","1"
"26","京都府","26211","京田辺市","262110023000","打田上西浦","34.7584","135.735356","0","1"
"26","京都府","26211","京田辺市","262110024000","打田上羽川","34.764408","135.746522","0","1"
"26","京都府","26211","京田辺市","262110025000","打田北谷","34.762608","135.737728","0","1"
"26","京都府","26211","京田辺市","262110026000","打田仕切ケ谷","34.758192","135.744197","0","1"
"26","京都府","26211","京田辺市","262110027000","打田地蔵山","34.761401","135.741933","0","1"
"26","京都府","26211","京田辺市","262110028000","打田下煤谷","34.763659","135.754218","0","1"
"26","京都府","26211","京田辺市","262110029000","打田下羽川","34.769271","135.750565","0","1"
"26","京都府","26211","京田辺市","262110030000","打田煤谷口","34.758785","135.748843","0","1"
"26","京都府","26211","京田辺市","262110031000","打田煤谷山口","34.765254","135.758748","0","1"
"26","京都府","26211","京田辺市","262110032000","打田滝替","34.761377","135.744582","0","1"
"26","京都府","26211","京田辺市","262110033000","打田田尻","34.766369","135.753514","0","1"
"26","京都府","26211","京田辺市","262110034000","打田友谷","34.77175","135.747414","0","1"
"26","京都府","26211","京田辺市","262110035000","打田中煤谷","34.764425","135.752896","0","1"
"26","京都府","26211","京田辺市","262110036000","打田中羽川","34.766342","135.749035","0","1"
"26","京都府","26211","京田辺市","262110037000","打田中山口","34.767096","135.745097","0","1"
"26","京都府","26211","京田辺市","262110038000","打田西浦","34.759291","135.738547","0","1"
"26","京都府","26211","京田辺市","262110039000","打田西羽川","34.769018","135.747111","0","1"
"26","京都府","26211","京田辺市","262110040000","打田入道ケ谷","34.760826","135.735233","0","1"
"26","京都府","26211","京田辺市","262110041000","打田埜田野","34.763216","135.741275","0","1"
"26","京都府","26211","京田辺市","262110042000","打田羽川口","34.764686","135.743919","0","1"
"26","京都府","26211","京田辺市","262110043000","打田萩原","34.767313","135.741278","0","1"
"26","京都府","26211","京田辺市","262110044000","打田峰山","34.758344","135.742026","0","1"
"26","京都府","26211","京田辺市","262110045000","打田宮下","34.758599","135.73925","0","1"
"26","京都府","26211","京田辺市","262110046000","打田宮東","34.757887","135.740133","0","1"
"26","京都府","26211","京田辺市","262110047000","打田宮前","34.754547","135.73925","0","1"
"26","京都府","26211","京田辺市","262110048000","打田宮本","34.754072","135.737234","0","1"
"26","京都府","26211","京田辺市","262110049000","大住荒堀","34.83795","135.756577","0","1"
"26","京都府","26211","京田辺市","262110050000","大住池島","34.846291","135.749107","0","1"
"26","京都府","26211","京田辺市","262110051000","大住池ノ谷","34.831996","135.746514","0","1"
"26","京都府","26211","京田辺市","262110052000","大住池ノ端","34.841146","135.751474","0","1"
"26","京都府","26211","京田辺市","262110053000","大住池平","34.837494","135.74124","0","1"
"26","京都府","26211","京田辺市","262110054000","大住稲生山","34.834235","135.74","0","1"
"26","京都府","26211","京田辺市","262110055000","大住乾角","34.84674","135.740164","0","1"
"26","京都府","26211","京田辺市","262110056000","大住魚田","34.8476","135.740619","0","1"
"26","京都府","26211","京田辺市","262110057000","大住内山","34.834495","135.743287","0","1"
"26","京都府","26211","京田辺市","262110058000","大住宇手尾","34.832176","135.755013","0","1"
"26","京都府","26211","京田辺市","262110059000","大住大荒内","34.833251","135.759351","0","1"
"26","京都府","26211","京田辺市","262110060000","大住大欠","34.827489","135.747357","0","1"
"26","京都府","26211","京田辺市","262110061000","大住大坪","34.8312","135.757507","0","1"
"26","京都府","26211","京田辺市","262110062000","大住大畑","34.833508","135.757023","0","1"
"26","京都府","26211","京田辺市","262110063000","大住大峯","34.848947","135.743205","0","1"
"26","京都府","26211","京田辺市","262110064000","大住岡村","34.835914","135.7504","0","1"
"26","京都府","26211","京田辺市","262110065000","大住押木ケ平","34.835533","135.737728","0","1"
"26","京都府","26211","京田辺市","262110066000","大住女谷","34.82608","135.738627","0","1"
"26","京都府","26211","京田辺市","262110067001","大住ケ丘一丁目","34.831527","135.744513","0","3"
"26","京都府","26211","京田辺市","262110067002","大住ケ丘二丁目","34.830951","135.739254","0","3"
"26","京都府","26211","京田辺市","262110067003","大住ケ丘三丁目","34.830489","135.74167","0","3"
"26","京都府","26211","京田辺市","262110067004","大住ケ丘四丁目","34.828416","135.742913","0","3"
"26","京都府","26211","京田辺市","262110067005","大住ケ丘五丁目","34.827294","135.740237","0","3"
"26","京都府","26211","京田辺市","262110068000","大住片岸","34.836398","135.752893","0","1"
"26","京都府","26211","京田辺市","262110069000","大住門田","34.845398","135.746779","0","1"
"26","京都府","26211","京田辺市","262110070000","大住上西野","34.835729","135.73605","0","1"
"26","京都府","26211","京田辺市","262110071000","大住神ノ木","34.841802","135.746226","0","1"
"26","京都府","26211","京田辺市","262110072000","大住川端","34.834461","135.7609","0","1"
"26","京都府","26211","京田辺市","262110073000","大住木下シ","34.834537","135.741164","0","1"
"26","京都府","26211","京田辺市","262110074000","大住北角","34.838477","135.750626","0","1"
"26","京都府","26211","京田辺市","262110075000","大住久保田","34.835595","135.753425","0","1"
"26","京都府","26211","京田辺市","262110076000","大住古田","34.838228","135.752156","0","1"
"26","京都府","26211","京田辺市","262110077000","大住虚空蔵谷","34.825825","135.734341","0","1"
"26","京都府","26211","京田辺市","262110078000","大住小林","34.829133","135.751473","0","1"
"26","京都府","26211","京田辺市","262110079000","大住小松原","34.844788","135.739605","0","1"
"26","京都府","26211","京田辺市","262110080000","大住坂口","34.836394","135.74667","0","1"
"26","京都府","26211","京田辺市","262110081000","大住三野","34.834615","135.75481","0","1"
"26","京都府","26211","京田辺市","262110082000","大住三本木","34.838993","135.755813","0","1"
"26","京都府","26211","京田辺市","262110083000","大住地内山","34.833803","135.74755","0","1"
"26","京都府","26211","京田辺市","262110084000","大住志保","34.836177","135.756843","0","1"
"26","京都府","26211","京田辺市","262110085000","大住下西野","34.84132","135.738973","0","1"
"26","京都府","26211","京田辺市","262110086000","大住城ノ谷","34.834065","135.74501","0","1"
"26","京都府","26211","京田辺市","262110087000","大住杉谷","34.837097","135.743733","0","1"
"26","京都府","26211","京田辺市","262110088000","大住杉ノ森","34.847892","135.746039","0","1"
"26","京都府","26211","京田辺市","262110089000","大住関屋","34.830095","135.754455","0","1"
"26","京都府","26211","京田辺市","262110090000","大住千日","34.842358","135.739898","0","1"
"26","京都府","26211","京田辺市","262110091000","大住大嘗料","34.842998","135.744038","0","1"
"26","京都府","26211","京田辺市","262110092000","大住高島","34.842909","135.755321","0","1"
"26","京都府","26211","京田辺市","262110093000","大住館","34.838565","135.749176","0","1"
"26","京都府","26211","京田辺市","262110094000","大住立原","34.841366","135.754193","0","1"
"26","京都府","26211","京田辺市","262110095000","大住辻ノ垣内","34.843356","135.747133","0","1"
"26","京都府","26211","京田辺市","262110096000","大住峠谷","34.828529","135.745207","0","1"
"26","京都府","26211","京田辺市","262110097000","大住堂附","34.843277","135.739753","0","1"
"26","京都府","26211","京田辺市","262110098000","大住塔ノ脇","34.833054","135.749557","0","1"
"26","京都府","26211","京田辺市","262110099000","大住時子林","34.832424","135.753514","0","1"
"26","京都府","26211","京田辺市","262110100000","大住土山","34.845294","135.744178","0","1"
"26","京都府","26211","京田辺市","262110101000","大住中島","34.839244","135.753353","0","1"
"26","京都府","26211","京田辺市","262110102000","大住長田","34.834808","135.756637","0","1"
"26","京都府","26211","京田辺市","262110103000","大住中西野","34.83877","135.740069","0","1"
"26","京都府","26211","京田辺市","262110104000","大住西角","34.838862","135.744033","0","1"
"26","京都府","26211","京田辺市","262110105000","大住西北向","34.848483","135.745073","0","1"
"26","京都府","26211","京田辺市","262110106000","大住西野","34.839236","135.738009","0","1"
"26","京都府","26211","京田辺市","262110107000","大住西ノ垣内","34.84474","135.741938","0","1"
"26","京都府","26211","京田辺市","262110108000","大住西村","34.842337","135.741977","0","1"
"26","京都府","26211","京田辺市","262110109000","大住野上","34.832438","135.75153","0","1"
"26","京都府","26211","京田辺市","262110110000","大住長谷折","34.832195","135.756297","0","1"
"26","京都府","26211","京田辺市","262110111000","大住八王寺","34.837937","135.746802","0","1"
"26","京都府","26211","京田辺市","262110112000","大住八河原","34.840206","135.741749","0","1"
"26","京都府","26211","京田辺市","262110113000","大住八小路","34.840858","135.743777","0","1"
"26","京都府","26211","京田辺市","262110114000","大住八町","34.849215","135.741124","0","1"
"26","京都府","26211","京田辺市","262110115000","大住浜","34.844431","135.750929","0","1"
"26","京都府","26211","京田辺市","262110116000","大住東北向","34.849314","135.746059","0","1"
"26","京都府","26211","京田辺市","262110117000","大住東村","34.840049","135.745926","0","1"
"26","京都府","26211","京田辺市","262110118000","大住姫ノ垣内","34.837217","135.748327","0","1"
"26","京都府","26211","京田辺市","262110119000","大住平谷","34.827631","135.7501","0","1"
"26","京都府","26211","京田辺市","262110120000","大住藤ノ木","34.841268","135.748311","0","1"
"26","京都府","26211","京田辺市","262110121000","大住細畑","34.846145","135.742962","0","1"
"26","京都府","26211","京田辺市","262110122000","大住丸山","34.83054","135.749256","0","1"
"26","京都府","26211","京田辺市","262110123000","大住溝尻","34.836353","135.759062","0","1"
"26","京都府","26211","京田辺市","262110124000","大住三ツ跨","34.834518","135.752958","0","1"
"26","京都府","26211","京田辺市","262110125000","大住竜王谷","34.822262","135.736157","0","1"
"26","京都府","26211","京田辺市","262110126001","花住坂一丁目","34.83021","135.736938","0","3"
"26","京都府","26211","京田辺市","262110126002","花住坂二丁目","34.831407","135.73406","0","3"
"26","京都府","26211","京田辺市","262110126003","花住坂三丁目","34.833072","135.737584","0","3"
"26","京都府","26211","京田辺市","262110127000","河原一ノ坪","34.816633","135.775781","0","1"
"26","京都府","26211","京田辺市","262110128000","河原受田","34.818617","135.773238","0","1"
"26","京都府","26211","京田辺市","262110129000","河原神谷","34.821827","135.777432","0","1"
"26","京都府","26211","京田辺市","262110130000","河原北口","34.821749","135.775606","0","1"
"26","京都府","26211","京田辺市","262110131000","河原里ノ内","34.818669","135.775142","0","1"
"26","京都府","26211","京田辺市","262110132000","河原食田","34.821715","135.773147","0","1"
"26","京都府","26211","京田辺市","262110133000","河原外島","34.828901","135.778463","0","1"
"26","京都府","26211","京田辺市","262110134000","河原西久保田","34.826153","135.775446","0","1"
"26","京都府","26211","京田辺市","262110135000","河原野色","34.817721","135.777519","0","1"
"26","京都府","26211","京田辺市","262110136000","河原東久保田","34.826362","135.776678","0","1"
"26","京都府","26211","京田辺市","262110137000","河原平田","34.824152","135.774333","0","1"
"26","京都府","26211","京田辺市","262110138000","河原御影","34.821646","135.774362","0","1"
"26","京都府","26211","京田辺市","262110139000","河原室垣外","34.826731","135.777665","0","1"
"26","京都府","26211","京田辺市","262110140001","甘南備台一丁目","34.802807","135.748387","0","3"
"26","京都府","26211","京田辺市","262110140002","甘南備台二丁目","34.80635","135.748555","0","3"
"26","京都府","26211","京田辺市","262110140003","甘南備台三丁目","34.809817","135.750534","0","3"
"26","京都府","26211","京田辺市","262110141000","草内上リ立","34.815863","135.783019","0","1"
"26","京都府","26211","京田辺市","262110142000","草内当ノ木","34.817032","135.791446","0","1"
"26","京都府","26211","京田辺市","262110143000","草内穴口","34.814414","135.78422","0","1"
"26","京都府","26211","京田辺市","262110144000","草内一ノ坪","34.819406","135.784776","0","1"
"26","京都府","26211","京田辺市","262110145000","草内一町田","34.808067","135.784352","0","1"
"26","京都府","26211","京田辺市","262110146000","草内犬伏","34.814934","135.786648","0","1"
"26","京都府","26211","京田辺市","262110147000","草内馬田","34.810961","135.792142","0","1"
"26","京都府","26211","京田辺市","262110148000","草内馬橋","34.818133","135.786697","0","1"
"26","京都府","26211","京田辺市","262110149000","草内大東","34.819386","135.78921","0","1"
"26","京都府","26211","京田辺市","262110150000","草内岡田","34.80719","135.786272","0","1"
"26","京都府","26211","京田辺市","262110151000","草内大切","34.814063","135.779801","0","1"
"26","京都府","26211","京田辺市","262110152000","草内河田","34.812627","135.791529","0","1"
"26","京都府","26211","京田辺市","262110153000","草内操毛","34.817449","135.784825","0","1"
"26","京都府","26211","京田辺市","262110154000","草内五反田","34.814336","135.781606","0","1"
"26","京都府","26211","京田辺市","262110155000","草内五ノ坪","34.808767","135.783097","0","1"
"26","京都府","26211","京田辺市","262110156000","草内沢","34.811989","135.789339","0","1"
"26","京都府","26211","京田辺市","262110157000","草内新池","34.808319","135.788087","0","1"
"26","京都府","26211","京田辺市","262110158000","草内筋替道","34.814934","135.787802","0","1"
"26","京都府","26211","京田辺市","262110159000","草内禅定寺","34.819803","135.787149","0","1"
"26","京都府","26211","京田辺市","262110160000","草内塚本","34.808845","135.786135","0","1"
"26","京都府","26211","京田辺市","262110161000","草内寺田","34.816416","135.787206","0","1"
"26","京都府","26211","京田辺市","262110162000","草内塔ノ上","34.813558","135.789905","0","1"
"26","京都府","26211","京田辺市","262110163000","草内外島","34.819796","135.791039","0","1"
"26","京都府","26211","京田辺市","262110164000","草内中垣内","34.814441","135.785428","0","1"
"26","京都府","26211","京田辺市","262110165000","草内西垣内","34.812676","135.783028","0","1"
"26","京都府","26211","京田辺市","262110166000","草内能戸","34.815122","135.791985","0","1"
"26","京都府","26211","京田辺市","262110167000","草内橋折","34.816988","135.789581","0","1"
"26","京都府","26211","京田辺市","262110168000","草内薑","34.809579","135.790596","0","1"
"26","京都府","26211","京田辺市","262110169000","草内八田","34.811559","135.780117","0","1"
"26","京都府","26211","京田辺市","262110170000","草内鐘鉦割","34.822193","135.786916","0","1"
"26","京都府","26211","京田辺市","262110171000","草内東垣内","34.813502","135.786896","0","1"
"26","京都府","26211","京田辺市","262110172000","草内東台","34.815102","135.789616","0","1"
"26","京都府","26211","京田辺市","262110173000","草内坊田","34.813099","135.792691","0","1"
"26","京都府","26211","京田辺市","262110174000","草内法福寺","34.811623","135.781868","0","1"
"26","京都府","26211","京田辺市","262110175000","草内美泥","34.818221","135.787844","0","1"
"26","京都府","26211","京田辺市","262110176000","草内南垣内","34.811378","135.784845","0","1"
"26","京都府","26211","京田辺市","262110177000","草内宮ケ森","34.814998","135.793876","0","1"
"26","京都府","26211","京田辺市","262110178000","草内宮ノ後","34.811394","135.786927","0","1"
"26","京都府","26211","京田辺市","262110179000","草内柳田","34.812909","135.793859","0","1"
"26","京都府","26211","京田辺市","262110180000","草内山科","34.809583","135.780605","0","1"
"26","京都府","26211","京田辺市","262110181000","草内山ノ下","34.808016","135.790424","0","1"
"26","京都府","26211","京田辺市","262110182000","草内行合田","34.810514","135.789383","0","1"
"26","京都府","26211","京田辺市","262110183000","興戸池田","34.815289","135.7745","0","1"
"26","京都府","26211","京田辺市","262110184000","興戸石峠","34.803842","135.759201","0","1"
"26","京都府","26211","京田辺市","262110185000","興戸犬伏","34.813335","135.772148","0","1"
"26","京都府","26211","京田辺市","262110186000","興戸大谷","34.806351","135.759442","0","1"
"26","京都府","26211","京田辺市","262110187000","興戸御垣内","34.80883","135.77008","0","1"
"26","京都府","26211","京田辺市","262110188000","興戸金林","34.806346","135.781192","0","1"
"26","京都府","26211","京田辺市","262110189000","興戸川原谷","34.803641","135.765193","0","1"
"26","京都府","26211","京田辺市","262110190000","興戸北落延","34.808354","135.780481","0","1"
"26","京都府","26211","京田辺市","262110191000","興戸北鉾立","34.813525","135.770142","0","1"
"26","京都府","26211","京田辺市","262110192000","興戸久保","34.806442","135.778297","0","1"
"26","京都府","26211","京田辺市","262110193000","興戸郡塚","34.808503","135.772149","0","1"
"26","京都府","26211","京田辺市","262110194000","興戸小モ詰","34.811637","135.771913","0","1"
"26","京都府","26211","京田辺市","262110195000","興戸地蔵谷","34.804809","135.769658","0","1"
"26","京都府","26211","京田辺市","262110196000","興戸下ノ川原","34.809322","135.77753","0","1"
"26","京都府","26211","京田辺市","262110197000","興戸十曽","34.81434","135.777574","0","1"
"26","京都府","26211","京田辺市","262110198000","興戸中地","34.813829","135.77578","0","1"
"26","京都府","26211","京田辺市","262110199000","興戸塚ノ本","34.810501","135.774552","0","1"
"26","京都府","26211","京田辺市","262110200000","興戸花ノ元","34.812014","135.777666","0","1"
"26","京都府","26211","京田辺市","262110201000","興戸東垣内","34.808717","135.774032","0","1"
"26","京都府","26211","京田辺市","262110202000","興戸町田","34.810281","135.775811","0","1"
"26","京都府","26211","京田辺市","262110203000","興戸南落延","34.807341","135.781057","0","1"
"26","京都府","26211","京田辺市","262110204000","興戸南鉾立","34.805451","135.774086","0","1"
"26","京都府","26211","京田辺市","262110205000","興戸宮ケ辻","34.813469","135.774686","0","1"
"26","京都府","26211","京田辺市","262110206000","興戸宮ノ前","34.808394","135.766787","0","1"
"26","京都府","26211","京田辺市","262110207000","興戸八木屋","34.813369","135.773556","0","1"
"26","京都府","26211","京田辺市","262110208000","興戸山添","34.811255","135.769929","0","1"
"26","京都府","26211","京田辺市","262110209000","興戸和井田","34.807302","135.777954","0","1"
"26","京都府","26211","京田辺市","262110210000","興戸若宮","34.810644","135.772865","0","1"
"26","京都府","26211","京田辺市","262110211000","高船池ノ谷","34.771063","135.7324","0","1"
"26","京都府","26211","京田辺市","262110212000","高船市ノ木","34.763433","135.733948","0","1"
"26","京都府","26211","京田辺市","262110213000","高船里","34.769002","135.732064","0","1"
"26","京都府","26211","京田辺市","262110214000","高船谷川","34.770491","135.735931","0","1"
"26","京都府","26211","京田辺市","262110215000","高船野田農","34.765712","135.740081","0","1"
"26","京都府","26211","京田辺市","262110216000","高船前田","34.766305","135.733763","0","1"
"26","京都府","26211","京田辺市","262110217000","高船南谷","34.766232","135.731478","0","1"
"26","京都府","26211","京田辺市","262110218000","高船向居","34.764991","135.737018","0","1"
"26","京都府","26211","京田辺市","262110219000","薪赤池","34.830236","135.762355","0","1"
"26","京都府","26211","京田辺市","262110220000","薪赤坂","34.818139","135.749422","0","1"
"26","京都府","26211","京田辺市","262110221000","薪薊","34.826814","135.761016","0","1"
"26","京都府","26211","京田辺市","262110222000","薪石ノ前","34.822041","135.759339","0","1"
"26","京都府","26211","京田辺市","262110223000","薪井手","34.822592","135.754753","0","1"
"26","京都府","26211","京田辺市","262110224000","薪大欠","34.819059","135.752749","0","1"
"26","京都府","26211","京田辺市","262110225000","薪狼谷","34.824774","135.750597","0","1"
"26","京都府","26211","京田辺市","262110226000","薪大崩","34.81646","135.751523","0","1"
"26","京都府","26211","京田辺市","262110227000","薪大塚","34.827832","135.760641","0","1"
"26","京都府","26211","京田辺市","262110228000","薪小欠","34.817543","135.75769","0","1"
"26","京都府","26211","京田辺市","262110229000","薪斧窪","34.81373","135.749745","0","1"
"26","京都府","26211","京田辺市","262110230000","薪貝元","34.82573","135.761428","0","1"
"26","京都府","26211","京田辺市","262110231000","薪加賀ノ辻","34.824779","135.761838","0","1"
"26","京都府","26211","京田辺市","262110232000","薪甘南備山","34.809355","135.745382","0","1"
"26","京都府","26211","京田辺市","262110233000","薪岸ノ下","34.824527","135.763016","0","1"
"26","京都府","26211","京田辺市","262110234000","薪北町田","34.82875","135.759219","0","1"
"26","京都府","26211","京田辺市","262110235000","薪狐谷","34.816231","135.747229","0","1"
"26","京都府","26211","京田辺市","262110236000","薪桑ノ木","34.829939","135.759447","0","1"
"26","京都府","26211","京田辺市","262110237000","薪小山","34.826039","135.753876","0","1"
"26","京都府","26211","京田辺市","262110238000","薪里ノ内","34.821268","135.756773","0","1"
"26","京都府","26211","京田辺市","262110239000","薪四反田","34.825982","135.756394","0","1"
"26","京都府","26211","京田辺市","262110240000","薪城ケ前","34.815632","135.749009","0","1"
"26","京都府","26211","京田辺市","262110241000","薪城ノ内","34.828761","135.754709","0","1"
"26","京都府","26211","京田辺市","262110242000","薪狭道","34.825313","135.755532","0","1"
"26","京都府","26211","京田辺市","262110243000","薪大仏谷","34.812454","135.754162","0","1"
"26","京都府","26211","京田辺市","262110244000","薪高木","34.824167","135.75724","0","1"
"26","京都府","26211","京田辺市","262110245000","薪巽","34.823158","135.759216","0","1"
"26","京都府","26211","京田辺市","262110246000","薪溜池","34.819736","135.748878","0","1"
"26","京都府","26211","京田辺市","262110247000","薪茶屋前","34.82828","135.757449","0","1"
"26","京都府","26211","京田辺市","262110248000","薪天神堂","34.823508","135.763591","0","1"
"26","京都府","26211","京田辺市","262110249000","薪堂ノ後","34.826727","135.758041","0","1"
"26","京都府","26211","京田辺市","262110250000","薪外島","34.83262","135.763131","0","1"
"26","京都府","26211","京田辺市","262110251000","薪泥々","34.824315","135.759587","0","1"
"26","京都府","26211","京田辺市","262110252000","薪長尾谷","34.814886","135.754752","0","1"
"26","京都府","26211","京田辺市","262110253000","薪中垣外","34.825696","135.758412","0","1"
"26","京都府","26211","京田辺市","262110254000","薪名松","34.830066","135.758034","0","1"
"26","京都府","26211","京田辺市","262110255000","薪西窪","34.825791","135.754444","0","1"
"26","京都府","26211","京田辺市","262110256000","薪西沢","34.822746","135.761043","0","1"
"26","京都府","26211","京田辺市","262110257000","薪西浜","34.831466","135.761077","0","1"
"26","京都府","26211","京田辺市","262110258000","薪西山","34.823953","135.752535","0","1"
"26","京都府","26211","京田辺市","262110259000","薪畠","34.82632","135.752329","0","1"
"26","京都府","26211","京田辺市","262110260000","薪東沢","34.822446","135.762517","0","1"
"26","京都府","26211","京田辺市","262110261000","薪東浜","34.830454","135.764062","0","1"
"26","京都府","26211","京田辺市","262110262000","薪東向","34.827204","135.763752","0","1"
"26","京都府","26211","京田辺市","262110263000","薪堀切谷","34.818854","135.755183","0","1"
"26","京都府","26211","京田辺市","262110264000","薪舞ケ辻","34.815751","135.743475","0","1"
"26","京都府","26211","京田辺市","262110265000","薪水取","34.828207","135.755709","0","1"
"26","京都府","26211","京田辺市","262110266000","薪百々坂","34.810971","135.750211","0","1"
"26","京都府","26211","京田辺市","262110267000","薪山垣外","34.819876","135.76028","0","1"
"26","京都府","26211","京田辺市","262110268000","多々羅下司","34.797133","135.765026","0","1"
"26","京都府","26211","京田辺市","262110269000","多々羅駒ケ谷","34.78815","135.767208","0","1"
"26","京都府","26211","京田辺市","262110270000","多々羅住建寺","34.795427","135.769398","0","1"
"26","京都府","26211","京田辺市","262110271000","多々羅新宮前","34.79743","135.767022","0","1"
"26","京都府","26211","京田辺市","262110272000","多々羅谷奥","34.800131","135.765794","0","1"
"26","京都府","26211","京田辺市","262110273000","多々羅中垣内","34.799437","135.770255","0","1"
"26","京都府","26211","京田辺市","262110274000","多々羅中島","34.796358","135.767327","0","1"
"26","京都府","26211","京田辺市","262110275000","多々羅七瀬川","34.799977","135.772355","0","1"
"26","京都府","26211","京田辺市","262110276000","多々羅西平川原","34.790107","135.767487","0","1"
"26","京都府","26211","京田辺市","262110277000","多々羅東平川原","34.795529","135.772194","0","1"
"26","京都府","26211","京田辺市","262110278000","多々羅前田","34.798286","135.773756","0","1"
"26","京都府","26211","京田辺市","262110279000","多々羅都谷","34.802466","135.771208","0","1"
"26","京都府","26211","京田辺市","262110280000","田辺","34.814761","135.768415","0","1"
"26","京都府","26211","京田辺市","262110281000","田辺尼ケ池","34.818123","135.761928","0","1"
"26","京都府","26211","京田辺市","262110282000","田辺池ノ尻","34.826944","135.766901","0","1"
"26","京都府","26211","京田辺市","262110283000","田辺石塚","34.824427","135.768492","0","1"
"26","京都府","26211","京田辺市","262110284000","田辺稲葉","34.824842","135.765279","0","1"
"26","京都府","26211","京田辺市","262110285000","田辺大藪","34.829582","135.776608","0","1"
"26","京都府","26211","京田辺市","262110286000","田辺奥ノ城","34.811586","135.763982","0","1"
"26","京都府","26211","京田辺市","262110287000","田辺柿ノ内","34.82509","135.766873","0","1"
"26","京都府","26211","京田辺市","262110288000","田辺蕪木","34.825075","135.770034","0","1"
"26","京都府","26211","京田辺市","262110289000","田辺北川","34.820496","135.764725","0","1"
"26","京都府","26211","京田辺市","262110290000","田辺北里","34.818816","135.765868","0","1"
"26","京都府","26211","京田辺市","262110291000","田辺狐川","34.815536","135.760626","0","1"
"26","京都府","26211","京田辺市","262110292000","田辺草屋","34.827871","135.768816","0","1"
"26","京都府","26211","京田辺市","262110293000","田辺沓脱","34.819202","135.767102","0","1"
"26","京都府","26211","京田辺市","262110294000","田辺久戸","34.820636","135.768361","0","1"
"26","京都府","26211","京田辺市","262110295000","田辺久保","34.828355","135.770966","0","1"
"26","京都府","26211","京田辺市","262110296000","田辺十曽","34.823238","135.770758","0","1"
"26","京都府","26211","京田辺市","262110297000","田辺外ケ谷","34.809278","135.753654","0","1"
"26","京都府","26211","京田辺市","262110298000","田辺竹ノ脇","34.815818","135.767268","0","1"
"26","京都府","26211","京田辺市","262110299000","田辺田出原","34.830688","135.773156","0","1"
"26","京都府","26211","京田辺市","262110300000","田辺棚倉","34.820556","135.763443","0","1"
"26","京都府","26211","京田辺市","262110301001","田辺中央一丁目","34.820564","135.771377","0","3"
"26","京都府","26211","京田辺市","262110301002","田辺中央二丁目","34.818536","135.771828","0","3"
"26","京都府","26211","京田辺市","262110301003","田辺中央三丁目","34.818561","135.770615","0","3"
"26","京都府","26211","京田辺市","262110301004","田辺中央四丁目","34.820481","135.769648","0","3"
"26","京都府","26211","京田辺市","262110301005","田辺中央五丁目","34.82192","135.769208","0","3"
"26","京都府","26211","京田辺市","262110301006","田辺中央六丁目","34.822077","135.77138","0","3"
"26","京都府","26211","京田辺市","262110302000","田辺辻","34.820903","135.766442","0","1"
"26","京都府","26211","京田辺市","262110303000","田辺津田","34.82116","135.77264","0","1"
"26","京都府","26211","京田辺市","262110304000","田辺伝道林","34.82832","135.774203","0","1"
"26","京都府","26211","京田辺市","262110305000","田辺道場","34.82254","135.765945","0","1"
"26","京都府","26211","京田辺市","262110306000","田辺外島","34.832312","135.770435","0","1"
"26","京都府","26211","京田辺市","262110307000","田辺戸絶","34.825936","135.77121","0","1"
"26","京都府","26211","京田辺市","262110308000","田辺鳥本","34.817282","135.769593","0","1"
"26","京都府","26211","京田辺市","262110309000","田辺中ノ島","34.82976","135.773974","0","1"
"26","京都府","26211","京田辺市","262110310000","田辺西垣内","34.818628","135.764181","0","1"
"26","京都府","26211","京田辺市","262110311000","田辺西川原","34.811452","135.760216","0","1"
"26","京都府","26211","京田辺市","262110312000","田辺西浜","34.829166","135.765512","0","1"
"26","京都府","26211","京田辺市","262110313000","田辺波風","34.823129","135.767228","0","1"
"26","京都府","26211","京田辺市","262110314000","田辺針ケ池","34.819238","135.768807","0","1"
"26","京都府","26211","京田辺市","262110315000","田辺東浜","34.829493","135.767018","0","1"
"26","京都府","26211","京田辺市","262110316000","田辺平","34.815567","135.764469","0","1"
"26","京都府","26211","京田辺市","262110317000","田辺平田","34.823472","135.771952","0","1"
"26","京都府","26211","京田辺市","262110318000","田辺深田","34.815117","135.771213","0","1"
"26","京都府","26211","京田辺市","262110319000","田辺ボケ谷","34.806915","135.75219","0","1"
"26","京都府","26211","京田辺市","262110320000","田辺丸山","34.811984","135.767212","0","1"
"26","京都府","26211","京田辺市","262110321000","田辺南里","34.817456","135.76646","0","1"
"26","京都府","26211","京田辺市","262110322000","田辺南田","34.816651","135.772743","0","1"
"26","京都府","26211","京田辺市","262110323000","田辺明田","34.822578","135.76797","0","1"
"26","京都府","26211","京田辺市","262110324000","田辺向畑","34.830497","135.770966","0","1"
"26","京都府","26211","京田辺市","262110325000","田辺茂ケ谷","34.81056","135.756669","0","1"
"26","京都府","26211","京田辺市","262110326000","田辺藪ノ本","34.829628","135.768742","0","1"
"26","京都府","26211","京田辺市","262110327000","田辺勇田","34.826226","135.773685","0","1"
"26","京都府","26211","京田辺市","262110328000","天王荒堀","34.783705","135.744223","0","1"
"26","京都府","26211","京田辺市","262110329000","天王石坂","34.779855","135.744157","0","1"
"26","京都府","26211","京田辺市","262110330000","天王井手口","34.777597","135.735906","0","1"
"26","京都府","26211","京田辺市","262110331000","天王大岩","34.779226","135.735364","0","1"
"26","京都府","26211","京田辺市","262110332000","天王大路畑","34.772322","135.738182","0","1"
"26","京都府","26211","京田辺市","262110333000","天王大田尾","34.767711","135.73934","0","1"
"26","京都府","26211","京田辺市","262110334000","天王大谷","34.774421","135.740607","0","1"
"26","京都府","26211","京田辺市","262110335000","天王奥石畑","34.773816","135.733618","0","1"
"26","京都府","26211","京田辺市","262110336000","天王奥谷","34.780429","135.731736","0","1"
"26","京都府","26211","京田辺市","262110337000","天王奥別所","34.791713","135.743312","0","1"
"26","京都府","26211","京田辺市","262110338000","天王釜ケ谷","34.773203","135.730713","0","1"
"26","京都府","26211","京田辺市","262110339000","天王上丑ノ毛","34.783668","135.741016","0","1"
"26","京都府","26211","京田辺市","262110340000","天王上垣内","34.781072","135.73584","0","1"
"26","京都府","26211","京田辺市","262110341000","天王上白光田","34.779777","135.740309","0","1"
"26","京都府","26211","京田辺市","262110342000","天王上樋ノ本","34.78203","135.739516","0","1"
"26","京都府","26211","京田辺市","262110343000","天王上水無滝","34.776814","135.744591","0","1"
"26","京都府","26211","京田辺市","262110344000","天王口石畑","34.775153","135.735697","0","1"
"26","京都府","26211","京田辺市","262110345000","天王口別所","34.789467","135.74504","0","1"
"26","京都府","26211","京田辺市","262110346000","天王栗林","34.786658","135.74481","0","1"
"26","京都府","26211","京田辺市","262110347000","天王黒岩","34.780577","135.7471","0","1"
"26","京都府","26211","京田辺市","262110348000","天王裂石","34.786911","135.739988","0","1"
"26","京都府","26211","京田辺市","262110349000","天王清水","34.784386","135.736835","0","1"
"26","京都府","26211","京田辺市","262110350000","天王下丑ノ毛","34.785378","135.742492","0","1"
"26","京都府","26211","京田辺市","262110351000","天王下垣内","34.7792","135.738213","0","1"
"26","京都府","26211","京田辺市","262110352000","天王下白光田","34.77801","135.741449","0","1"
"26","京都府","26211","京田辺市","262110353000","天王下樋ノ本","34.781903","135.741689","0","1"
"26","京都府","26211","京田辺市","262110354000","天王下水無滝","34.778241","135.746719","0","1"
"26","京都府","26211","京田辺市","262110355000","天王夕神","34.778841","135.742855","0","1"
"26","京都府","26211","京田辺市","262110356000","天王庄谷","34.776234","135.738222","0","1"
"26","京都府","26211","京田辺市","262110357000","天王居石","34.770709","135.740315","0","1"
"26","京都府","26211","京田辺市","262110358000","天王大尾","34.768524","135.737124","0","1"
"26","京都府","26211","京田辺市","262110359000","天王高尾","34.776077","135.740056","0","1"
"26","京都府","26211","京田辺市","262110360000","天王高ケ峯","34.781975","135.733508","0","1"
"26","京都府","26211","京田辺市","262110361000","天王谷川","34.772021","135.733763","0","1"
"26","京都府","26211","京田辺市","262110362000","天王辻山","34.776141","135.730941","0","1"
"26","京都府","26211","京田辺市","262110363000","天王長畑","34.773853","135.742717","0","1"
"26","京都府","26211","京田辺市","262110364000","天王中別所","34.789586","135.741803","0","1"
"26","京都府","26211","京田辺市","262110365000","天王縄手","34.780769","135.737779","0","1"
"26","京都府","26211","京田辺市","262110366000","天王女房谷","34.784586","135.739616","0","1"
"26","京都府","26211","京田辺市","262110367000","天王灰ケ原","34.777898","135.739504","0","1"
"26","京都府","26211","京田辺市","262110368000","天王禿尾","34.767083","135.737759","0","1"
"26","京都府","26211","京田辺市","262110369000","天王東頭","34.782503","135.737169","0","1"
"26","京都府","26211","京田辺市","262110370000","天王平畑","34.783359","135.734831","0","1"
"26","京都府","26211","京田辺市","262110371000","天王深道","34.781621","135.744314","0","1"
"26","京都府","26211","京田辺市","262110372000","天王峯","34.778596","135.731471","0","1"
"26","京都府","26211","京田辺市","262110373000","天王峯頭","34.774758","135.745468","0","1"
"26","京都府","26211","京田辺市","262110374000","天王楽君坊","34.773963","135.737117","0","1"
"26","京都府","26211","京田辺市","262110375001","同志社山手一丁目","34.793502","135.775309","0","3"
"26","京都府","26211","京田辺市","262110375002","同志社山手二丁目","34.788396","135.772082","0","3"
"26","京都府","26211","京田辺市","262110375003","同志社山手三丁目","34.788378","135.769166","0","3"
"26","京都府","26211","京田辺市","262110375004","同志社山手四丁目","34.792749","135.769793","0","3"
"26","京都府","26211","京田辺市","262110376000","東青上","34.82749","135.781914","0","1"
"26","京都府","26211","京田辺市","262110377000","東鍵田","34.817348","135.779697","0","1"
"26","京都府","26211","京田辺市","262110378000","東七反割","34.821938","135.784681","0","1"
"26","京都府","26211","京田辺市","262110379000","東外島","34.827882","135.784888","0","1"
"26","京都府","26211","京田辺市","262110380000","東西神屋","34.822502","135.779846","0","1"
"26","京都府","26211","京田辺市","262110381000","東西ノ口","34.82677","135.779649","0","1"
"26","京都府","26211","京田辺市","262110382000","東東神屋","34.822079","135.782328","0","1"
"26","京都府","26211","京田辺市","262110383000","東藤木","34.82498","135.783294","0","1"
"26","京都府","26211","京田辺市","262110384000","東古森","34.817859","135.781828","0","1"
"26","京都府","26211","京田辺市","262110385000","普賢寺池ケ原","34.783888","135.763266","0","1"
"26","京都府","26211","京田辺市","262110386000","普賢寺打垣内","34.793326","135.763528","0","1"
"26","京都府","26211","京田辺市","262110387000","普賢寺宇頭城","34.794797","135.756872","0","1"
"26","京都府","26211","京田辺市","262110388000","普賢寺王子谷","34.791541","135.752971","0","1"
"26","京都府","26211","京田辺市","262110389000","普賢寺奥北谷","34.799793","135.753703","0","1"
"26","京都府","26211","京田辺市","262110390000","普賢寺小田垣内","34.790569","135.762921","0","1"
"26","京都府","26211","京田辺市","262110391000","普賢寺掛ケ谷","34.792935","135.750727","0","1"
"26","京都府","26211","京田辺市","262110392000","普賢寺上大門","34.793654","135.759489","0","1"
"26","京都府","26211","京田辺市","262110393000","普賢寺観音谷","34.79871","135.759661","0","1"
"26","京都府","26211","京田辺市","262110394000","普賢寺公家谷","34.786943","135.760819","0","1"
"26","京都府","26211","京田辺市","262110395000","普賢寺口北谷","34.797371","135.755338","0","1"
"26","京都府","26211","京田辺市","262110396000","普賢寺暗狩","34.797483","135.747685","0","1"
"26","京都府","26211","京田辺市","262110397000","普賢寺下司","34.797085","135.763503","0","1"
"26","京都府","26211","京田辺市","262110398000","普賢寺御所ノ内","34.791404","135.758031","0","1"
"26","京都府","26211","京田辺市","262110399000","普賢寺佐倉谷","34.793383","135.744833","0","1"
"26","京都府","26211","京田辺市","262110400000","普賢寺下大門","34.794955","135.761691","0","1"
"26","京都府","26211","京田辺市","262110401000","普賢寺砂子谷","34.794675","135.752787","0","1"
"26","京都府","26211","京田辺市","262110402000","普賢寺千草原","34.79508","135.7488","0","1"
"26","京都府","26211","京田辺市","262110403000","普賢寺峠ノ裏","34.795642","135.74553","0","1"
"26","京都府","26211","京田辺市","262110404000","普賢寺中島","34.79305","135.765859","0","1"
"26","京都府","26211","京田辺市","262110405000","普賢寺野神","34.789197","135.761026","0","1"
"26","京都府","26211","京田辺市","262110406000","普賢寺針木谷","34.798553","135.751021","0","1"
"26","京都府","26211","京田辺市","262110407000","普賢寺渕尻","34.788261","135.757392","0","1"
"26","京都府","26211","京田辺市","262110408000","普賢寺若林","34.792394","135.747157","0","1"
"26","京都府","26211","京田辺市","262110409000","松井今池","34.841075","135.728469","0","1"
"26","京都府","26211","京田辺市","262110410000","松井魚田","34.848998","135.73891","0","1"
"26","京都府","26211","京田辺市","262110411000","松井大ケ市","34.843392","135.732985","0","1"
"26","京都府","26211","京田辺市","262110412000","松井奥池","34.835021","135.730982","0","1"
"26","京都府","26211","京田辺市","262110413000","松井奥大谷","34.827673","135.724007","0","1"
"26","京都府","26211","京田辺市","262110414000","松井奥仲谷","34.826116","135.731351","0","1"
"26","京都府","26211","京田辺市","262110415001","松井ケ丘一丁目","34.833164","135.732678","0","3"
"26","京都府","26211","京田辺市","262110415003","松井ケ丘三丁目","34.833771","135.730246","0","3"
"26","京都府","26211","京田辺市","262110415004","松井ケ丘四丁目","34.82965","135.732386","0","3"
"26","京都府","26211","京田辺市","262110416000","松井柏原","34.846657","135.728974","0","1"
"26","京都府","26211","京田辺市","262110417000","松井交野ケ原","34.827153","135.723613","0","1"
"26","京都府","26211","京田辺市","262110418000","松井叶堂","34.84259","135.734342","0","1"
"26","京都府","26211","京田辺市","262110419000","松井鐘付田","34.849829","135.732272","0","1"
"26","京都府","26211","京田辺市","262110420000","松井上池ノ谷","34.839765","135.731553","0","1"
"26","京都府","26211","京田辺市","262110421000","松井上西浦","34.842279","135.730619","0","1"
"26","京都府","26211","京田辺市","262110422000","松井北ケ市","34.847204","135.732178","0","1"
"26","京都府","26211","京田辺市","262110423000","松井北川原","34.853056","135.733725","0","1"
"26","京都府","26211","京田辺市","262110424000","松井口大谷","34.83821","135.72243","0","1"
"26","京都府","26211","京田辺市","262110425000","松井口仲谷","34.838464","135.725867","0","1"
"26","京都府","26211","京田辺市","262110426000","松井口広谷","34.836885","135.723009","0","1"
"26","京都府","26211","京田辺市","262110427000","松井久保","34.852139","135.73575","0","1"
"26","京都府","26211","京田辺市","262110428000","松井古松井","34.845387","135.737018","0","1"
"26","京都府","26211","京田辺市","262110429000","松井里ケ市","34.845361","135.733437","0","1"
"26","京都府","26211","京田辺市","262110430000","松井蛇見ケ谷","34.836408","135.734226","0","1"
"26","京都府","26211","京田辺市","262110431000","松井諏訪ケ原","34.841216","135.732917","0","1"
"26","京都府","26211","京田辺市","262110432000","松井相合","34.842397","135.735835","0","1"
"26","京都府","26211","京田辺市","262110433000","松井千原","34.849609","135.735734","0","1"
"26","京都府","26211","京田辺市","262110434000","松井手水ケ谷","34.837772","135.721647","0","1"
"26","京都府","26211","京田辺市","262110435000","松井栂谷","34.841141","135.723394","0","1"
"26","京都府","26211","京田辺市","262110436000","松井西浦","34.841979","135.729863","0","1"
"26","京都府","26211","京田辺市","262110437000","松井入道ケ谷","34.83652","135.734887","0","1"
"26","京都府","26211","京田辺市","262110438000","松井野田","34.849179","135.731092","0","1"
"26","京都府","26211","京田辺市","262110439000","松井古川","34.848118","135.733826","0","1"
"26","京都府","26211","京田辺市","262110440000","松井宮田","34.841119","135.725948","0","1"
"26","京都府","26211","京田辺市","262110441000","松井向井","34.847058","135.735693","0","1"
"26","京都府","26211","京田辺市","262110442000","松井向谷","34.838679","135.734692","0","1"
"26","京都府","26211","京田辺市","262110443000","松井向山","34.84364","135.731638","0","1"
"26","京都府","26211","京田辺市","262110444000","松井山川","34.847907","135.729289","0","1"
"26","京都府","26211","京田辺市","262110445000","松井六ノ坪","34.850408","135.737807","0","1"
"26","京都府","26211","京田辺市","262110446000","水取医王","34.78279","135.750825","0","1"
"26","京都府","26211","京田辺市","262110447000","水取池ケ谷","34.776628","135.751972","0","1"
"26","京都府","26211","京田辺市","262110448000","水取池ケ原","34.782358","135.764518","0","1"
"26","京都府","26211","京田辺市","262110449000","水取稲葉","34.789232","135.752352","0","1"
"26","京都府","26211","京田辺市","262110450000","水取岩神","34.779512","135.749103","0","1"
"26","京都府","26211","京田辺市","262110451000","水取梅ノ木峠","34.77866","135.756901","0","1"
"26","京都府","26211","京田辺市","262110452000","水取御家","34.786044","135.752452","0","1"
"26","京都府","26211","京田辺市","262110453000","水取御苗代","34.77758","135.74983","0","1"
"26","京都府","26211","京田辺市","262110454000","水取帰リ坂","34.773832","135.749958","0","1"
"26","京都府","26211","京田辺市","262110455000","水取門田","34.782685","135.75219","0","1"
"26","京都府","26211","京田辺市","262110456000","水取車谷","34.781021","135.753564","0","1"
"26","京都府","26211","京田辺市","262110457000","水取黒岩","34.783317","135.747801","0","1"
"26","京都府","26211","京田辺市","262110458000","水取菰谷","34.772886","135.75517","0","1"
"26","京都府","26211","京田辺市","262110459000","水取錆","34.785308","135.750783","0","1"
"26","京都府","26211","京田辺市","262110460000","水取地蔵講","34.784424","135.754288","0","1"
"26","京都府","26211","京田辺市","262110461000","水取清水","34.787629","135.75359","0","1"
"26","京都府","26211","京田辺市","262110462000","水取清水谷","34.778813","135.75264","0","1"
"26","京都府","26211","京田辺市","262110463000","水取菖蒲谷","34.779482","135.751013","0","1"
"26","京都府","26211","京田辺市","262110464000","水取浄楽","34.78332","135.750508","0","1"
"26","京都府","26211","京田辺市","262110465000","水取須鎌","34.776484","135.756593","0","1"
"26","京都府","26211","京田辺市","262110466000","水取高井鎌","34.78219","135.7533","0","1"
"26","京都府","26211","京田辺市","262110467000","水取高井谷","34.7814","135.75588","0","1"
"26","京都府","26211","京田辺市","262110468000","水取寺ケ谷","34.771759","135.751906","0","1"
"26","京都府","26211","京田辺市","262110469000","水取浪江","34.777691","135.747969","0","1"
"26","京都府","26211","京田辺市","262110470000","水取西光明谷","34.782926","135.758393","0","1"
"26","京都府","26211","京田辺市","262110471000","水取信谷","34.788198","135.747655","0","1"
"26","京都府","26211","京田辺市","262110472000","水取羽川","34.775733","135.75377","0","1"
"26","京都府","26211","京田辺市","262110473000","水取鳩ケ鼻","34.784934","135.746631","0","1"
"26","京都府","26211","京田辺市","262110474000","水取般若","34.780962","135.749368","0","1"
"26","京都府","26211","京田辺市","262110475000","水取東光明谷","34.784818","135.75886","0","1"
"26","京都府","26211","京田辺市","262110476000","水取日ノ滝","34.786645","135.746732","0","1"
"26","京都府","26211","京田辺市","262110477000","水取平","34.787356","135.755222","0","1"
"26","京都府","26211","京田辺市","262110478000","水取平作","34.78689","135.749458","0","1"
"26","京都府","26211","京田辺市","262110479000","水取鬼灯","34.775228","135.748216","0","1"
"26","京都府","26211","京田辺市","262110480000","宮津浅池","34.782795","135.779459","0","1"
"26","京都府","26211","京田辺市","262110481000","宮津池ノ内","34.790137","135.787004","0","1"
"26","京都府","26211","京田辺市","262110482000","宮津大井池","34.789045","135.78449","0","1"
"26","京都府","26211","京田辺市","262110483000","宮津大木","34.787888","135.784775","0","1"
"26","京都府","26211","京田辺市","262110484000","宮津柿ケ坪","34.793221","135.789028","0","1"
"26","京都府","26211","京田辺市","262110485000","宮津上川原","34.789084","135.7947","0","1"
"26","京都府","26211","京田辺市","262110486000","宮津川田","34.791821","135.792711","0","1"
"26","京都府","26211","京田辺市","262110487000","宮津河ノ谷","34.781798","135.780999","0","1"
"26","京都府","26211","京田辺市","262110488000","宮津北浦","34.787353","135.780039","0","1"
"26","京都府","26211","京田辺市","262110489000","宮津北ノ谷","34.782425","135.771414","0","1"
"26","京都府","26211","京田辺市","262110490000","宮津切山","34.793841","135.792094","0","1"
"26","京都府","26211","京田辺市","262110491000","宮津佐牙垣内","34.791299","135.784046","0","1"
"26","京都府","26211","京田辺市","262110492000","宮津サコデ","34.782123","135.783506","0","1"
"26","京都府","26211","京田辺市","262110493000","宮津清水","34.791525","135.789229","0","1"
"26","京都府","26211","京田辺市","262110494000","宮津下川原","34.792213","135.794624","0","1"
"26","京都府","26211","京田辺市","262110495000","宮津白山","34.785313","135.78009","0","1"
"26","京都府","26211","京田辺市","262110496000","宮津塚本","34.786298","135.784568","0","1"
"26","京都府","26211","京田辺市","262110497000","宮津鳥羽田","34.784719","135.784625","0","1"
"26","京都府","26211","京田辺市","262110498000","宮津中川原","34.789858","135.795633","0","1"
"26","京都府","26211","京田辺市","262110499000","宮津中ノ谷","34.781422","135.773205","0","1"
"26","京都府","26211","京田辺市","262110500000","宮津中ノ町","34.7901","135.788534","0","1"
"26","京都府","26211","京田辺市","262110501000","宮津西浦","34.789523","135.781623","0","1"
"26","京都府","26211","京田辺市","262110502000","宮津西外島","34.791789","135.79659","0","1"
"26","京都府","26211","京田辺市","262110503000","宮津灰崎","34.792695","135.786867","0","1"
"26","京都府","26211","京田辺市","262110504000","宮津東垣内","34.786303","135.786191","0","1"
"26","京都府","26211","京田辺市","262110505000","宮津東外島","34.792193","135.798111","0","1"
"26","京都府","26211","京田辺市","262110506000","宮津平谷","34.783252","135.785182","0","1"
"26","京都府","26211","京田辺市","262110507000","宮津古垣内","34.79171","135.790987","0","1"
"26","京都府","26211","京田辺市","262110508000","宮津南ノ谷","34.781227","135.776174","0","1"
"26","京都府","26211","京田辺市","262110509000","宮津宮ノ下","34.793247","135.784543","0","1"
"26","京都府","26211","京田辺市","262110510000","宮津宮ノ前","34.784001","135.781707","0","1"
"26","京都府","26211","京田辺市","262110511000","宮津屋敷田","34.786717","135.782483","0","1"
"26","京都府","26211","京田辺市","262110512000","三山木綾ケ谷","34.791869","135.776484","0","1"
"26","京都府","26211","京田辺市","262110513000","三山木荒馬","34.802729","135.788092","0","1"
"26","京都府","26211","京田辺市","262110514000","三山木荒間","34.802588","135.785669","0","1"
"26","京都府","26211","京田辺市","262110515000","三山木井路外","34.795941","135.796406","0","1"
"26","京都府","26211","京田辺市","262110516000","三山木石田","34.805349","135.779845","0","1"
"26","京都府","26211","京田辺市","262110517000","三山木遠藤","34.795377","135.792944","0","1"
"26","京都府","26211","京田辺市","262110518000","三山木大南山","34.793695","135.778345","0","1"
"26","京都府","26211","京田辺市","262110519000","三山木奥山田","34.784786","135.769113","0","1"
"26","京都府","26211","京田辺市","262110520000","三山木小畑","34.804049","135.782567","0","1"
"26","京都府","26211","京田辺市","262110521000","三山木垣内","34.799749","135.793027","0","1"
"26","京都府","26211","京田辺市","262110522000","三山木垣ノ内","34.804438","135.77784","0","1"
"26","京都府","26211","京田辺市","262110523000","三山木上切山","34.794829","135.786371","0","1"
"26","京都府","26211","京田辺市","262110524000","三山木上谷浦","34.798636","135.779812","0","1"
"26","京都府","26211","京田辺市","262110525000","三山木上ノ浜","34.795104","135.796642","0","1"
"26","京都府","26211","京田辺市","262110526000","三山木川口","34.798674","135.794793","0","1"
"26","京都府","26211","京田辺市","262110527000","三山木川端","34.80521","135.780992","0","1"
"26","京都府","26211","京田辺市","262110528000","三山木北垣内","34.795527","135.783615","0","1"
"26","京都府","26211","京田辺市","262110529000","三山木口駒ケ谷","34.795254","135.773383","0","1"
"26","京都府","26211","京田辺市","262110530000","三山木口山田","34.789611","135.778713","0","1"
"26","京都府","26211","京田辺市","262110531000","三山木黒ケ町","34.797662","135.792639","0","1"
"26","京都府","26211","京田辺市","262110532000","三山木小坂","34.799258","135.776896","0","1"
"26","京都府","26211","京田辺市","262110533000","三山木越前","34.795405","135.778515","0","1"
"26","京都府","26211","京田辺市","262110534000","三山木直田","34.797594","135.789414","0","1"
"26","京都府","26211","京田辺市","262110535000","三山木芝","34.804975","135.784973","0","1"
"26","京都府","26211","京田辺市","262110536000","三山木芝山","34.791682","135.778449","0","1"
"26","京都府","26211","京田辺市","262110537000","三山木下川原","34.801264","135.794332","0","1"
"26","京都府","26211","京田辺市","262110538000","三山木下切山","34.794725","135.789358","0","1"
"26","京都府","26211","京田辺市","262110539000","三山木下ノ浜","34.795245","135.786615","0","1"
"26","京都府","26211","京田辺市","262110540000","三山木西羅","34.793411","135.780976","0","1"
"26","京都府","26211","京田辺市","262110541000","三山木善入山","34.795725","135.78123","0","1"
"26","京都府","26211","京田辺市","262110543000","三山木田中","34.801216","135.784339","0","1"
"26","京都府","26211","京田辺市","262110545000","三山木谷垣内","34.797598","135.779725","0","1"
"26","京都府","26211","京田辺市","262110546000","三山木谷ノ上","34.796376","135.779493","0","1"
"26","京都府","26211","京田辺市","262110547000","三山木堤下","34.795417","135.789497","0","1"
"26","京都府","26211","京田辺市","262110548000","三山木天神山","34.803005","135.77582","0","1"
"26","京都府","26211","京田辺市","262110549000","三山木道中","34.801648","135.789885","0","1"
"26","京都府","26211","京田辺市","262110550000","三山木塔ノ島","34.800497","135.789344","0","1"
"26","京都府","26211","京田辺市","262110551000","三山木外島","34.797954","135.797875","0","1"
"26","京都府","26211","京田辺市","262110552000","三山木中山田","34.78681","135.77645","0","1"
"26","京都府","26211","京田辺市","262110553000","三山木七瀬川","34.801333","135.776196","0","1"
"26","京都府","26211","京田辺市","262110554000","三山木西荒木","34.802025","135.782633","0","1"
"26","京都府","26211","京田辺市","262110555000","三山木西角田","34.800479","135.78027","0","1"
"26","京都府","26211","京田辺市","262110556000","三山木西ノ河原","34.801749","135.778345","0","1"
"26","京都府","26211","京田辺市","262110557000","三山木野神","34.8029","135.779914","0","1"
"26","京都府","26211","京田辺市","262110558000","三山木初メ","34.799547","135.779128","0","1"
"26","京都府","26211","京田辺市","262110559000","三山木八ノ坪","34.796747","135.79262","0","1"
"26","京都府","26211","京田辺市","262110560000","三山木八反坪","34.798712","135.789321","0","1"
"26","京都府","26211","京田辺市","262110561000","三山木浜中","34.803628","135.785248","0","1"
"26","京都府","26211","京田辺市","262110562000","三山木東荒木","34.800703","135.793015","0","1"
"26","京都府","26211","京田辺市","262110563000","三山木東角田","34.801137","135.784746","0","1"
"26","京都府","26211","京田辺市","262110564000","三山木檜","34.801558","135.786581","0","1"
"26","京都府","26211","京田辺市","262110565000","三山木平田","34.796752","135.789453","0","1"
"26","京都府","26211","京田辺市","262110566000","三山木古屋敷","34.798707","135.792724","0","1"
"26","京都府","26211","京田辺市","262110567000","三山木見尊田","34.799691","135.78934","0","1"
"26","京都府","26211","京田辺市","262110568000","三山木南垣内","34.793901","135.782903","0","1"
"26","京都府","26211","京田辺市","262110569000","三山木南山","34.796207","135.777267","0","1"
"26","京都府","26211","京田辺市","262110571000","三山木山崎","34.796703","135.783212","0","1"
"26","京都府","26211","京田辺市","262110572000","三山木山田","34.791433","135.780924","0","1"
"26","京都府","26211","京田辺市","262110573000","三山木柚ノ木","34.797995","135.777197","0","1"
"26","京都府","26211","京田辺市","262110574000","山手中央","34.833957","135.725508","0","1"
"26","京都府","26211","京田辺市","262110575001","山手西一丁目","34.834323","135.721936","0","3"
"26","京都府","26211","京田辺市","262110575002","山手西二丁目","34.832116","135.72121","0","3"
"26","京都府","26211","京田辺市","262110575003","山手西三丁目","34.829788","135.721357","0","3"
"26","京都府","26211","京田辺市","262110576001","山手東一丁目","34.835784","135.728477","0","3"
"26","京都府","26211","京田辺市","262110576002","山手東二丁目","34.836326","135.727032","0","3"
"26","京都府","26211","京田辺市","262110577001","山手南一丁目","34.830545","135.724686","0","3"
"26","京都府","26211","京田辺市","262110577002","山手南二丁目","34.830498","135.728251","0","3"
"26","京都府","26211","京田辺市","262110577003","山手南三丁目","34.828878","135.730224","0","3"
"26","京都府","26211","京田辺市","262110577004","山手南四丁目","34.828496","135.727072","0","3"
"26","京都府","26211","京田辺市","262110578000","松井乾角","34.850653","135.730147","0","1"
"26","京都府","26211","京田辺市","262110579000","松井川田","34.851154","135.733341","0","1"
"26","京都府","26211","京田辺市","262110580000","松井直田","34.851111","135.731514","0","1"
"26","京都府","26211","京田辺市","262110581000","大住責谷","34.822886","135.741088","0","2"
"26","京都府","26211","京田辺市","262110582000","大住仲ノ谷","34.823312","135.745738","0","2"
"26","京都府","26211","京田辺市","262110583000","大住吸戸","34.819299","135.740028","0","2"
"26","京都府","26211","京田辺市","262110584000","薪平田谷","34.821022","135.747534","0","2"
"26","京都府","26211","京田辺市","262110585006","三山木中央六丁目","34.799624","135.780745","0","3"
"26","京都府","26211","京田辺市","262110585007","三山木中央七丁目","34.801228","135.781729","0","3"
"26","京都府","26211","京田辺市","262110585008","三山木中央八丁目","34.800026","135.784391","0","3"
"26","京都府","26211","京田辺市","262110585009","三山木中央九丁目","34.800229","135.786706","0","3"
"26","京都府","26211","京田辺市","262110585001","三山木中央一丁目","34.798336","135.785223","0","3"
"26","京都府","26211","京田辺市","262110585002","三山木中央二丁目","34.797813","135.78712","0","3"
"26","京都府","26211","京田辺市","262110585004","三山木中央四丁目","34.796911","135.785489","0","3"
"26","京都府","26211","京田辺市","262110585003","三山木中央三丁目","34.795873","135.786112","0","3"
"26","京都府","26211","京田辺市","262110585005","三山木中央五丁目","34.798535","135.7821","0","3"
