"PrefCode","PrefName","MuniCode","MuniName","DistCode","DistName","lat","lon","SrcCode","CatCode"
"27","大阪府","27118","大阪市城東区","271180001003","蒲生三丁目","34.698898","135.542642","0","3"
"27","大阪府","27118","大阪市城東区","271180002001","今福南一丁目","34.696840","135.548216","0","3"
"27","大阪府","27118","大阪市城東区","271180003004","東中浜四丁目","34.687205","135.550070","0","3"
"27","大阪府","27118","大阪市城東区","271180003007","東中浜七丁目","34.687006","135.552705","0","3"
"27","大阪府","27118","大阪市城東区","271180004001","成育一丁目","34.705373","135.541800","0","3"
"27","大阪府","27118","大阪市城東区","271180005002","新喜多二丁目","34.697085","135.543509","0","3"
"27","大阪府","27118","大阪市城東区","271180006005","今福西五丁目","34.704005","135.547984","0","3"
"27","大阪府","27118","大阪市城東区","271180003005","東中浜五丁目","34.684968","135.549894","0","3"
"27","大阪府","27118","大阪市城東区","271180003008","東中浜八丁目","34.684448","135.552725","0","3"
"27","大阪府","27118","大阪市城東区","271180007004","野江四丁目","34.709863","135.540423","0","3"
"27","大阪府","27118","大阪市城東区","271180003006","東中浜六丁目","34.682422","135.549551","0","3"
"27","大阪府","27118","大阪市城東区","271180006004","今福西四丁目","34.701609","135.551960","0","3"
"27","大阪府","27118","大阪市城東区","271180001002","蒲生二丁目","34.699891","135.540078","0","3"
"27","大阪府","27118","大阪市城東区","271180001001","蒲生一丁目","34.698432","135.537448","0","3"
"27","大阪府","27118","大阪市城東区","271180003009","東中浜九丁目","34.682163","135.552348","0","3"
"27","大阪府","27118","大阪市城東区","271180008001","永田一丁目","34.688945","135.555892","0","3"
"27","大阪府","27118","大阪市城東区","271180003001","東中浜一丁目","34.687311","135.547100","0","3"
"27","大阪府","27118","大阪市城東区","271180003003","東中浜三丁目","34.682660","135.546491","0","3"
"27","大阪府","27118","大阪市城東区","271180001004","蒲生四丁目","34.698697","135.545054","0","3"
"27","大阪府","27118","大阪市城東区","271180008004","永田四丁目","34.680288","135.556527","0","3"
"27","大阪府","27118","大阪市城東区","271180009001","中央一丁目","34.701038","135.543686","0","3"
"27","大阪府","27118","大阪市城東区","271180010002","中浜二丁目","34.685196","135.543002","0","3"
"27","大阪府","27118","大阪市城東区","271180004002","成育二丁目","34.709007","135.545570","0","3"
"27","大阪府","27118","大阪市城東区","271180004003","成育三丁目","34.708248","135.542904","0","3"
"27","大阪府","27118","大阪市城東区","271180003002","東中浜二丁目","34.685027","135.546859","0","3"
"27","大阪府","27118","大阪市城東区","271180011001","放出西一丁目","34.693423","135.553610","0","3"
"27","大阪府","27118","大阪市城東区","271180012001","鴫野東一丁目","34.694521","135.545027","0","3"
"27","大阪府","27118","大阪市城東区","271180006003","今福西三丁目","34.701634","135.548109","0","3"
"27","大阪府","27118","大阪市城東区","271180004005","成育五丁目","34.713594","135.544710","0","3"
"27","大阪府","27118","大阪市城東区","271180009003","中央三丁目","34.703515","135.545190","0","3"
"27","大阪府","27118","大阪市城東区","271180005001","新喜多一丁目","34.696734","135.537457","0","3"
"27","大阪府","27118","大阪市城東区","271180010003","中浜三丁目","34.683827","135.542167","0","3"
"27","大阪府","27118","大阪市城東区","271180006001","今福西一丁目","34.698960","135.547961","0","3"
"27","大阪府","27118","大阪市城東区","271180009002","中央二丁目","34.703562","135.542652","0","3"
"27","大阪府","27118","大阪市城東区","271180002003","今福南三丁目","34.696570","135.556691","0","3"
"27","大阪府","27118","大阪市城東区","271180012002","鴫野東二丁目","34.693455","135.547647","0","3"
"27","大阪府","27118","大阪市城東区","271180006002","今福西二丁目","34.699699","135.551786","0","3"
"27","大阪府","27118","大阪市城東区","271180013002","新喜多東二丁目","34.692333","135.551734","0","3"
"27","大阪府","27118","大阪市城東区","271180014003","関目三丁目","34.710742","135.548237","0","3"
"27","大阪府","27118","大阪市城東区","271180015001","諏訪一丁目","34.686094","135.561839","0","3"
"27","大阪府","27118","大阪市城東区","271180013001","新喜多東一丁目","34.694879","135.549431","0","3"
"27","大阪府","27118","大阪市城東区","271180016001","鴫野西一丁目","34.694548","135.537136","0","3"
"27","大阪府","27118","大阪市城東区","271180016004","鴫野西四丁目","34.691291","135.540828","0","3"
"27","大阪府","27118","大阪市城東区","271180015002","諏訪二丁目","34.684723","135.561372","0","3"
"27","大阪府","27118","大阪市城東区","271180017003","今福東三丁目","34.704377","135.557022","0","3"
"27","大阪府","27118","大阪市城東区","271180008003","永田三丁目","34.682810","135.556125","0","3"
"27","大阪府","27118","大阪市城東区","271180017002","今福東二丁目","34.702384","135.556955","0","3"
"27","大阪府","27118","大阪市城東区","271180002002","今福南二丁目","34.697244","135.551892","0","3"
"27","大阪府","27118","大阪市城東区","271180007002","野江二丁目","34.704156","135.538894","0","3"
"27","大阪府","27118","大阪市城東区","271180017001","今福東一丁目","34.700536","135.557464","0","3"
"27","大阪府","27118","大阪市城東区","271180014004","関目四丁目","34.710579","135.552183","0","3"
"27","大阪府","27118","大阪市城東区","271180018000","天王田","34.689765","135.552272","0","1"
"27","大阪府","27118","大阪市城東区","271180010001","中浜一丁目","34.687492","135.543379","0","3"
"27","大阪府","27118","大阪市城東区","271180014005","関目五丁目","34.713668","135.548315","0","3"
"27","大阪府","27118","大阪市城東区","271180004004","成育四丁目","34.711213","135.543521","0","3"
"27","大阪府","27118","大阪市城東区","271180002004","今福南四丁目","34.698595","135.556768","0","3"
"27","大阪府","27118","大阪市城東区","271180006006","今福西六丁目","34.703988","135.551862","0","3"
"27","大阪府","27118","大阪市城東区","271180007001","野江一丁目","34.702031","135.538940","0","3"
"27","大阪府","27118","大阪市城東区","271180016003","鴫野西三丁目","34.694804","135.541379","0","3"
"27","大阪府","27118","大阪市城東区","271180011003","放出西三丁目","34.690462","135.556725","0","3"
"27","大阪府","27118","大阪市城東区","271180015004","諏訪四丁目","34.679781","135.560758","0","3"
"27","大阪府","27118","大阪市城東区","271180015003","諏訪三丁目","34.682508","135.561293","0","3"
"27","大阪府","27118","大阪市城東区","271180014006","関目六丁目","34.713474","135.552269","0","3"
"27","大阪府","27118","大阪市城東区","271180007003","野江三丁目","34.706928","135.538880","0","3"
"27","大阪府","27118","大阪市城東区","271180016002","鴫野西二丁目","34.691337","135.537673","0","3"
"27","大阪府","27118","大阪市城東区","271180012003","鴫野東三丁目","34.690243","135.548041","0","3"
"27","大阪府","27118","大阪市城東区","271180014001","関目一丁目","34.707058","135.548151","0","3"
"27","大阪府","27118","大阪市城東区","271180014002","関目二丁目","34.707311","135.552067","0","3"
"27","大阪府","27118","大阪市城東区","271180016005","鴫野西五丁目","34.691181","135.544055","0","3"
"27","大阪府","27118","大阪市城東区","271180019002","古市二丁目","34.710444","135.557271","0","3"
"27","大阪府","27118","大阪市城東区","271180008002","永田二丁目","34.685978","135.556444","0","3"
"27","大阪府","27118","大阪市城東区","271180011002","放出西二丁目","34.693839","135.556983","0","3"
"27","大阪府","27118","大阪市城東区","271180019003","古市三丁目","34.713803","135.557087","0","3"
"27","大阪府","27118","大阪市城東区","271180020002","森之宮二丁目","34.685442","135.539253","0","3"
"27","大阪府","27118","大阪市城東区","271180019001","古市一丁目","34.707160","135.557133","0","3"
"27","大阪府","27118","大阪市城東区","271180020001","森之宮一丁目","34.685682","135.536209","0","3"
