"PrefCode","PrefName","MuniCode","MuniName","DistCode","DistName","lat","lon","SrcCode","CatCode"
"27","大阪府","27212","八尾市","272120001000","大字千塚","34.631139","135.638721","0","1"
"27","大阪府","27212","八尾市","272120002003","都塚三丁目","34.604877","135.623758","0","3"
"27","大阪府","27212","八尾市","272120003006","垣内六丁目","34.615446","135.639302","0","3"
"27","大阪府","27212","八尾市","272120004002","曙川東二丁目","34.608705","135.625025","0","3"
"27","大阪府","27212","八尾市","272120005007","高安町北七丁目","34.619131","135.629171","0","3"
"27","大阪府","27212","八尾市","272120006003","志紀町三丁目","34.600629","135.615386","0","3"
"27","大阪府","27212","八尾市","272120007001","植松町一丁目","34.615504","135.599713","0","3"
"27","大阪府","27212","八尾市","272120004007","曙川東七丁目","34.602773","135.622663","0","3"
"27","大阪府","27212","八尾市","272120008004","桜ヶ丘四丁目","34.632480","135.608557","0","3"
"27","大阪府","27212","八尾市","272120004001","曙川東一丁目","34.609545","135.625614","0","3"
"27","大阪府","27212","八尾市","272120009006","高安町南六丁目","34.615275","135.628895","0","3"
"27","大阪府","27212","八尾市","272120010004","旭ヶ丘四丁目","34.632847","135.608665","0","3"
"27","大阪府","27212","八尾市","272120011001","幸町一丁目","34.647118","135.606865","0","3"
"27","大阪府","27212","八尾市","272120012004","南小阪合町四丁目","34.622743","135.614897","0","3"
"27","大阪府","27212","八尾市","272120013002","跡部本町二丁目","34.616453","135.583189","0","3"
"27","大阪府","27212","八尾市","272120014007","安中町七丁目","34.617772","135.603965","0","3"
"27","大阪府","27212","八尾市","272120012001","南小阪合町一丁目","34.624789","135.613019","0","3"
"27","大阪府","27212","八尾市","272120015005","末広町五丁目","34.635691","135.587751","0","3"
"27","大阪府","27212","八尾市","272120004005","曙川東五丁目","34.603766","135.625173","0","3"
"27","大阪府","27212","八尾市","272120016004","曙町四丁目","34.606380","135.611783","0","3"
"27","大阪府","27212","八尾市","272120017005","天王寺屋五丁目","34.603684","135.614943","0","3"
"27","大阪府","27212","八尾市","272120018003","木の本三丁目","34.597598","135.587453","0","3"
"27","大阪府","27212","八尾市","272120019004","志紀町西四丁目","34.603948","135.610793","0","3"
"27","大阪府","27212","八尾市","272120020001","青山町一丁目","34.625329","135.610889","0","3"
"27","大阪府","27212","八尾市","272120011005","幸町五丁目","34.649512","135.608929","0","3"
"27","大阪府","27212","八尾市","272120021002","春日町二丁目","34.617330","135.593091","0","3"
"27","大阪府","27212","八尾市","272120011002","幸町二丁目","34.647610","135.608791","0","3"
"27","大阪府","27212","八尾市","272120002001","都塚一丁目","34.607848","135.624121","0","3"
"27","大阪府","27212","八尾市","272120022003","桂町三丁目","34.646039","135.609892","0","3"
"27","大阪府","27212","八尾市","272120007003","植松町三丁目","34.616673","135.597121","0","3"
"27","大阪府","27212","八尾市","272120023002","山本町二丁目","34.629738","135.620306","0","3"
"27","大阪府","27212","八尾市","272120011006","幸町六丁目","34.650029","135.606676","0","3"
"27","大阪府","27212","八尾市","272120010003","旭ヶ丘三丁目","34.632172","135.611945","0","3"
"27","大阪府","27212","八尾市","272120005006","高安町北六丁目","34.620168","135.629203","0","3"
"27","大阪府","27212","八尾市","272120024003","弓削町南三丁目","34.595527","135.614029","0","3"
"27","大阪府","27212","八尾市","272120025003","跡部北の町三丁目","34.619880","135.583267","0","3"
"27","大阪府","27212","八尾市","272120009007","高安町南七丁目","34.617741","135.628999","0","3"
"27","大阪府","27212","八尾市","272120026001","志紀町南一丁目","34.596747","135.617982","0","3"
"27","大阪府","27212","八尾市","272120004004","曙川東四丁目","34.606516","135.626281","0","3"
"27","大阪府","27212","八尾市","272120017003","天王寺屋三丁目","34.603959","135.613659","0","3"
"27","大阪府","27212","八尾市","272120017004","天王寺屋四丁目","34.605271","135.613945","0","3"
"27","大阪府","27212","八尾市","272120002002","都塚二丁目","34.606238","135.623484","0","3"
"27","大阪府","27212","八尾市","272120005005","高安町北五丁目","34.621126","135.629235","0","3"
"27","大阪府","27212","八尾市","272120017007","天王寺屋七丁目","34.600862","135.615947","0","3"
"27","大阪府","27212","八尾市","272120027002","上之島町南二丁目","34.635040","135.622085","0","3"
"27","大阪府","27212","八尾市","272120028001","西木の本一丁目","34.602652","135.583992","0","3"
"27","大阪府","27212","八尾市","272120029004","新家町四丁目","34.645980","135.595233","0","3"
"27","大阪府","27212","八尾市","272120023004","山本町四丁目","34.632050","135.620412","0","3"
"27","大阪府","27212","八尾市","272120017006","天王寺屋六丁目","34.601353","135.616631","0","3"
"27","大阪府","27212","八尾市","272120030005","南亀井町五丁目","34.612923","135.577059","0","3"
"27","大阪府","27212","八尾市","272120011004","幸町四丁目","34.649079","135.606862","0","3"
"27","大阪府","27212","八尾市","272120007008","植松町八丁目","34.613509","135.591385","0","3"
"27","大阪府","27212","八尾市","272120031004","小阪合町四丁目","34.626887","135.617166","0","3"
"27","大阪府","27212","八尾市","272120011003","幸町三丁目","34.648128","135.606806","0","3"
"27","大阪府","27212","八尾市","272120004006","曙川東六丁目","34.604479","135.624501","0","3"
"27","大阪府","27212","八尾市","272120032002","山城町二丁目","34.633357","135.600367","0","3"
"27","大阪府","27212","八尾市","272120033005","西高安町五丁目","34.643964","135.633833","0","3"
"27","大阪府","27212","八尾市","272120034005","水越五丁目","34.633633","135.642857","0","3"
"27","大阪府","27212","八尾市","272120035002","荘内町二丁目","34.627061","135.608859","0","3"
"27","大阪府","27212","八尾市","272120021003","春日町三丁目","34.617351","135.591774","0","3"
"27","大阪府","27212","八尾市","272120036000","大字二俣","34.601077","135.620255","0","1"
"27","大阪府","27212","八尾市","272120029008","新家町八丁目","34.649125","135.595055","0","3"
"27","大阪府","27212","八尾市","272120007004","植松町四丁目","34.617320","135.594692","0","3"
"27","大阪府","27212","八尾市","272120009005","高安町南五丁目","34.614179","135.627028","0","3"
"27","大阪府","27212","八尾市","272120037003","相生町三丁目","34.611275","135.602983","0","3"
"27","大阪府","27212","八尾市","272120038003","亀井町三丁目","34.618011","135.577204","0","3"
"27","大阪府","27212","八尾市","272120039002","佐堂町二丁目","34.635785","135.592392","0","3"
"27","大阪府","27212","八尾市","272120004003","曙川東三丁目","34.606671","135.625288","0","3"
"27","大阪府","27212","八尾市","272120040005","竹渕西五丁目","34.621723","135.562868","0","3"
"27","大阪府","27212","八尾市","272120028002","西木の本二丁目","34.600842","135.584211","0","3"
"27","大阪府","27212","八尾市","272120041002","東山本町二丁目","34.629203","135.624070","0","3"
"27","大阪府","27212","八尾市","272120042001","南植松町一丁目","34.610444","135.597719","0","3"
"27","大阪府","27212","八尾市","272120022005","桂町五丁目","34.644332","135.613768","0","3"
"27","大阪府","27212","八尾市","272120023003","山本町三丁目","34.630843","135.620485","0","3"
"27","大阪府","27212","八尾市","272120038002","亀井町二丁目","34.617733","135.578319","0","3"
"27","大阪府","27212","八尾市","272120009003","高安町南三丁目","34.616288","135.626746","0","3"
"27","大阪府","27212","八尾市","272120043005","長池町五丁目","34.640378","135.614765","0","3"
"27","大阪府","27212","八尾市","272120027005","上之島町南五丁目","34.635018","135.625793","0","3"
"27","大阪府","27212","八尾市","272120039003","佐堂町三丁目","34.635241","135.590556","0","3"
"27","大阪府","27212","八尾市","272120041004","東山本町四丁目","34.630991","135.623496","0","3"
"27","大阪府","27212","八尾市","272120044002","緑ヶ丘二丁目","34.635235","135.609520","0","3"
"27","大阪府","27212","八尾市","272120038004","亀井町四丁目","34.618339","135.575814","0","3"
"27","大阪府","27212","八尾市","272120005003","高安町北三丁目","34.621217","135.626107","0","3"
"27","大阪府","27212","八尾市","272120027001","上之島町南一丁目","34.635030","135.621075","0","3"
"27","大阪府","27212","八尾市","272120030003","南亀井町三丁目","34.616139","135.574589","0","3"
"27","大阪府","27212","八尾市","272120045005","東町五丁目","34.630416","135.632661","0","3"
"27","大阪府","27212","八尾市","272120046007","渋川町七丁目","34.620959","135.589427","0","3"
"27","大阪府","27212","八尾市","272120047006","教興寺六丁目","34.617412","135.635229","0","3"
"27","大阪府","27212","八尾市","272120005001","高安町北一丁目","34.619243","135.626483","0","3"
"27","大阪府","27212","八尾市","272120048006","上之島町北六丁目","34.637921","135.628195","0","3"
"27","大阪府","27212","八尾市","272120049003","永畑町三丁目","34.612931","135.593604","0","3"
"27","大阪府","27212","八尾市","272120050001","東本町一丁目","34.626545","135.603438","0","3"
"27","大阪府","27212","八尾市","272120048004","上之島町北四丁目","34.637971","135.625863","0","3"
"27","大阪府","27212","八尾市","272120051006","東山本新町六丁目","34.622186","135.625785","0","3"
"27","大阪府","27212","八尾市","272120052002","山本町南二丁目","34.624208","135.618434","0","3"
"27","大阪府","27212","八尾市","272120053006","八尾木六丁目","34.606310","135.614757","0","3"
"27","大阪府","27212","八尾市","272120054003","竹渕三丁目","34.616316","135.568513","0","3"
"27","大阪府","27212","八尾市","272120009004","高安町南四丁目","34.615285","135.626910","0","3"
"27","大阪府","27212","八尾市","272120015003","末広町三丁目","34.632092","135.592790","0","3"
"27","大阪府","27212","八尾市","272120035001","荘内町一丁目","34.627173","135.607666","0","3"
"27","大阪府","27212","八尾市","272120051007","東山本新町七丁目","34.623205","135.627921","0","3"
"27","大阪府","27212","八尾市","272120005002","高安町北二丁目","34.620163","135.626354","0","3"
"27","大阪府","27212","八尾市","272120055004","福万寺町四丁目","34.646002","135.619864","0","3"
"27","大阪府","27212","八尾市","272120056001","北本町一丁目","34.631622","135.600289","0","3"
"27","大阪府","27212","八尾市","272120015001","末広町一丁目","34.630563","135.594042","0","3"
"27","大阪府","27212","八尾市","272120014001","安中町一丁目","34.620210","135.597677","0","3"
"27","大阪府","27212","八尾市","272120014004","安中町四丁目","34.617682","135.598216","0","3"
"27","大阪府","27212","八尾市","272120057001","山賀町一丁目","34.645111","135.602320","0","3"
"27","大阪府","27212","八尾市","272120044003","緑ヶ丘三丁目","34.635173","135.610645","0","3"
"27","大阪府","27212","八尾市","272120058005","太子堂五丁目","34.614850","135.583647","0","3"
"27","大阪府","27212","八尾市","272120015004","末広町四丁目","34.633831","135.590659","0","3"
"27","大阪府","27212","八尾市","272120059002","清水町二丁目","34.623055","135.601606","0","3"
"27","大阪府","27212","八尾市","272120060002","高美町二丁目","34.622452","135.608864","0","3"
"27","大阪府","27212","八尾市","272120027006","上之島町南六丁目","34.634943","135.626970","0","3"
"27","大阪府","27212","八尾市","272120046006","渋川町六丁目","34.622216","135.589343","0","3"
"27","大阪府","27212","八尾市","272120061002","福万寺町南二丁目","34.641017","135.619891","0","3"
"27","大阪府","27212","八尾市","272120062004","福万寺町北四丁目","34.648929","135.622456","0","3"
"27","大阪府","27212","八尾市","272120051005","東山本新町五丁目","34.623138","135.625601","0","3"
"27","大阪府","27212","八尾市","272120050005","東本町五丁目","34.627287","135.606459","0","3"
"27","大阪府","27212","八尾市","272120051004","東山本新町四丁目","34.624152","135.625322","0","3"
"27","大阪府","27212","八尾市","272120063001","楠根町一丁目","34.640096","135.602266","0","3"
"27","大阪府","27212","八尾市","272120064001","南木の本一丁目","34.604089","135.593946","0","3"
"27","大阪府","27212","八尾市","272120065002","竹渕東二丁目","34.615741","135.573282","0","3"
"27","大阪府","27212","八尾市","272120062003","福万寺町北三丁目","34.649933","135.620013","0","3"
"27","大阪府","27212","八尾市","272120027007","上之島町南七丁目","34.634861","135.628112","0","3"
"27","大阪府","27212","八尾市","272120061005","福万寺町南五丁目","34.641054","135.623481","0","3"
"27","大阪府","27212","八尾市","272120066002","上尾町二丁目","34.634754","135.630589","0","3"
"27","大阪府","27212","八尾市","272120039001","佐堂町一丁目","34.633929","135.592922","0","3"
"27","大阪府","27212","八尾市","272120016002","曙町二丁目","34.608700","135.609671","0","3"
"27","大阪府","27212","八尾市","272120046002","渋川町二丁目","34.622557","135.592816","0","3"
"27","大阪府","27212","八尾市","272120012003","南小阪合町三丁目","34.624680","135.616984","0","3"
"27","大阪府","27212","八尾市","272120057002","山賀町二丁目","34.644906","135.601165","0","3"
"27","大阪府","27212","八尾市","272120066003","上尾町三丁目","34.634835","135.631781","0","3"
"27","大阪府","27212","八尾市","272120041006","東山本町六丁目","34.628005","135.627346","0","3"
"27","大阪府","27212","八尾市","272120047003","教興寺三丁目","34.618203","135.631710","0","3"
"27","大阪府","27212","八尾市","272120029006","新家町六丁目","34.649150","135.597452","0","3"
"27","大阪府","27212","八尾市","272120066005","上尾町五丁目","34.638074","135.630501","0","3"
"27","大阪府","27212","八尾市","272120055001","福万寺町一丁目","34.643412","135.618450","0","3"
"27","大阪府","27212","八尾市","272120040001","竹渕西一丁目","34.620101","135.565634","0","3"
"27","大阪府","27212","八尾市","272120067002","南太子堂二丁目","34.611398","135.589368","0","3"
"27","大阪府","27212","八尾市","272120058003","太子堂三丁目","34.614052","135.587955","0","3"
"27","大阪府","27212","八尾市","272120021004","春日町四丁目","34.617380","135.590178","0","3"
"27","大阪府","27212","八尾市","272120042005","南植松町五丁目","34.610953","135.591750","0","3"
"27","大阪府","27212","八尾市","272120048005","上之島町北五丁目","34.637639","135.626882","0","3"
"27","大阪府","27212","八尾市","272120066007","上尾町七丁目","34.639953","135.630607","0","3"
"27","大阪府","27212","八尾市","272120010002","旭ヶ丘二丁目","34.630159","135.612484","0","3"
"27","大阪府","27212","八尾市","272120068001","恩智南町一丁目","34.604514","135.626633","0","3"
"27","大阪府","27212","八尾市","272120061003","福万寺町南三丁目","34.640976","135.621071","0","3"
"27","大阪府","27212","八尾市","272120009002","高安町南二丁目","34.617319","135.626611","0","3"
"27","大阪府","27212","八尾市","272120062006","福万寺町北六丁目","34.648882","135.624852","0","3"
"27","大阪府","27212","八尾市","272120046003","渋川町三丁目","34.621783","135.592506","0","3"
"27","大阪府","27212","八尾市","272120069002","東弓削二丁目","34.604717","135.618111","0","3"
"27","大阪府","27212","八尾市","272120054005","竹渕五丁目","34.619897","135.567197","0","3"
"27","大阪府","27212","八尾市","272120070006","萱振町六丁目","34.640855","135.604364","0","3"
"27","大阪府","27212","八尾市","272120066001","上尾町一丁目","34.635182","135.629336","0","3"
"27","大阪府","27212","八尾市","272120066006","上尾町六丁目","34.637839","135.632056","0","3"
"27","大阪府","27212","八尾市","272120061004","福万寺町南四丁目","34.640968","135.622295","0","3"
"27","大阪府","27212","八尾市","272120062002","福万寺町北二丁目","34.648924","135.620057","0","3"
"27","大阪府","27212","八尾市","272120032001","山城町一丁目","34.632461","135.598695","0","3"
"27","大阪府","27212","八尾市","272120062005","福万寺町北五丁目","34.648599","135.623657","0","3"
"27","大阪府","27212","八尾市","272120003005","垣内五丁目","34.615908","135.637124","0","3"
"27","大阪府","27212","八尾市","272120071001","栄町一丁目","34.624506","135.597143","0","3"
"27","大阪府","27212","八尾市","272120008003","桜ヶ丘三丁目","34.632352","135.607773","0","3"
"27","大阪府","27212","八尾市","272120042003","南植松町三丁目","34.610754","135.594123","0","3"
"27","大阪府","27212","八尾市","272120030001","南亀井町一丁目","34.615623","135.578847","0","3"
"27","大阪府","27212","八尾市","272120062001","福万寺町北一丁目","34.647964","135.619952","0","3"
"27","大阪府","27212","八尾市","272120072003","南久宝寺三丁目","34.622372","135.586325","0","3"
"27","大阪府","27212","八尾市","272120073001","跡部南の町一丁目","34.614561","135.581130","0","3"
"27","大阪府","27212","八尾市","272120016001","曙町一丁目","34.609624","135.609989","0","3"
"27","大阪府","27212","八尾市","272120015002","末広町二丁目","34.632138","135.594616","0","3"
"27","大阪府","27212","八尾市","272120051002","東山本新町二丁目","34.625147","135.625138","0","3"
"27","大阪府","27212","八尾市","272120068005","恩智南町五丁目","34.603904","135.633100","0","3"
"27","大阪府","27212","八尾市","272120066004","上尾町四丁目","34.637825","135.629401","0","3"
"27","大阪府","27212","八尾市","272120074003","福栄町三丁目","34.641197","135.628238","0","3"
"27","大阪府","27212","八尾市","272120038001","亀井町一丁目","34.617426","135.579563","0","3"
"27","大阪府","27212","八尾市","272120042004","南植松町四丁目","34.610871","135.592902","0","3"
"27","大阪府","27212","八尾市","272120029007","新家町七丁目","34.649136","135.596260","0","3"
"27","大阪府","27212","八尾市","272120031002","小阪合町二丁目","34.626217","135.613634","0","3"
"27","大阪府","27212","八尾市","272120029001","新家町一丁目","34.645082","135.598630","0","3"
"27","大阪府","27212","八尾市","272120075002","宮町二丁目","34.633973","135.595104","0","3"
"27","大阪府","27212","八尾市","272120027004","上之島町南四丁目","34.635025","135.624568","0","3"
"27","大阪府","27212","八尾市","272120076003","楽音寺三丁目","34.642549","135.639101","0","3"
"27","大阪府","27212","八尾市","272120067001","南太子堂一丁目","34.611394","135.590590","0","3"
"27","大阪府","27212","八尾市","272120004008","曙川東八丁目","34.601545","135.622221","0","3"
"27","大阪府","27212","八尾市","272120057003","山賀町三丁目","34.645074","135.599913","0","3"
"27","大阪府","27212","八尾市","272120033001","西高安町一丁目","34.634834","135.633067","0","3"
"27","大阪府","27212","八尾市","272120009001","高安町南一丁目","34.618209","135.626282","0","3"
"27","大阪府","27212","八尾市","272120077002","光南町二丁目","34.622969","135.599330","0","3"
"27","大阪府","27212","八尾市","272120073002","跡部南の町二丁目","34.612889","135.581165","0","3"
"27","大阪府","27212","八尾市","272120078002","高砂町二丁目","34.647454","135.612736","0","3"
"27","大阪府","27212","八尾市","272120079001","松山町一丁目","34.621366","135.603761","0","3"
"27","大阪府","27212","八尾市","272120080003","中田三丁目","34.617781","135.611489","0","3"
"27","大阪府","27212","八尾市","272120040002","竹渕西二丁目","34.617525","135.565187","0","3"
"27","大阪府","27212","八尾市","272120081004","山本町北四丁目","34.639104","135.617786","0","3"
"27","大阪府","27212","八尾市","272120031003","小阪合町三丁目","34.626936","135.615633","0","3"
"27","大阪府","27212","八尾市","272120081008","山本町北八丁目","34.647310","135.617041","0","3"
"27","大阪府","27212","八尾市","272120082003","北木の本三丁目","34.607692","135.591802","0","3"
"27","大阪府","27212","八尾市","272120059001","清水町一丁目","34.624804","135.601512","0","3"
"27","大阪府","27212","八尾市","272120041003","東山本町三丁目","34.629631","135.622133","0","3"
"27","大阪府","27212","八尾市","272120046005","渋川町五丁目","34.619418","135.592493","0","3"
"27","大阪府","27212","八尾市","272120007006","植松町六丁目","34.614703","135.596710","0","3"
"27","大阪府","27212","八尾市","272120022001","桂町一丁目","34.644769","135.607261","0","3"
"27","大阪府","27212","八尾市","272120083001","八尾木北一丁目","34.615527","135.611191","0","3"
"27","大阪府","27212","八尾市","272120067005","南太子堂五丁目","34.610810","135.583824","0","3"
"27","大阪府","27212","八尾市","272120084001","小畑町一丁目","34.642248","135.607801","0","3"
"27","大阪府","27212","八尾市","272120061006","福万寺町南六丁目","34.640948","135.624703","0","3"
"27","大阪府","27212","八尾市","272120007007","植松町七丁目","34.614327","135.594003","0","3"
"27","大阪府","27212","八尾市","272120047005","教興寺五丁目","34.616183","135.631533","0","3"
"27","大阪府","27212","八尾市","272120013004","跡部本町四丁目","34.617064","135.580699","0","3"
"27","大阪府","27212","八尾市","272120028003","西木の本三丁目","34.601149","135.582297","0","3"
"27","大阪府","27212","八尾市","272120085002","西山本町二丁目","34.629062","135.617859","0","3"
"27","大阪府","27212","八尾市","272120016003","曙町三丁目","34.607192","135.612541","0","3"
"27","大阪府","27212","八尾市","272120081005","山本町北五丁目","34.641168","135.616590","0","3"
"27","大阪府","27212","八尾市","272120028004","西木の本四丁目","34.600006","135.581656","0","3"
"27","大阪府","27212","八尾市","272120047002","教興寺二丁目","34.619293","135.632025","0","3"
"27","大阪府","27212","八尾市","272120086003","弓削町三丁目","34.598017","135.614844","0","3"
"27","大阪府","27212","八尾市","272120087003","南本町三丁目","34.623078","135.605784","0","3"
"27","大阪府","27212","八尾市","272120033003","西高安町三丁目","34.640308","135.633463","0","3"
"27","大阪府","27212","八尾市","272120071002","栄町二丁目","34.622687","135.596721","0","3"
"27","大阪府","27212","八尾市","272120085007","西山本町七丁目","34.631916","135.618531","0","3"
"27","大阪府","27212","八尾市","272120037002","相生町二丁目","34.612009","135.600960","0","3"
"27","大阪府","27212","八尾市","272120034004","水越四丁目","34.635765","135.639013","0","3"
"27","大阪府","27212","八尾市","272120050004","東本町四丁目","34.627234","135.605245","0","3"
"27","大阪府","27212","八尾市","272120034007","水越七丁目","34.633286","135.645764","0","3"
"27","大阪府","27212","八尾市","272120069003","東弓削三丁目","34.602613","135.618485","0","3"
"27","大阪府","27212","八尾市","272120023005","山本町五丁目","34.633537","135.619896","0","3"
"27","大阪府","27212","八尾市","272120003002","垣内二丁目","34.614762","135.632626","0","3"
"27","大阪府","27212","八尾市","272120027003","上之島町南三丁目","34.635013","135.623252","0","3"
"27","大阪府","27212","八尾市","272120088002","八尾木東二丁目","34.608785","135.617568","0","3"
"27","大阪府","27212","八尾市","272120089001","明美町一丁目","34.621315","135.601689","0","3"
"27","大阪府","27212","八尾市","272120025001","跡部北の町一丁目","34.619328","135.587363","0","3"
"27","大阪府","27212","八尾市","272120080005","中田五丁目","34.617707","135.616583","0","3"
"27","大阪府","27212","八尾市","272120081001","山本町北一丁目","34.634554","135.619167","0","3"
"27","大阪府","27212","八尾市","272120003004","垣内四丁目","34.614432","135.636209","0","3"
"27","大阪府","27212","八尾市","272120064008","南木の本八丁目","34.597870","135.589952","0","3"
"27","大阪府","27212","八尾市","272120079002","松山町二丁目","34.619350","135.603870","0","3"
"27","大阪府","27212","八尾市","272120090001","東老原一丁目","34.606819","135.606145","0","3"
"27","大阪府","27212","八尾市","272120076004","楽音寺四丁目","34.643656","135.639506","0","3"
"27","大阪府","27212","八尾市","272120055005","福万寺町五丁目","34.646881","135.619885","0","3"
"27","大阪府","27212","八尾市","272120014005","安中町五丁目","34.616118","135.600543","0","3"
"27","大阪府","27212","八尾市","272120091000","大字八尾木","34.609775","135.619216","0","1"
"27","大阪府","27212","八尾市","272120058001","太子堂一丁目","34.616875","135.588014","0","3"
"27","大阪府","27212","八尾市","272120055003","福万寺町三丁目","34.644940","135.619680","0","3"
"27","大阪府","27212","八尾市","272120051003","東山本新町三丁目","34.625936","135.627584","0","3"
"27","大阪府","27212","八尾市","272120050002","東本町二丁目","34.627775","135.603031","0","3"
"27","大阪府","27212","八尾市","272120074004","福栄町四丁目","34.643493","135.627977","0","3"
"27","大阪府","27212","八尾市","272120082001","北木の本一丁目","34.607504","135.594292","0","3"
"27","大阪府","27212","八尾市","272120060007","高美町七丁目","34.611350","135.608630","0","3"
"27","大阪府","27212","八尾市","272120092001","田井中一丁目","34.601962","135.601790","0","3"
"27","大阪府","27212","八尾市","272120021001","春日町一丁目","34.618937","135.590517","0","3"
"27","大阪府","27212","八尾市","272120010001","旭ヶ丘一丁目","34.630263","135.611155","0","3"
"27","大阪府","27212","八尾市","272120077001","光南町一丁目","34.624713","135.599240","0","3"
"27","大阪府","27212","八尾市","272120022002","桂町二丁目","34.646191","135.607237","0","3"
"27","大阪府","27212","八尾市","272120051009","東山本新町九丁目","34.626708","135.630419","0","3"
"27","大阪府","27212","八尾市","272120022006","桂町六丁目","34.645611","135.612671","0","3"
"27","大阪府","27212","八尾市","272120040003","竹渕西三丁目","34.617626","135.563153","0","3"
"27","大阪府","27212","八尾市","272120085006","西山本町六丁目","34.631702","135.617373","0","3"
"27","大阪府","27212","八尾市","272120041007","東山本町七丁目","34.629551","135.626459","0","3"
"27","大阪府","27212","八尾市","272120043001","長池町一丁目","34.639096","135.608302","0","3"
"27","大阪府","27212","八尾市","272120093001","堤町一丁目","34.634637","135.615530","0","3"
"27","大阪府","27212","八尾市","272120094002","老原二丁目","34.609885","135.601895","0","3"
"27","大阪府","27212","八尾市","272120034008","水越八丁目","34.635018","135.645500","0","3"
"27","大阪府","27212","八尾市","272120049002","永畑町二丁目","34.612761","135.595984","0","3"
"27","大阪府","27212","八尾市","272120064005","南木の本五丁目","34.601884","135.591862","0","3"
"27","大阪府","27212","八尾市","272120029003","新家町三丁目","34.645551","135.596270","0","3"
"27","大阪府","27212","八尾市","272120089002","明美町二丁目","34.619274","135.601798","0","3"
"27","大阪府","27212","八尾市","272120054001","竹渕一丁目","34.619115","135.568929","0","3"
"27","大阪府","27212","八尾市","272120048002","上之島町北二丁目","34.637991","135.622390","0","3"
"27","大阪府","27212","八尾市","272120095001","美園町一丁目","34.636424","135.593077","0","3"
"27","大阪府","27212","八尾市","272120088001","八尾木東一丁目","34.610807","135.617540","0","3"
"27","大阪府","27212","八尾市","272120082002","北木の本二丁目","34.608989","135.591768","0","3"
"27","大阪府","27212","八尾市","272120074002","福栄町二丁目","34.641630","135.627084","0","3"
"27","大阪府","27212","八尾市","272120096003","黒谷三丁目","34.618521","135.638911","0","3"
"27","大阪府","27212","八尾市","272120096004","黒谷四丁目","34.617148","135.638458","0","3"
"27","大阪府","27212","八尾市","272120070004","萱振町四丁目","34.639576","135.604320","0","3"
"27","大阪府","27212","八尾市","272120080001","中田一丁目","34.618945","135.612819","0","3"
"27","大阪府","27212","八尾市","272120068004","恩智南町四丁目","34.605187","135.633406","0","3"
"27","大阪府","27212","八尾市","272120050003","東本町三丁目","34.629420","135.602806","0","3"
"27","大阪府","27212","八尾市","272120012002","南小阪合町二丁目","34.624670","135.614964","0","3"
"27","大阪府","27212","八尾市","272120020002","青山町二丁目","34.623976","135.610716","0","3"
"27","大阪府","27212","八尾市","272120087005","南本町五丁目","34.619900","135.606481","0","3"
"27","大阪府","27212","八尾市","272120008002","桜ヶ丘二丁目","34.629774","135.609848","0","3"
"27","大阪府","27212","八尾市","272120008001","桜ヶ丘一丁目","34.629581","135.608102","0","3"
"27","大阪府","27212","八尾市","272120066008","上尾町八丁目","34.641468","135.629756","0","3"
"27","大阪府","27212","八尾市","272120047004","教興寺四丁目","34.617324","135.631616","0","3"
"27","大阪府","27212","八尾市","272120057004","山賀町四丁目","34.648586","135.602265","0","3"
"27","大阪府","27212","八尾市","272120097003","北久宝寺三丁目","34.631377","135.583812","0","3"
"27","大阪府","27212","八尾市","272120053002","八尾木二丁目","34.610626","135.613352","0","3"
"27","大阪府","27212","八尾市","272120014006","安中町六丁目","34.617164","135.601542","0","3"
"27","大阪府","27212","八尾市","272120098001","千塚一丁目","34.632385","135.634720","0","3"
"27","大阪府","27212","八尾市","272120099001","東久宝寺一丁目","34.626655","135.594525","0","3"
"27","大阪府","27212","八尾市","272120045003","東町三丁目","34.630527","135.630357","0","3"
"27","大阪府","27212","八尾市","272120100001","陽光園一丁目","34.621210","135.599421","0","3"
"27","大阪府","27212","八尾市","272120092002","田井中二丁目","34.601967","135.604220","0","3"
"27","大阪府","27212","八尾市","272120065003","竹渕東三丁目","34.615791","135.572143","0","3"
"27","大阪府","27212","八尾市","272120012005","南小阪合町五丁目","34.622701","135.616559","0","3"
"27","大阪府","27212","八尾市","272120032003","山城町三丁目","34.636315","135.601015","0","3"
"27","大阪府","27212","八尾市","272120033004","西高安町四丁目","34.642275","135.633613","0","3"
"27","大阪府","27212","八尾市","272120101001","久宝園一丁目","34.636357","135.589428","0","3"
"27","大阪府","27212","八尾市","272120061001","福万寺町南一丁目","34.641031","135.618473","0","3"
"27","大阪府","27212","八尾市","272120020005","青山町五丁目","34.620557","135.614063","0","3"
"27","大阪府","27212","八尾市","272120025002","跡部北の町二丁目","34.619625","135.584880","0","3"
"27","大阪府","27212","八尾市","272120085005","西山本町五丁目","34.631648","135.616203","0","3"
"27","大阪府","27212","八尾市","272120102002","太田新町二丁目","34.594545","135.591184","0","3"
"27","大阪府","27212","八尾市","272120043004","長池町四丁目","34.639369","135.614959","0","3"
"27","大阪府","27212","八尾市","272120103002","泉町二丁目","34.647553","135.604153","0","3"
"27","大阪府","27212","八尾市","272120055002","福万寺町二丁目","34.643500","135.620552","0","3"
"27","大阪府","27212","八尾市","272120054002","竹渕二丁目","34.615797","135.569762","0","3"
"27","大阪府","27212","八尾市","272120063003","楠根町三丁目","34.640055","135.598863","0","3"
"27","大阪府","27212","八尾市","272120085003","西山本町三丁目","34.631675","135.613740","0","3"
"27","大阪府","27212","八尾市","272120063004","楠根町四丁目","34.642564","135.601732","0","3"
"27","大阪府","27212","八尾市","272120104004","大竹四丁目","34.638453","135.638889","0","3"
"27","大阪府","27212","八尾市","272120099002","東久宝寺二丁目","34.629495","135.592876","0","3"
"27","大阪府","27212","八尾市","272120045006","東町六丁目","34.632923","135.631070","0","3"
"27","大阪府","27212","八尾市","272120046004","渋川町四丁目","34.620474","135.592358","0","3"
"27","大阪府","27212","八尾市","272120045004","東町四丁目","34.630433","135.631566","0","3"
"27","大阪府","27212","八尾市","272120026003","志紀町南三丁目","34.594393","135.617856","0","3"
"27","大阪府","27212","八尾市","272120060005","高美町五丁目","34.615866","135.609241","0","3"
"27","大阪府","27212","八尾市","272120057005","山賀町五丁目","34.648612","135.601093","0","3"
"27","大阪府","27212","八尾市","272120031001","小阪合町一丁目","34.627501","135.613033","0","3"
"27","大阪府","27212","八尾市","272120097002","北久宝寺二丁目","34.631371","135.586198","0","3"
"27","大阪府","27212","八尾市","272120085004","西山本町四丁目","34.631654","135.614968","0","3"
"27","大阪府","27212","八尾市","272120088003","八尾木東三丁目","34.606672","135.617912","0","3"
"27","大阪府","27212","八尾市","272120105001","柏村町一丁目","34.614534","135.622576","0","3"
"27","大阪府","27212","八尾市","272120078004","高砂町四丁目","34.648104","135.614257","0","3"
"27","大阪府","27212","八尾市","272120006002","志紀町二丁目","34.600501","135.612752","0","3"
"27","大阪府","27212","八尾市","272120083003","八尾木北三丁目","34.615738","135.616481","0","3"
"27","大阪府","27212","八尾市","272120010005","旭ヶ丘五丁目","34.633253","135.610820","0","3"
"27","大阪府","27212","八尾市","272120106001","本町一丁目","34.627277","135.600854","0","3"
"27","大阪府","27212","八尾市","272120029002","新家町二丁目","34.645554","135.597395","0","3"
"27","大阪府","27212","八尾市","272120106004","本町四丁目","34.628842","135.595578","0","3"
"27","大阪府","27212","八尾市","272120017001","天王寺屋一丁目","34.608097","135.608099","0","3"
"27","大阪府","27212","八尾市","272120045002","東町二丁目","34.630429","135.629092","0","3"
"27","大阪府","27212","八尾市","272120053003","八尾木三丁目","34.608735","135.613303","0","3"
"27","大阪府","27212","八尾市","272120013003","跡部本町三丁目","34.616803","135.581904","0","3"
"27","大阪府","27212","八尾市","272120104008","大竹八丁目","34.637347","135.645482","0","3"
"27","大阪府","27212","八尾市","272120033002","西高安町二丁目","34.637846","135.633341","0","3"
"27","大阪府","27212","八尾市","272120060003","高美町三丁目","34.620206","135.609050","0","3"
"27","大阪府","27212","八尾市","272120044004","緑ヶ丘四丁目","34.637152","135.610671","0","3"
"27","大阪府","27212","八尾市","272120106006","本町六丁目","34.631109","135.596552","0","3"
"27","大阪府","27212","八尾市","272120107009","服部川九丁目","34.622625","135.644207","0","3"
"27","大阪府","27212","八尾市","272120069001","東弓削一丁目","34.602844","135.616785","0","3"
"27","大阪府","27212","八尾市","272120052006","山本町南六丁目","34.622634","135.620693","0","3"
"27","大阪府","27212","八尾市","272120045001","東町一丁目","34.627817","135.630607","0","3"
"27","大阪府","27212","八尾市","272120056004","北本町四丁目","34.636327","135.602059","0","3"
"27","大阪府","27212","八尾市","272120053001","八尾木一丁目","34.610399","135.611106","0","3"
"27","大阪府","27212","八尾市","272120065004","竹渕東四丁目","34.615828","135.570963","0","3"
"27","大阪府","27212","八尾市","272120107002","服部川二丁目","34.625221","135.637055","0","3"
"27","大阪府","27212","八尾市","272120060004","高美町四丁目","34.618089","135.609240","0","3"
"27","大阪府","27212","八尾市","272120057006","山賀町六丁目","34.648662","135.599875","0","3"
"27","大阪府","27212","八尾市","272120005004","高安町北四丁目","34.622515","135.630032","0","3"
"27","大阪府","27212","八尾市","272120108003","郡川三丁目","34.622510","135.636122","0","3"
"27","大阪府","27212","八尾市","272120105004","柏村町四丁目","34.611813","135.624791","0","3"
"27","大阪府","27212","八尾市","272120014002","安中町二丁目","34.620061","135.596388","0","3"
"27","大阪府","27212","八尾市","272120002004","都塚四丁目","34.604130","135.622238","0","3"
"27","大阪府","27212","八尾市","272120081003","山本町北三丁目","34.637405","135.618339","0","3"
"27","大阪府","27212","八尾市","272120032004","山城町四丁目","34.636287","135.599911","0","3"
"27","大阪府","27212","八尾市","272120081002","山本町北二丁目","34.635617","135.618472","0","3"
"27","大阪府","27212","八尾市","272120075001","宮町一丁目","34.632927","135.596825","0","3"
"27","大阪府","27212","八尾市","272120041009","東山本町九丁目","34.630987","135.627987","0","3"
"27","大阪府","27212","八尾市","272120093003","堤町三丁目","34.637621","135.615218","0","3"
"27","大阪府","27212","八尾市","272120081007","山本町北七丁目","34.645565","135.616216","0","3"
"27","大阪府","27212","八尾市","272120081006","山本町北六丁目","34.643480","135.616483","0","3"
"27","大阪府","27212","八尾市","272120037001","相生町一丁目","34.613136","135.601872","0","3"
"27","大阪府","27212","八尾市","272120043003","長池町三丁目","34.639976","135.610894","0","3"
"27","大阪府","27212","八尾市","272120058004","太子堂四丁目","34.614066","135.586075","0","3"
"27","大阪府","27212","八尾市","272120109003","神立三丁目","34.634825","135.648404","0","3"
"27","大阪府","27212","八尾市","272120003001","垣内一丁目","34.614687","135.630211","0","3"
"27","大阪府","27212","八尾市","272120003003","垣内三丁目","34.615178","135.634156","0","3"
"27","大阪府","27212","八尾市","272120080004","中田四丁目","34.617719","135.614058","0","3"
"27","大阪府","27212","八尾市","272120104002","大竹二丁目","34.640271","135.635835","0","3"
"27","大阪府","27212","八尾市","272120092003","田井中三丁目","34.602942","135.606222","0","3"
"27","大阪府","27212","八尾市","272120110001","恩智中町一丁目","34.608676","135.626894","0","3"
"27","大阪府","27212","八尾市","272120076005","楽音寺五丁目","34.643201","135.642269","0","3"
"27","大阪府","27212","八尾市","272120034003","水越三丁目","34.634868","135.638903","0","3"
"27","大阪府","27212","八尾市","272120082004","北木の本四丁目","34.606469","135.591768","0","3"
"27","大阪府","27212","八尾市","272120111005","久宝寺五丁目","34.626503","135.585376","0","3"
"27","大阪府","27212","八尾市","272120087002","南本町二丁目","34.623876","135.604812","0","3"
"27","大阪府","27212","八尾市","272120029005","新家町五丁目","34.648695","135.598613","0","3"
"27","大阪府","27212","八尾市","272120024001","弓削町南一丁目","34.595138","135.610252","0","3"
"27","大阪府","27212","八尾市","272120112002","北亀井町二丁目","34.619947","135.576731","0","3"
"27","大阪府","27212","八尾市","272120105003","柏村町三丁目","34.610793","135.623365","0","3"
"27","大阪府","27212","八尾市","272120074001","福栄町一丁目","34.642003","135.625941","0","3"
"27","大阪府","27212","八尾市","272120063005","楠根町五丁目","34.642580","135.599255","0","3"
"27","大阪府","27212","八尾市","272120023001","山本町一丁目","34.628088","135.619661","0","3"
"27","大阪府","27212","八尾市","272120113000","大字東弓削","34.602483","135.620269","0","1"
"27","大阪府","27212","八尾市","272120084004","小畑町四丁目","34.642419","135.614308","0","3"
"27","大阪府","27212","八尾市","272120114008","太田八丁目","34.586622","135.596677","0","3"
"27","大阪府","27212","八尾市","272120046001","渋川町一丁目","34.624362","135.592568","0","3"
"27","大阪府","27212","八尾市","272120092004","田井中四丁目","34.600091","135.604719","0","3"
"27","大阪府","27212","八尾市","272120094006","老原六丁目","34.606888","135.599321","0","3"
"27","大阪府","27212","八尾市","272120040004","竹渕西四丁目","34.619774","135.563494","0","3"
"27","大阪府","27212","八尾市","272120078005","高砂町五丁目","34.648119","135.615473","0","3"
"27","大阪府","27212","八尾市","272120076002","楽音寺二丁目","34.641110","135.640389","0","3"
"27","大阪府","27212","八尾市","272120083004","八尾木北四丁目","34.613360","135.611350","0","3"
"27","大阪府","27212","八尾市","272120093002","堤町二丁目","34.636510","135.615057","0","3"
"27","大阪府","27212","八尾市","272120108004","郡川四丁目","34.621158","135.640286","0","3"
"27","大阪府","27212","八尾市","272120103003","泉町三丁目","34.649322","135.604102","0","3"
"27","大阪府","27212","八尾市","272120053005","八尾木五丁目","34.606872","135.615832","0","3"
"27","大阪府","27212","八尾市","272120060001","高美町一丁目","34.624459","135.608284","0","3"
"27","大阪府","27212","八尾市","272120099003","東久宝寺三丁目","34.631965","135.590763","0","3"
"27","大阪府","27212","八尾市","272120013001","跡部本町一丁目","34.617446","135.584425","0","3"
"27","大阪府","27212","八尾市","272120106002","本町二丁目","34.626795","135.599161","0","3"
"27","大阪府","27212","八尾市","272120075006","宮町六丁目","34.641059","135.596345","0","3"
"27","大阪府","27212","八尾市","272120100002","陽光園二丁目","34.618972","135.599470","0","3"
"27","大阪府","27212","八尾市","272120108005","郡川五丁目","34.622872","135.640248","0","3"
"27","大阪府","27212","八尾市","272120032005","山城町五丁目","34.636342","135.598712","0","3"
"27","大阪府","27212","八尾市","272120115005","神宮寺五丁目","34.601869","135.633095","0","3"
"27","大阪府","27212","八尾市","272120054004","竹渕四丁目","34.617313","135.567002","0","3"
"27","大阪府","27212","八尾市","272120107007","服部川七丁目","34.624424","135.642748","0","3"
"27","大阪府","27212","八尾市","272120064006","南木の本六丁目","34.600122","135.590981","0","3"
"27","大阪府","27212","八尾市","272120075004","宮町四丁目","34.636397","135.596280","0","3"
"27","大阪府","27212","八尾市","272120052001","山本町南一丁目","34.626866","135.619119","0","3"
"27","大阪府","27212","八尾市","272120075003","宮町三丁目","34.636355","135.597492","0","3"
"27","大阪府","27212","八尾市","272120116002","東太子二丁目","34.614089","135.589906","0","3"
"27","大阪府","27212","八尾市","272120007002","植松町二丁目","34.614689","135.599010","0","3"
"27","大阪府","27212","八尾市","272120052004","山本町南四丁目","34.625995","135.621777","0","3"
"27","大阪府","27212","八尾市","272120070003","萱振町三丁目","34.637369","135.604397","0","3"
"27","大阪府","27212","八尾市","272120116001","東太子一丁目","34.616324","135.589378","0","3"
"27","大阪府","27212","八尾市","272120083002","八尾木北二丁目","34.615826","135.613894","0","3"
"27","大阪府","27212","八尾市","272120053004","八尾木四丁目","34.610150","135.615508","0","3"
"27","大阪府","27212","八尾市","272120068002","恩智南町二丁目","34.605735","135.629729","0","3"
"27","大阪府","27212","八尾市","272120106007","本町七丁目","34.630179","135.600285","0","3"
"27","大阪府","27212","八尾市","272120086001","弓削町一丁目","34.599503","135.613170","0","3"
"27","大阪府","27212","八尾市","272120034006","水越六丁目","34.635170","135.643031","0","3"
"27","大阪府","27212","八尾市","272120097001","北久宝寺一丁目","34.631400","135.588737","0","3"
"27","大阪府","27212","八尾市","272120087001","南本町一丁目","34.624875","135.604791","0","3"
"27","大阪府","27212","八尾市","272120109002","神立二丁目","34.632910","135.650821","0","3"
"27","大阪府","27212","八尾市","272120087007","南本町七丁目","34.616109","135.606692","0","3"
"27","大阪府","27212","八尾市","272120070002","萱振町二丁目","34.637947","135.606814","0","3"
"27","大阪府","27212","八尾市","272120106005","本町五丁目","34.629456","135.598179","0","3"
"27","大阪府","27212","八尾市","272120075005","宮町五丁目","34.641041","135.597436","0","3"
"27","大阪府","27212","八尾市","272120080002","中田二丁目","34.619187","135.618262","0","3"
"27","大阪府","27212","八尾市","272120047007","教興寺七丁目","34.618738","135.634966","0","3"
"27","大阪府","27212","八尾市","272120117000","若草町","34.627031","135.610487","0","1"
"27","大阪府","27212","八尾市","272120020003","青山町三丁目","34.622974","135.613085","0","3"
"27","大阪府","27212","八尾市","272120052005","山本町南五丁目","34.622662","135.622230","0","3"
"27","大阪府","27212","八尾市","272120087004","南本町四丁目","34.621937","135.606351","0","3"
"27","大阪府","27212","八尾市","272120118002","山本高安町二丁目","34.617608","135.623310","0","3"
"27","大阪府","27212","八尾市","272120055006","福万寺町六丁目","34.644984","135.622389","0","3"
"27","大阪府","27212","八尾市","272120070001","萱振町一丁目","34.635181","135.605931","0","3"
"27","大阪府","27212","八尾市","272120119003","刑部三丁目","34.613293","135.618515","0","3"
"27","大阪府","27212","八尾市","272120066009","上尾町九丁目","34.642946","135.630106","0","3"
"27","大阪府","27212","八尾市","272120042002","南植松町二丁目","34.610655","135.595934","0","3"
"27","大阪府","27212","八尾市","272120014009","安中町九丁目","34.614324","135.603402","0","3"
"27","大阪府","27212","八尾市","272120120001","光町一丁目","34.631809","135.603985","0","3"
"27","大阪府","27212","八尾市","272120104006","大竹六丁目","34.637123","135.643033","0","3"
"27","大阪府","27212","八尾市","272120051001","東山本新町一丁目","34.626476","135.624479","0","3"
"27","大阪府","27212","八尾市","272120044001","緑ヶ丘一丁目","34.635740","135.608104","0","3"
"27","大阪府","27212","八尾市","272120056003","北本町三丁目","34.635797","135.603382","0","3"
"27","大阪府","27212","八尾市","272120109006","神立六丁目","34.638208","135.647980","0","3"
"27","大阪府","27212","八尾市","272120055007","福万寺町七丁目","34.645023","135.623593","0","3"
"27","大阪府","27212","八尾市","272120121000","高町","34.623616","135.594964","0","1"
"27","大阪府","27212","八尾市","272120070007","萱振町七丁目","34.642405","135.604439","0","3"
"27","大阪府","27212","八尾市","272120052003","山本町南三丁目","34.624289","135.620132","0","3"
"27","大阪府","27212","八尾市","272120112001","北亀井町一丁目","34.619684","135.580116","0","3"
"27","大阪府","27212","八尾市","272120109004","神立四丁目","34.636151","135.647756","0","3"
"27","大阪府","27212","八尾市","272120017002","天王寺屋二丁目","34.604599","135.612130","0","3"
"27","大阪府","27212","八尾市","272120065001","竹渕東一丁目","34.618669","135.571688","0","3"
"27","大阪府","27212","八尾市","272120070005","萱振町五丁目","34.641752","135.606595","0","3"
"27","大阪府","27212","八尾市","272120087008","南本町八丁目","34.613726","135.606795","0","3"
"27","大阪府","27212","八尾市","272120122003","二俣三丁目","34.597146","135.618648","0","3"
"27","大阪府","27212","八尾市","272120109005","神立五丁目","34.635666","135.651009","0","3"
"27","大阪府","27212","八尾市","272120085001","西山本町一丁目","34.628936","135.614870","0","3"
"27","大阪府","27212","八尾市","272120052008","山本町南八丁目","34.620728","135.616405","0","3"
"27","大阪府","27212","八尾市","272120030002","南亀井町二丁目","34.616499","135.576359","0","3"
"27","大阪府","27212","八尾市","272120018001","木の本一丁目","34.600331","135.587908","0","3"
"27","大阪府","27212","八尾市","272120096002","黒谷二丁目","34.619918","135.639502","0","3"
"27","大阪府","27212","八尾市","272120007005","植松町五丁目","34.615487","135.593968","0","3"
"27","大阪府","27212","八尾市","272120114004","太田四丁目","34.589715","135.589415","0","3"
"27","大阪府","27212","八尾市","272120058002","太子堂二丁目","34.616885","135.586608","0","3"
"27","大阪府","27212","八尾市","272120109001","神立一丁目","34.632822","135.648316","0","3"
"27","大阪府","27212","八尾市","272120063002","楠根町二丁目","34.640046","135.600683","0","3"
"27","大阪府","27212","八尾市","272120034002","水越二丁目","34.633704","135.638766","0","3"
"27","大阪府","27212","八尾市","272120055008","福万寺町八丁目","34.645064","135.624810","0","3"
"27","大阪府","27212","八尾市","272120078003","高砂町三丁目","34.649299","135.612339","0","3"
"27","大阪府","27212","八尾市","272120076007","楽音寺七丁目","34.643077","135.645054","0","3"
"27","大阪府","27212","八尾市","272120108002","郡川二丁目","34.623261","135.637693","0","3"
"27","大阪府","27212","八尾市","272120041001","東山本町一丁目","34.627955","135.623917","0","3"
"27","大阪府","27212","八尾市","272120106003","本町三丁目","34.626788","135.596680","0","3"
"27","大阪府","27212","八尾市","272120067003","南太子堂三丁目","34.611153","135.587750","0","3"
"27","大阪府","27212","八尾市","272120006001","志紀町一丁目","34.602840","135.612250","0","3"
"27","大阪府","27212","八尾市","272120064007","南木の本七丁目","34.600518","135.589131","0","3"
"27","大阪府","27212","八尾市","272120048003","上之島町北三丁目","34.638000","135.624230","0","3"
"27","大阪府","27212","八尾市","272120014008","安中町八丁目","34.615807","135.603900","0","3"
"27","大阪府","27212","八尾市","272120101003","久宝園三丁目","34.638360","135.587465","0","3"
"27","大阪府","27212","八尾市","272120064003","南木の本三丁目","34.605368","135.588381","0","3"
"27","大阪府","27212","八尾市","272120105002","柏村町二丁目","34.615286","135.624244","0","3"
"27","大阪府","27212","八尾市","272120084003","小畑町三丁目","34.642172","135.612094","0","3"
"27","大阪府","27212","八尾市","272120048001","上之島町北一丁目","34.638007","135.620522","0","3"
"27","大阪府","27212","八尾市","272120067006","南太子堂六丁目","34.613500","135.583852","0","3"
"27","大阪府","27212","八尾市","272120122001","二俣一丁目","34.598642","135.618972","0","3"
"27","大阪府","27212","八尾市","272120030004","南亀井町四丁目","34.613342","135.578905","0","3"
"27","大阪府","27212","八尾市","272120078001","高砂町一丁目","34.648081","135.610777","0","3"
"27","大阪府","27212","八尾市","272120123001","西弓削一丁目","34.595905","135.608285","0","3"
"27","大阪府","27212","八尾市","272120111004","久宝寺四丁目","34.626242","135.588700","0","3"
"27","大阪府","27212","八尾市","272120049001","永畑町一丁目","34.612485","135.598528","0","3"
"27","大阪府","27212","八尾市","272120087009","南本町九丁目","34.611894","135.605809","0","3"
"27","大阪府","27212","八尾市","272120107003","服部川三丁目","34.626519","135.637172","0","3"
"27","大阪府","27212","八尾市","272120102004","太田新町四丁目","34.594216","135.595518","0","3"
"27","大阪府","27212","八尾市","272120087006","南本町六丁目","34.618222","135.606565","0","3"
"27","大阪府","27212","八尾市","272120026002","志紀町南二丁目","34.597210","135.616520","0","3"
"27","大阪府","27212","八尾市","272120114002","太田二丁目","34.591528","135.592142","0","3"
"27","大阪府","27212","八尾市","272120060006","高美町六丁目","34.613420","135.609183","0","3"
"27","大阪府","27212","八尾市","272120041008","東山本町八丁目","34.632071","135.626253","0","3"
"27","大阪府","27212","八尾市","272120115002","神宮寺二丁目","34.601000","135.625122","0","3"
"27","大阪府","27212","八尾市","272120124002","沼二丁目","34.586318","135.602585","0","3"
"27","大阪府","27212","八尾市","272120098003","千塚三丁目","34.632137","135.643511","0","3"
"27","大阪府","27212","八尾市","272120072002","南久宝寺二丁目","34.623449","135.587639","0","3"
"27","大阪府","27212","八尾市","272120086002","弓削町二丁目","34.598027","135.611983","0","3"
"27","大阪府","27212","八尾市","272120022004","桂町四丁目","34.644423","135.610368","0","3"
"27","大阪府","27212","八尾市","272120064004","南木の本四丁目","34.603104","135.586760","0","3"
"27","大阪府","27212","八尾市","272120101002","久宝園二丁目","34.638854","135.589797","0","3"
"27","大阪府","27212","八尾市","272120072001","南久宝寺一丁目","34.624397","135.588199","0","3"
"27","大阪府","27212","八尾市","272120125003","恩智北町三丁目","34.611826","135.631755","0","3"
"27","大阪府","27212","八尾市","272120094003","老原三丁目","34.607370","135.601827","0","3"
"27","大阪府","27212","八尾市","272120047001","教興寺一丁目","34.620684","135.632397","0","3"
"27","大阪府","27212","八尾市","272120107008","服部川八丁目","34.624958","135.645210","0","3"
"27","大阪府","27212","八尾市","272120095002","美園町二丁目","34.638677","135.595029","0","3"
"27","大阪府","27212","八尾市","272120095003","美園町三丁目","34.639162","135.593746","0","3"
"27","大阪府","27212","八尾市","272120122002","二俣二丁目","34.597722","135.620412","0","3"
"27","大阪府","27212","八尾市","272120114005","太田五丁目","34.588675","135.593105","0","3"
"27","大阪府","27212","八尾市","272120076006","楽音寺六丁目","34.640869","135.644462","0","3"
"27","大阪府","27212","八尾市","272120051008","東山本新町八丁目","34.624893","135.630148","0","3"
"27","大阪府","27212","八尾市","272120118001","山本高安町一丁目","34.620932","135.623836","0","3"
"27","大阪府","27212","八尾市","272120041005","東山本町五丁目","34.632507","135.623393","0","3"
"27","大阪府","27212","八尾市","272120111001","久宝寺一丁目","34.626579","135.591813","0","3"
"27","大阪府","27212","八尾市","272120067004","南太子堂四丁目","34.610910","135.585743","0","3"
"27","大阪府","27212","八尾市","272120107005","服部川五丁目","34.627940","135.636042","0","3"
"27","大阪府","27212","八尾市","272120102005","太田新町五丁目","34.592242","135.596386","0","3"
"27","大阪府","27212","八尾市","272120019003","志紀町西三丁目","34.602981","135.609524","0","3"
"27","大阪府","27212","八尾市","272120043002","長池町二丁目","34.638629","135.611349","0","3"
"27","大阪府","27212","八尾市","272120083006","八尾木北六丁目","34.613251","135.616374","0","3"
"27","大阪府","27212","八尾市","272120014003","安中町三丁目","34.619152","135.595258","0","3"
"27","大阪府","27212","八尾市","272120034001","水越一丁目","34.634636","135.635036","0","3"
"27","大阪府","27212","八尾市","272120111006","久宝寺六丁目","34.628614","135.585668","0","3"
"27","大阪府","27212","八尾市","272120115001","神宮寺一丁目","34.600362","135.622797","0","3"
"27","大阪府","27212","八尾市","272120094005","老原五丁目","34.609548","135.599382","0","3"
"27","大阪府","27212","八尾市","272120111003","久宝寺三丁目","34.628750","135.588197","0","3"
"27","大阪府","27212","八尾市","272120037004","相生町四丁目","34.610386","135.605463","0","3"
"27","大阪府","27212","八尾市","272120076001","楽音寺一丁目","34.642716","135.636219","0","3"
"27","大阪府","27212","八尾市","272120094007","老原七丁目","34.604230","135.599283","0","3"
"27","大阪府","27212","八尾市","272120056002","北本町二丁目","34.631712","135.602375","0","3"
"27","大阪府","27212","八尾市","272120096006","黒谷六丁目","34.618330","135.643344","0","3"
"27","大阪府","27212","八尾市","272120111002","久宝寺二丁目","34.628875","135.591248","0","3"
"27","大阪府","27212","八尾市","272120019002","志紀町西二丁目","34.599857","135.608353","0","3"
"27","大阪府","27212","八尾市","272120096001","黒谷一丁目","34.620543","135.636096","0","3"
"27","大阪府","27212","八尾市","272120126001","龍華町一丁目","34.620945","135.586193","0","3"
"27","大阪府","27212","八尾市","272120114001","太田一丁目","34.591496","135.594751","0","3"
"27","大阪府","27212","八尾市","272120102003","太田新町三丁目","34.593407","135.589604","0","3"
"27","大阪府","27212","八尾市","272120110003","恩智中町三丁目","34.607204","135.629853","0","3"
"27","大阪府","27212","八尾市","272120084002","小畑町二丁目","34.642116","135.609567","0","3"
"27","大阪府","27212","八尾市","272120107004","服部川四丁目","34.625204","135.640506","0","3"
"27","大阪府","27212","八尾市","272120119001","刑部一丁目","34.617790","135.619738","0","3"
"27","大阪府","27212","八尾市","272120104001","大竹一丁目","34.637823","135.635496","0","3"
"27","大阪府","27212","八尾市","272120018002","木の本二丁目","34.600001","135.586302","0","3"
"27","大阪府","27212","八尾市","272120090002","東老原二丁目","34.606435","135.608193","0","3"
"27","大阪府","27212","八尾市","272120107001","服部川一丁目","34.625922","135.633573","0","3"
"27","大阪府","27212","八尾市","272120083005","八尾木北五丁目","34.613310","135.613710","0","3"
"27","大阪府","27212","八尾市","272120026004","志紀町南四丁目","34.593947","135.615722","0","3"
"27","大阪府","27212","八尾市","272120119002","刑部二丁目","34.615819","135.619754","0","3"
"27","大阪府","27212","八尾市","272120125002","恩智北町二丁目","34.612008","135.629414","0","3"
"27","大阪府","27212","八尾市","272120104003","大竹三丁目","34.637072","135.639160","0","3"
"27","大阪府","27212","八尾市","272120115004","神宮寺四丁目","34.601450","135.630409","0","3"
"27","大阪府","27212","八尾市","272120044005","緑ヶ丘五丁目","34.635154","135.612794","0","3"
"27","大阪府","27212","八尾市","272120102006","太田新町六丁目","34.593977","135.599197","0","3"
"27","大阪府","27212","八尾市","272120095004","美園町四丁目","34.639617","135.592030","0","3"
"27","大阪府","27212","八尾市","272120104005","大竹五丁目","34.639655","135.639346","0","3"
"27","大阪府","27212","八尾市","272120125001","恩智北町一丁目","34.612248","135.626818","0","3"
"27","大阪府","27212","八尾市","272120020004","青山町四丁目","34.621138","135.611430","0","3"
"27","大阪府","27212","八尾市","272120127000","大字垣内","34.611375","135.643262","0","1"
"27","大阪府","27212","八尾市","272120019001","志紀町西一丁目","34.602912","135.608007","0","3"
"27","大阪府","27212","八尾市","272120115003","神宮寺三丁目","34.601423","135.627707","0","3"
"27","大阪府","27212","八尾市","272120103001","泉町一丁目","34.645035","135.604388","0","3"
"27","大阪府","27212","八尾市","272120082005","北木の本五丁目","34.608093","135.588623","0","3"
"27","大阪府","27212","八尾市","272120102001","太田新町一丁目","34.595704","135.586936","0","3"
"27","大阪府","27212","八尾市","272120123002","西弓削二丁目","34.594437","135.608163","0","3"
"27","大阪府","27212","八尾市","272120096005","黒谷五丁目","34.617079","135.642263","0","3"
"27","大阪府","27212","八尾市","272120110005","恩智中町五丁目","34.606518","135.635016","0","3"
"27","大阪府","27212","八尾市","272120119004","刑部四丁目","34.613156","135.620768","0","3"
"27","大阪府","27212","八尾市","272120024002","弓削町南二丁目","34.594989","135.612358","0","3"
"27","大阪府","27212","八尾市","272120110004","恩智中町四丁目","34.608366","135.634504","0","3"
"27","大阪府","27212","八尾市","272120114007","太田七丁目","34.589565","135.600592","0","3"
"27","大阪府","27212","八尾市","272120123003","西弓削三丁目","34.591521","135.606876","0","3"
"27","大阪府","27212","八尾市","272120124004","沼四丁目","34.588120","135.606820","0","3"
"27","大阪府","27212","八尾市","272120107006","服部川六丁目","34.627481","135.641843","0","3"
"27","大阪府","27212","八尾市","272120128000","大字木本","34.598399","135.582603","0","1"
"27","大阪府","27212","八尾市","272120102007","太田新町七丁目","34.591561","135.599591","0","3"
"27","大阪府","27212","八尾市","272120052007","山本町南七丁目","34.620329","135.620316","0","3"
"27","大阪府","27212","八尾市","272120064009","南木の本九丁目","34.600667","135.593439","0","3"
"27","大阪府","27212","八尾市","272120098002","千塚二丁目","34.632198","135.638585","0","3"
"27","大阪府","27212","八尾市","272120114006","太田六丁目","34.588554","135.595963","0","3"
"27","大阪府","27212","八尾市","272120108006","郡川六丁目","34.621001","135.644721","0","3"
"27","大阪府","27212","八尾市","272120102009","太田新町九丁目","34.591525","135.603303","0","3"
"27","大阪府","27212","八尾市","272120068003","恩智南町三丁目","34.604024","135.629477","0","3"
"27","大阪府","27212","八尾市","272120102008","太田新町八丁目","34.594097","135.602875","0","3"
"27","大阪府","27212","八尾市","272120108001","郡川一丁目","34.623097","135.632971","0","3"
"27","大阪府","27212","八尾市","272120104007","大竹七丁目","34.639362","135.644181","0","3"
"27","大阪府","27212","八尾市","272120094008","老原八丁目","34.607522","135.596486","0","3"
"27","大阪府","27212","八尾市","272120124003","沼三丁目","34.585121","135.603159","0","3"
"27","大阪府","27212","八尾市","272120129001","若林町一丁目","34.596524","135.581659","0","3"
"27","大阪府","27212","八尾市","272120110002","恩智中町二丁目","34.609231","135.630029","0","3"
"27","大阪府","27212","八尾市","272120129002","若林町二丁目","34.594729","135.583616","0","3"
"27","大阪府","27212","八尾市","272120094009","老原九丁目","34.604123","135.596243","0","3"
"27","大阪府","27212","八尾市","272120094004","老原四丁目","34.604411","135.602994","0","3"
"27","大阪府","27212","八尾市","272120094001","老原一丁目","34.607603","135.604286","0","3"
"27","大阪府","27212","八尾市","272120064002","南木の本二丁目","34.604319","135.591508","0","3"
"27","大阪府","27212","八尾市","272120120002","光町二丁目","34.631276","135.605835","0","3"
"27","大阪府","27212","八尾市","272120130000","大字都塚","34.606099","135.620706","0","1"
"27","大阪府","27212","八尾市","272120114003","太田三丁目","34.591225","135.588660","0","3"
"27","大阪府","27212","八尾市","272120126002","龍華町二丁目","34.622609","135.581545","0","3"
"27","大阪府","27212","八尾市","272120131000","大字山畑","34.627418","135.647736","0","1"
"27","大阪府","27212","八尾市","272120132000","大字刑部","34.609666","135.621801","0","1"
"27","大阪府","27212","八尾市","272120124001","沼一丁目","34.588105","135.602263","0","3"
"27","大阪府","27212","八尾市","272120125004","恩智北町四丁目","34.611593","135.634452","0","3"
"27","大阪府","27212","八尾市","272120112003","北亀井町三丁目","34.621728","135.578408","0","3"
"27","大阪府","27212","八尾市","272120129003","若林町三丁目","34.593162","135.580176","0","3"
"27","大阪府","27212","八尾市","272120114009","太田九丁目","34.587816","135.588997","0","3"
"27","大阪府","27212","八尾市","272120133000","大字郡川","34.615792","135.649554","0","1"
"27","大阪府","27212","八尾市","272120134000","大字黒谷","34.611465","135.647658","0","1"
"27","大阪府","27212","八尾市","272120135000","神武町","34.624391","135.580483","0","1"
"27","大阪府","27212","八尾市","272120136000","大字神宮寺","34.601822","135.637956","0","1"
"27","大阪府","27212","八尾市","272120137001","空港一丁目","34.599673","135.601429","0","3"
"27","大阪府","27212","八尾市","272120138000","西久宝寺","34.629331","135.580189","0","1"
"27","大阪府","27212","八尾市","272120139000","大字教興寺","34.613174","135.655632","0","1"
"27","大阪府","27212","八尾市","272120137002","空港二丁目","34.597394","135.596518","0","3"
"27","大阪府","27212","八尾市","272120140000","大字神立","34.635630","135.657398","0","1"
"27","大阪府","27212","八尾市","272120141000","大字楽音寺","34.640919","135.654921","0","1"
"27","大阪府","27212","八尾市","272120142000","大字服部川","34.619447","135.653000","0","1"
"27","大阪府","27212","八尾市","272120143000","大字恩智","34.605667","135.643328","0","1"
"27","大阪府","27212","八尾市","272120144000","大字大窪","34.628514","135.652113","0","1"
