"PrefCode","PrefName","MuniCode","MuniName","DistCode","DistName","lat","lon","SrcCode","CatCode"
"27","大阪府","27226","藤井寺市","272260001000","小山藤美町","34.580197","135.596806","0","1"
"27","大阪府","27226","藤井寺市","272260002000","春日丘新町","34.568286","135.590366","0","1"
"27","大阪府","27226","藤井寺市","272260003000","小山新町","34.581558","135.596013","0","1"
"27","大阪府","27226","藤井寺市","272260004000","陵南町","34.562104","135.593650","0","1"
"27","大阪府","27226","藤井寺市","272260005000","さくら町","34.566836","135.601040","0","1"
"27","大阪府","27226","藤井寺市","272260006001","古室一丁目","34.571041","135.609271","0","3"
"27","大阪府","27226","藤井寺市","272260007001","青山一丁目","34.555475","135.601570","0","3"
"27","大阪府","27226","藤井寺市","272260008002","西古室二丁目","34.567077","135.604394","0","3"
"27","大阪府","27226","藤井寺市","272260009003","国府三丁目","34.569840","135.619973","0","3"
"27","大阪府","27226","藤井寺市","272260010004","林四丁目","34.574417","135.611103","0","3"
"27","大阪府","27226","藤井寺市","272260011000","津堂","34.581521","135.593901","0","1"
"27","大阪府","27226","藤井寺市","272260010005","林五丁目","34.574282","135.614032","0","3"
"27","大阪府","27226","藤井寺市","272260007002","青山二丁目","34.555340","135.600161","0","3"
"27","大阪府","27226","藤井寺市","272260010003","林三丁目","34.576173","135.610942","0","3"
"27","大阪府","27226","藤井寺市","272260010006","林六丁目","34.576243","135.613970","0","3"
"27","大阪府","27226","藤井寺市","272260012001","春日丘一丁目","34.570352","135.592935","0","3"
"27","大阪府","27226","藤井寺市","272260013003","藤ケ丘三丁目","34.562511","135.599985","0","3"
"27","大阪府","27226","藤井寺市","272260013001","藤ケ丘一丁目","34.566157","135.602831","0","3"
"27","大阪府","27226","藤井寺市","272260014002","恵美坂二丁目","34.575591","135.588345","0","3"
"27","大阪府","27226","藤井寺市","272260015003","川北三丁目","34.584334","135.614074","0","3"
"27","大阪府","27226","藤井寺市","272260016005","道明寺五丁目","34.564999","135.613350","0","3"
"27","大阪府","27226","藤井寺市","272260017000","東藤井寺町","34.569537","135.601192","0","1"
"27","大阪府","27226","藤井寺市","272260013002","藤ケ丘二丁目","34.564583","135.603066","0","3"
"27","大阪府","27226","藤井寺市","272260008001","西古室一丁目","34.569302","135.604134","0","3"
"27","大阪府","27226","藤井寺市","272260018001","大井一丁目","34.578162","135.608277","0","3"
"27","大阪府","27226","藤井寺市","272260019000","小山藤の里町","34.576351","135.599052","0","1"
"27","大阪府","27226","藤井寺市","272260020005","野中五丁目","34.559819","135.598206","0","3"
"27","大阪府","27226","藤井寺市","272260021001","北岡一丁目","34.575734","135.594801","0","3"
"27","大阪府","27226","藤井寺市","272260020003","野中三丁目","34.558321","135.602694","0","3"
"27","大阪府","27226","藤井寺市","272260020004","野中四丁目","34.557008","135.598945","0","3"
"27","大阪府","27226","藤井寺市","272260012002","春日丘二丁目","34.567179","135.592388","0","3"
"27","大阪府","27226","藤井寺市","272260022002","藤井寺二丁目","34.568083","135.598176","0","3"
"27","大阪府","27226","藤井寺市","272260023002","惣社二丁目","34.576175","135.620179","0","3"
"27","大阪府","27226","藤井寺市","272260023001","惣社一丁目","34.576444","135.617128","0","3"
"27","大阪府","27226","藤井寺市","272260024008","小山八丁目","34.579676","135.601243","0","3"
"27","大阪府","27226","藤井寺市","272260021002","北岡二丁目","34.575659","135.590950","0","3"
"27","大阪府","27226","藤井寺市","272260007003","青山三丁目","34.556599","135.596730","0","3"
"27","大阪府","27226","藤井寺市","272260016002","道明寺二丁目","34.567052","135.617265","0","3"
"27","大阪府","27226","藤井寺市","272260006002","古室二丁目","34.568242","135.609973","0","3"
"27","大阪府","27226","藤井寺市","272260024004","小山四丁目","34.579669","135.594025","0","3"
"27","大阪府","27226","藤井寺市","272260010001","林一丁目","34.575840","135.604884","0","3"
"27","大阪府","27226","藤井寺市","272260025003","沢田三丁目","34.572397","135.612657","0","3"
"27","大阪府","27226","藤井寺市","272260024005","小山五丁目","34.578709","135.598586","0","3"
"27","大阪府","27226","藤井寺市","272260010002","林二丁目","34.575579","135.607868","0","3"
"27","大阪府","27226","藤井寺市","272260016006","道明寺六丁目","34.567032","135.612617","0","3"
"27","大阪府","27226","藤井寺市","272260020002","野中二丁目","34.560122","135.603016","0","3"
"27","大阪府","27226","藤井寺市","272260026000","梅が園町","34.575093","135.622780","0","1"
"27","大阪府","27226","藤井寺市","272260027001","津堂一丁目","34.581141","135.591225","0","3"
"27","大阪府","27226","藤井寺市","272260012003","春日丘三丁目","34.570407","135.589606","0","3"
"27","大阪府","27226","藤井寺市","272260020001","野中一丁目","34.562381","135.603032","0","3"
"27","大阪府","27226","藤井寺市","272260028002","西大井二丁目","34.582788","135.604595","0","3"
"27","大阪府","27226","藤井寺市","272260006003","古室三丁目","34.568065","135.607078","0","3"
"27","大阪府","27226","藤井寺市","272260024009","小山九丁目","34.576157","135.601473","0","3"
"27","大阪府","27226","藤井寺市","272260014001","恵美坂一丁目","34.572983","135.589182","0","3"
"27","大阪府","27226","藤井寺市","272260022001","藤井寺一丁目","34.570299","135.596814","0","3"
"27","大阪府","27226","藤井寺市","272260016004","道明寺四丁目","34.564589","135.616893","0","3"
"27","大阪府","27226","藤井寺市","272260022003","藤井寺三丁目","34.565646","135.598636","0","3"
"27","大阪府","27226","藤井寺市","272260024002","小山二丁目","34.577976","135.588198","0","3"
"27","大阪府","27226","藤井寺市","272260016003","道明寺三丁目","34.566798","135.620803","0","3"
"27","大阪府","27226","藤井寺市","272260024001","小山一丁目","34.577442","135.594623","0","3"
"27","大阪府","27226","藤井寺市","272260013004","藤ケ丘四丁目","34.562074","135.597528","0","3"
"27","大阪府","27226","藤井寺市","272260018004","大井四丁目","34.578178","135.613131","0","3"
"27","大阪府","27226","藤井寺市","272260029002","岡二丁目","34.573047","135.593379","0","3"
"27","大阪府","27226","藤井寺市","272260025001","沢田一丁目","34.572184","135.604285","0","3"
"27","大阪府","27226","藤井寺市","272260024003","小山三丁目","34.580606","135.587205","0","3"
"27","大阪府","27226","藤井寺市","272260015002","川北二丁目","34.586268","135.612105","0","3"
"27","大阪府","27226","藤井寺市","272260025002","沢田二丁目","34.572030","135.607435","0","3"
"27","大阪府","27226","藤井寺市","272260016001","道明寺一丁目","34.569723","135.617055","0","3"
"27","大阪府","27226","藤井寺市","272260029001","岡一丁目","34.573003","135.597236","0","3"
"27","大阪府","27226","藤井寺市","272260015001","川北一丁目","34.586553","135.608080","0","3"
"27","大阪府","27226","藤井寺市","272260030000","御舟町","34.572703","135.600812","0","1"
"27","大阪府","27226","藤井寺市","272260024006","小山六丁目","34.583997","135.594063","0","3"
"27","大阪府","27226","藤井寺市","272260009001","国府一丁目","34.573186","135.617148","0","3"
"27","大阪府","27226","藤井寺市","272260018003","大井三丁目","34.581968","135.610821","0","3"
"27","大阪府","27226","藤井寺市","272260025004","沢田四丁目","34.569922","135.612495","0","3"
"27","大阪府","27226","藤井寺市","272260018002","大井二丁目","34.581958","135.608161","0","3"
"27","大阪府","27226","藤井寺市","272260027004","津堂四丁目","34.587047","135.585387","0","3"
"27","大阪府","27226","藤井寺市","272260027002","津堂二丁目","34.584519","135.589366","0","3"
"27","大阪府","27226","藤井寺市","272260028001","西大井一丁目","34.579145","135.604664","0","3"
"27","大阪府","27226","藤井寺市","272260031000","船橋町","34.577579","135.624654","0","1"
"27","大阪府","27226","藤井寺市","272260022004","藤井寺四丁目","34.566206","135.594494","0","3"
"27","大阪府","27226","藤井寺市","272260027003","津堂三丁目","34.583190","135.585164","0","3"
"27","大阪府","27226","藤井寺市","272260009002","国府二丁目","34.573031","135.622727","0","3"
"27","大阪府","27226","藤井寺市","272260032000","北條町","34.579993","135.619755","0","1"
"27","大阪府","27226","藤井寺市","272260018005","大井五丁目","34.581573","135.614910","0","3"
"27","大阪府","27226","藤井寺市","272260024007","小山七丁目","34.583779","135.598919","0","3"
