"PrefCode","PrefName","MuniCode","MuniName","DistCode","DistName","lat","lon","SrcCode","CatCode"
"27","大阪府","27227","東大阪市","272270001001","西堤楠町一丁目","34.671693","135.576378","0","3"
"27","大阪府","27227","東大阪市","272270002000","横枕南","34.677834","135.607255","0","1"
"27","大阪府","27227","東大阪市","272270003003","三ノ瀬三丁目","34.659556","135.567182","0","3"
"27","大阪府","27227","東大阪市","272270004005","御厨五丁目","34.671177","135.589238","0","3"
"27","大阪府","27227","東大阪市","272270005002","足代南二丁目","34.660900","135.564772","0","3"
"27","大阪府","27227","東大阪市","272270003002","三ノ瀬二丁目","34.659112","135.566061","0","3"
"27","大阪府","27227","東大阪市","272270006000","西堤西","34.676899","135.574458","0","1"
"27","大阪府","27227","東大阪市","272270007001","上小阪一丁目","34.654916","135.581314","0","3"
"27","大阪府","27227","東大阪市","272270008002","藤戸新田二丁目","34.673677","135.588720","0","3"
"27","大阪府","27227","東大阪市","272270009001","寺前町一丁目","34.656753","135.565971","0","3"
"27","大阪府","27227","東大阪市","272270010005","長田東五丁目","34.684572","135.593365","0","3"
"27","大阪府","27227","東大阪市","272270011001","西堤学園町一丁目","34.671105","135.582058","0","3"
"27","大阪府","27227","東大阪市","272270012001","俊徳町一丁目","34.657259","135.570766","0","3"
"27","大阪府","27227","東大阪市","272270013001","大蓮北一丁目","34.639363","135.578444","0","3"
"27","大阪府","27227","東大阪市","272270014001","御厨西ノ町一丁目","34.672031","135.583199","0","3"
"27","大阪府","27227","東大阪市","272270009002","寺前町二丁目","34.654235","135.566456","0","3"
"27","大阪府","27227","東大阪市","272270001002","西堤楠町二丁目","34.673500","135.576234","0","3"
"27","大阪府","27227","東大阪市","272270015000","徳庵本町","34.694099","135.582237","0","1"
"27","大阪府","27227","東大阪市","272270016000","東上小阪","34.653190","135.591301","0","1"
"27","大阪府","27227","東大阪市","272270017001","岸田堂西一丁目","34.655370","135.560721","0","3"
"27","大阪府","27227","東大阪市","272270018005","高井田西五丁目","34.677395","135.564409","0","3"
"27","大阪府","27227","東大阪市","272270019005","高井田本通五丁目","34.676846","135.566200","0","3"
"27","大阪府","27227","東大阪市","272270020005","長田中五丁目","34.684473","135.590300","0","3"
"27","大阪府","27227","東大阪市","272270004002","御厨二丁目","34.674304","135.584939","0","3"
"27","大阪府","27227","東大阪市","272270014002","御厨西ノ町二丁目","34.676057","135.583363","0","3"
"27","大阪府","27227","東大阪市","272270021002","西堤二丁目","34.678132","135.580364","0","3"
"27","大阪府","27227","東大阪市","272270022003","瓜生堂三丁目","34.663047","135.596620","0","3"
"27","大阪府","27227","東大阪市","272270023000","岸田堂北町","34.656429","135.564328","0","1"
"27","大阪府","27227","東大阪市","272270012003","俊徳町三丁目","34.655241","135.571910","0","3"
"27","大阪府","27227","東大阪市","272270004004","御厨四丁目","34.671484","135.587605","0","3"
"27","大阪府","27227","東大阪市","272270012002","俊徳町二丁目","34.656250","135.571164","0","3"
"27","大阪府","27227","東大阪市","272270019003","高井田本通三丁目","34.673968","135.566060","0","3"
"27","大阪府","27227","東大阪市","272270024002","足代二丁目","34.662566","135.563804","0","3"
"27","大阪府","27227","東大阪市","272270025001","太平寺一丁目","34.656772","135.567891","0","3"
"27","大阪府","27227","東大阪市","272270026001","新家一丁目","34.672488","135.591169","0","3"
"27","大阪府","27227","東大阪市","272270018004","高井田西四丁目","34.675590","135.564179","0","3"
"27","大阪府","27227","東大阪市","272270020001","長田中一丁目","34.678071","135.589902","0","3"
"27","大阪府","27227","東大阪市","272270027002","金岡二丁目","34.639162","135.584034","0","3"
"27","大阪府","27227","東大阪市","272270005001","足代南一丁目","34.659867","135.562371","0","3"
"27","大阪府","27227","東大阪市","272270028003","長田西三丁目","34.679639","135.583550","0","3"
"27","大阪府","27227","東大阪市","272270029001","御厨南一丁目","34.666184","135.587872","0","3"
"27","大阪府","27227","東大阪市","272270030001","若江北町一丁目","34.660565","135.600453","0","3"
"27","大阪府","27227","東大阪市","272270031001","長田一丁目","34.676001","135.586015","0","3"
"27","大阪府","27227","東大阪市","272270032002","中野二丁目","34.682402","135.612094","0","3"
"27","大阪府","27227","東大阪市","272270033002","宝持二丁目","34.654809","135.588224","0","3"
"27","大阪府","27227","東大阪市","272270019006","高井田本通六丁目","34.676880","135.567788","0","3"
"27","大阪府","27227","東大阪市","272270019001","高井田本通一丁目","34.670764","135.565908","0","3"
"27","大阪府","27227","東大阪市","272270011002","西堤学園町二丁目","34.673512","135.581930","0","3"
"27","大阪府","27227","東大阪市","272270024003","足代三丁目","34.662477","135.565426","0","3"
"27","大阪府","27227","東大阪市","272270034000","中野南","34.677424","135.609178","0","1"
"27","大阪府","27227","東大阪市","272270035004","小若江四丁目","34.652194","135.583613","0","3"
"27","大阪府","27227","東大阪市","272270028005","長田西五丁目","34.681225","135.583559","0","3"
"27","大阪府","27227","東大阪市","272270036002","西堤本通西二丁目","34.673334","135.578152","0","3"
"27","大阪府","27227","東大阪市","272270033001","宝持一丁目","34.656388","135.587004","0","3"
"27","大阪府","27227","東大阪市","272270037000","新家東町","34.674793","135.596214","0","1"
"27","大阪府","27227","東大阪市","272270036003","西堤本通西三丁目","34.676016","135.577962","0","3"
"27","大阪府","27227","東大阪市","272270038001","若江本町一丁目","34.658519","135.607719","0","3"
"27","大阪府","27227","東大阪市","272270039002","本庄二丁目","34.683676","135.607381","0","3"
"27","大阪府","27227","東大阪市","272270040005","菱屋西五丁目","34.665457","135.578259","0","3"
"27","大阪府","27227","東大阪市","272270041002","西堤本通東二丁目","34.673435","135.580077","0","3"
"27","大阪府","27227","東大阪市","272270042002","荒本西二丁目","34.674204","135.599635","0","3"
"27","大阪府","27227","東大阪市","272270043001","御厨栄町一丁目","34.666330","135.581934","0","3"
"27","大阪府","27227","東大阪市","272270044002","高井田中二丁目","34.671554","135.570245","0","3"
"27","大阪府","27227","東大阪市","272270041001","西堤本通東一丁目","34.670930","135.580363","0","3"
"27","大阪府","27227","東大阪市","272270045001","足代北一丁目","34.666838","135.558385","0","3"
"27","大阪府","27227","東大阪市","272270028001","長田西一丁目","34.677886","135.583444","0","3"
"27","大阪府","27227","東大阪市","272270046002","御厨中二丁目","34.668964","135.589545","0","3"
"27","大阪府","27227","東大阪市","272270047002","花園西町二丁目","34.658564","135.615013","0","3"
"27","大阪府","27227","東大阪市","272270048000","新庄東","34.687613","135.608155","0","1"
"27","大阪府","27227","東大阪市","272270018001","高井田西一丁目","34.669905","135.563549","0","3"
"27","大阪府","27227","東大阪市","272270008001","藤戸新田一丁目","34.674258","135.586967","0","3"
"27","大阪府","27227","東大阪市","272270043003","御厨栄町三丁目","34.668695","135.584282","0","3"
"27","大阪府","27227","東大阪市","272270049002","鴻池町二丁目","34.697260","135.605070","0","3"
"27","大阪府","27227","東大阪市","272270050001","吉松一丁目","34.647992","135.577533","0","3"
"27","大阪府","27227","東大阪市","272270041003","西堤本通東三丁目","34.676146","135.579823","0","3"
"27","大阪府","27227","東大阪市","272270051000","新家中町","34.674711","135.593679","0","1"
"27","大阪府","27227","東大阪市","272270052001","池島町一丁目","34.649684","135.633819","0","3"
"27","大阪府","27227","東大阪市","272270053000","川中","34.682368","135.628433","0","1"
"27","大阪府","27227","東大阪市","272270004003","御厨三丁目","34.671783","135.586186","0","3"
"27","大阪府","27227","東大阪市","272270019004","高井田本通四丁目","34.673879","135.567637","0","3"
"27","大阪府","27227","東大阪市","272270054001","友井一丁目","34.644115","135.583200","0","3"
"27","大阪府","27227","東大阪市","272270028004","長田西四丁目","34.679826","135.586208","0","3"
"27","大阪府","27227","東大阪市","272270055001","玉串町西一丁目","34.656452","135.615600","0","3"
"27","大阪府","27227","東大阪市","272270012004","俊徳町四丁目","34.654260","135.571928","0","3"
"27","大阪府","27227","東大阪市","272270004001","御厨一丁目","34.671726","135.584348","0","3"
"27","大阪府","27227","東大阪市","272270011003","西堤学園町三丁目","34.676255","135.581776","0","3"
"27","大阪府","27227","東大阪市","272270004006","御厨六丁目","34.671128","135.591079","0","3"
"27","大阪府","27227","東大阪市","272270018002","高井田西二丁目","34.671657","135.563691","0","3"
"27","大阪府","27227","東大阪市","272270056003","大蓮東三丁目","34.636439","135.582417","0","3"
"27","大阪府","27227","東大阪市","272270028002","長田西二丁目","34.677527","135.586133","0","3"
"27","大阪府","27227","東大阪市","272270057003","小阪三丁目","34.664151","135.591588","0","3"
"27","大阪府","27227","東大阪市","272270058002","横沼町二丁目","34.655259","135.575934","0","3"
"27","大阪府","27227","東大阪市","272270018006","高井田西六丁目","34.678969","135.565224","0","3"
"27","大阪府","27227","東大阪市","272270059004","新池島町四丁目","34.661581","135.629351","0","3"
"27","大阪府","27227","東大阪市","272270031003","長田三丁目","34.676394","135.594830","0","3"
"27","大阪府","27227","東大阪市","272270060004","若江南町四丁目","34.651465","135.603342","0","3"
"27","大阪府","27227","東大阪市","272270029003","御厨南三丁目","34.666276","135.592064","0","3"
"27","大阪府","27227","東大阪市","272270028006","長田西六丁目","34.681162","135.586614","0","3"
"27","大阪府","27227","東大阪市","272270061003","西鴻池町三丁目","34.698033","135.590282","0","3"
"27","大阪府","27227","東大阪市","272270062003","東鴻池町三丁目","34.690581","135.614639","0","3"
"27","大阪府","27227","東大阪市","272270060003","若江南町三丁目","34.653680","135.600191","0","3"
"27","大阪府","27227","東大阪市","272270058001","横沼町一丁目","34.652854","135.576330","0","3"
"27","大阪府","27227","東大阪市","272270063002","中小阪二丁目","34.659492","135.586930","0","3"
"27","大阪府","27227","東大阪市","272270019002","高井田本通二丁目","34.670707","135.567482","0","3"
"27","大阪府","27227","東大阪市","272270007002","上小阪二丁目","34.654802","135.582736","0","3"
"27","大阪府","27227","東大阪市","272270010004","長田東四丁目","34.683014","135.593588","0","3"
"27","大阪府","27227","東大阪市","272270021001","西堤一丁目","34.678055","135.576791","0","3"
"27","大阪府","27227","東大阪市","272270064000","西上小阪","34.651988","135.580493","0","1"
"27","大阪府","27227","東大阪市","272270065003","若江東町三丁目","34.656225","135.609430","0","3"
"27","大阪府","27227","東大阪市","272270066005","菱江五丁目","34.672012","135.608658","0","3"
"27","大阪府","27227","東大阪市","272270067002","長瀬町二丁目","34.649294","135.574508","0","3"
"27","大阪府","27227","東大阪市","272270044004","高井田中四丁目","34.675423","135.570311","0","3"
"27","大阪府","27227","東大阪市","272270068003","菱屋東三丁目","34.673595","135.605815","0","3"
"27","大阪府","27227","東大阪市","272270065001","若江東町一丁目","34.658534","135.611081","0","3"
"27","大阪府","27227","東大阪市","272270069002","長堂二丁目","34.666674","135.565485","0","3"
"27","大阪府","27227","東大阪市","272270020004","長田中四丁目","34.683018","135.590208","0","3"
"27","大阪府","27227","東大阪市","272270070002","寿町二丁目","34.651177","135.567117","0","3"
"27","大阪府","27227","東大阪市","272270071002","新喜多二丁目","34.672100","135.575170","0","3"
"27","大阪府","27227","東大阪市","272270044005","高井田中五丁目","34.677234","135.570380","0","3"
"27","大阪府","27227","東大阪市","272270001003","西堤楠町三丁目","34.675804","135.575898","0","3"
"27","大阪府","27227","東大阪市","272270020003","長田中三丁目","34.681035","135.590465","0","3"
"27","大阪府","27227","東大阪市","272270018003","高井田西三丁目","34.673619","135.563869","0","3"
"27","大阪府","27227","東大阪市","272270072002","松原二丁目","34.672781","135.631212","0","3"
"27","大阪府","27227","東大阪市","272270038003","若江本町三丁目","34.656140","135.607225","0","3"
"27","大阪府","27227","東大阪市","272270060005","若江南町五丁目","34.651612","135.599922","0","3"
"27","大阪府","27227","東大阪市","272270033004","宝持四丁目","34.656073","135.591882","0","3"
"27","大阪府","27227","東大阪市","272270071001","新喜多一丁目","34.672651","135.573927","0","3"
"27","大阪府","27227","東大阪市","272270040002","菱屋西二丁目","34.653744","135.577948","0","3"
"27","大阪府","27227","東大阪市","272270007004","上小阪四丁目","34.653975","135.587389","0","3"
"27","大阪府","27227","東大阪市","272270065005","若江東町五丁目","34.651592","135.611661","0","3"
"27","大阪府","27227","東大阪市","272270066004","菱江四丁目","34.674755","135.608912","0","3"
"27","大阪府","27227","東大阪市","272270045002","足代北二丁目","34.666668","135.560799","0","3"
"27","大阪府","27227","東大阪市","272270019007","高井田本通七丁目","34.678945","135.569511","0","3"
"27","大阪府","27227","東大阪市","272270027004","金岡四丁目","34.634113","135.588189","0","3"
"27","大阪府","27227","東大阪市","272270073001","柏田西一丁目","34.649281","135.567565","0","3"
"27","大阪府","27227","東大阪市","272270074001","箕輪一丁目","34.684139","135.612482","0","3"
"27","大阪府","27227","東大阪市","272270038002","若江本町二丁目","34.658568","135.604680","0","3"
"27","大阪府","27227","東大阪市","272270075002","善根寺町二丁目","34.698417","135.646322","0","3"
"27","大阪府","27227","東大阪市","272270076001","大蓮南一丁目","34.635185","135.579705","0","3"
"27","大阪府","27227","東大阪市","272270025002","太平寺二丁目","34.654289","135.568171","0","3"
"27","大阪府","27227","東大阪市","272270056005","大蓮東五丁目","34.633722","135.582762","0","3"
"27","大阪府","27227","東大阪市","272270055002","玉串町西二丁目","34.653918","135.615111","0","3"
"27","大阪府","27227","東大阪市","272270043004","御厨栄町四丁目","34.666438","135.585240","0","3"
"27","大阪府","27227","東大阪市","272270020002","長田中二丁目","34.679479","135.589989","0","3"
"27","大阪府","27227","東大阪市","272270077001","南鴻池町一丁目","34.694352","135.598852","0","3"
"27","大阪府","27227","東大阪市","272270013002","大蓮北二丁目","34.637194","135.579583","0","3"
"27","大阪府","27227","東大阪市","272270061004","西鴻池町四丁目","34.700468","135.590783","0","3"
"27","大阪府","27227","東大阪市","272270063003","中小阪三丁目","34.657728","135.587341","0","3"
"27","大阪府","27227","東大阪市","272270012005","俊徳町五丁目","34.653225","135.571926","0","3"
"27","大阪府","27227","東大阪市","272270078000","鴻池元町","34.698024","135.600559","0","1"
"27","大阪府","27227","東大阪市","272270076002","大蓮南二丁目","34.633259","135.579822","0","3"
"27","大阪府","27227","東大阪市","272270052002","池島町二丁目","34.652729","135.634319","0","3"
"27","大阪府","27227","東大阪市","272270076003","大蓮南三丁目","34.633194","135.576358","0","3"
"27","大阪府","27227","東大阪市","272270079002","下六万寺町二丁目","34.653077","135.637306","0","3"
"27","大阪府","27227","東大阪市","272270080007","中石切町七丁目","34.686475","135.634991","0","3"
"27","大阪府","27227","東大阪市","272270007003","上小阪三丁目","34.654563","135.584881","0","3"
"27","大阪府","27227","東大阪市","272270050002","吉松二丁目","34.647220","135.575885","0","3"
"27","大阪府","27227","東大阪市","272270036001","西堤本通西一丁目","34.670674","135.577855","0","3"
"27","大阪府","27227","東大阪市","272270003001","三ノ瀬一丁目","34.659144","135.564322","0","3"
"27","大阪府","27227","東大阪市","272270030002","若江北町二丁目","34.658569","135.601043","0","3"
"27","大阪府","27227","東大阪市","272270060001","若江南町一丁目","34.652659","135.605789","0","3"
"27","大阪府","27227","東大阪市","272270081000","足代新町","34.664874","135.559582","0","1"
"27","大阪府","27227","東大阪市","272270082004","西石切町四丁目","34.683867","135.637768","0","3"
"27","大阪府","27227","東大阪市","272270010003","長田東三丁目","34.681131","135.593855","0","3"
"27","大阪府","27227","東大阪市","272270083000","新家西町","34.674547","135.590486","0","1"
"27","大阪府","27227","東大阪市","272270084001","吉原一丁目","34.685862","135.619560","0","3"
"27","大阪府","27227","東大阪市","272270085001","小阪本町一丁目","34.662379","135.581117","0","3"
"27","大阪府","27227","東大阪市","272270086000","出雲井本町","34.669424","135.646556","0","1"
"27","大阪府","27227","東大阪市","272270087003","角田三丁目","34.683145","135.617222","0","3"
"27","大阪府","27227","東大阪市","272270082006","西石切町六丁目","34.684044","135.634976","0","3"
"27","大阪府","27227","東大阪市","272270040003","菱屋西三丁目","34.660390","135.579448","0","3"
"27","大阪府","27227","東大阪市","272270058003","横沼町三丁目","34.656650","135.575629","0","3"
"27","大阪府","27227","東大阪市","272270088003","花園東町三丁目","34.658271","135.623871","0","3"
"27","大阪府","27227","東大阪市","272270029002","御厨南二丁目","34.666144","135.590003","0","3"
"27","大阪府","27227","東大阪市","272270026003","新家三丁目","34.672147","135.596305","0","3"
"27","大阪府","27227","東大阪市","272270057002","小阪二丁目","34.664686","135.586373","0","3"
"27","大阪府","27227","東大阪市","272270070001","寿町一丁目","34.650877","135.569539","0","3"
"27","大阪府","27227","東大阪市","272270089000","金物町","34.644095","135.593217","0","1"
"27","大阪府","27227","東大阪市","272270090001","衣摺一丁目","34.643129","135.576483","0","3"
"27","大阪府","27227","東大阪市","272270017002","岸田堂西二丁目","34.653966","135.561176","0","3"
"27","大阪府","27227","東大阪市","272270079001","下六万寺町一丁目","34.650985","135.636955","0","3"
"27","大阪府","27227","東大阪市","272270027003","金岡三丁目","34.636860","135.586013","0","3"
"27","大阪府","27227","東大阪市","272270010001","長田東一丁目","34.677653","135.594405","0","3"
"27","大阪府","27227","東大阪市","272270091003","川俣三丁目","34.681319","135.579097","0","3"
"27","大阪府","27227","東大阪市","272270092002","荒本北二丁目","34.680390","135.602373","0","3"
"27","大阪府","27227","東大阪市","272270093000","川俣本町","34.681087","135.581028","0","1"
"27","大阪府","27227","東大阪市","272270094002","近江堂二丁目","34.646670","135.583597","0","3"
"27","大阪府","27227","東大阪市","272270095001","荒川一丁目","34.662168","135.567713","0","3"
"27","大阪府","27227","東大阪市","272270066006","菱江六丁目","34.674072","135.606934","0","3"
"27","大阪府","27227","東大阪市","272270082005","西石切町五丁目","34.681132","135.637550","0","3"
"27","大阪府","27227","東大阪市","272270057001","小阪一丁目","34.664940","135.581491","0","3"
"27","大阪府","27227","東大阪市","272270026002","新家二丁目","34.672093","135.593685","0","3"
"27","大阪府","27227","東大阪市","272270060002","若江南町二丁目","34.653518","135.603193","0","3"
"27","大阪府","27227","東大阪市","272270096005","若江西新町五丁目","34.651610","135.596228","0","3"
"27","大阪府","27227","東大阪市","272270097002","吉田本町二丁目","34.673698","135.625094","0","3"
"27","大阪府","27227","東大阪市","272270098000","岸田堂南町","34.654013","135.564465","0","1"
"27","大阪府","27227","東大阪市","272270082007","西石切町七丁目","34.681181","135.634836","0","3"
"27","大阪府","27227","東大阪市","272270010002","長田東二丁目","34.679349","135.594129","0","3"
"27","大阪府","27227","東大阪市","272270044001","高井田中一丁目","34.669945","135.570230","0","3"
"27","大阪府","27227","東大阪市","272270044003","高井田中三丁目","34.673415","135.570275","0","3"
"27","大阪府","27227","東大阪市","272270054004","友井四丁目","34.641226","135.588895","0","3"
"27","大阪府","27227","東大阪市","272270099000","荒本新町","34.677541","135.604194","0","1"
"27","大阪府","27227","東大阪市","272270100004","布市町四丁目","34.696790","135.639358","0","3"
"27","大阪府","27227","東大阪市","272270101002","下小阪二丁目","34.662892","135.586452","0","3"
"27","大阪府","27227","東大阪市","272270085002","小阪本町二丁目","34.658686","135.581080","0","3"
"27","大阪府","27227","東大阪市","272270102000","横枕","34.680353","135.607522","0","1"
"27","大阪府","27227","東大阪市","272270103004","渋川町四丁目","34.641889","135.563289","0","3"
"27","大阪府","27227","東大阪市","272270038004","若江本町四丁目","34.656115","135.604558","0","3"
"27","大阪府","27227","東大阪市","272270027001","金岡一丁目","34.642266","135.580779","0","3"
"27","大阪府","27227","東大阪市","272270104003","永和三丁目","34.659940","135.576872","0","3"
"27","大阪府","27227","東大阪市","272270105005","東石切町五丁目","34.684839","135.649679","0","3"
"27","大阪府","27227","東大阪市","272270103001","渋川町一丁目","34.649201","135.563060","0","3"
"27","大阪府","27227","東大阪市","272270101003","下小阪三丁目","34.660889","135.586483","0","3"
"27","大阪府","27227","東大阪市","272270106001","吉田一丁目","34.663958","135.619210","0","3"
"27","大阪府","27227","東大阪市","272270075005","善根寺町五丁目","34.700685","135.646338","0","3"
"27","大阪府","27227","東大阪市","272270032001","中野一丁目","34.680261","135.609965","0","3"
"27","大阪府","27227","東大阪市","272270055003","玉串町西三丁目","34.651522","135.614768","0","3"
"27","大阪府","27227","東大阪市","272270042004","荒本西四丁目","34.677511","135.599255","0","3"
"27","大阪府","27227","東大阪市","272270107000","本庄東","34.686241","135.608639","0","1"
"27","大阪府","27227","東大阪市","272270076005","大蓮南五丁目","34.634968","135.571018","0","3"
"27","大阪府","27227","東大阪市","272270074003","箕輪三丁目","34.686931","135.614226","0","3"
"27","大阪府","27227","東大阪市","272270108000","桜町","34.664916","135.633633","0","1"
"27","大阪府","27227","東大阪市","272270094003","近江堂三丁目","34.646534","135.587728","0","3"
"27","大阪府","27227","東大阪市","272270105003","東石切町三丁目","34.680857","135.652427","0","3"
"27","大阪府","27227","東大阪市","272270035002","小若江二丁目","34.649600","135.584505","0","3"
"27","大阪府","27227","東大阪市","272270076004","大蓮南四丁目","34.635053","135.575707","0","3"
"27","大阪府","27227","東大阪市","272270109002","元町二丁目","34.697793","135.635777","0","3"
"27","大阪府","27227","東大阪市","272270109001","元町一丁目","34.694872","135.634218","0","3"
"27","大阪府","27227","東大阪市","272270110001","島之内一丁目","34.677843","135.618272","0","3"
"27","大阪府","27227","東大阪市","272270080001","中石切町一丁目","34.683684","135.645103","0","3"
"27","大阪府","27227","東大阪市","272270111001","新庄一丁目","34.689613","135.604926","0","3"
"27","大阪府","27227","東大阪市","272270112003","日下町三丁目","34.691765","135.645790","0","3"
"27","大阪府","27227","東大阪市","272270039001","本庄一丁目","34.683408","135.609442","0","3"
"27","大阪府","27227","東大阪市","272270106002","吉田二丁目","34.667912","135.618872","0","3"
"27","大阪府","27227","東大阪市","272270056004","大蓮東四丁目","34.633715","135.585650","0","3"
"27","大阪府","27227","東大阪市","272270101005","下小阪五丁目","34.662797","135.591453","0","3"
"27","大阪府","27227","東大阪市","272270061002","西鴻池町二丁目","34.698466","135.594885","0","3"
"27","大阪府","27227","東大阪市","272270113001","稲田新町一丁目","34.689369","135.583428","0","3"
"27","大阪府","27227","東大阪市","272270101004","下小阪四丁目","34.661203","135.591427","0","3"
"27","大阪府","27227","東大阪市","272270031002","長田二丁目","34.676357","135.590014","0","3"
"27","大阪府","27227","東大阪市","272270056002","大蓮東二丁目","34.637581","135.582962","0","3"
"27","大阪府","27227","東大阪市","272270114000","河内町","34.664983","135.645476","0","1"
"27","大阪府","27227","東大阪市","272270068002","菱屋東二丁目","34.669919","135.607597","0","3"
"27","大阪府","27227","東大阪市","272270013003","大蓮北三丁目","34.637267","135.575583","0","3"
"27","大阪府","27227","東大阪市","272270046001","御厨中一丁目","34.668881","135.587018","0","3"
"27","大阪府","27227","東大阪市","272270042003","荒本西三丁目","34.676199","135.599593","0","3"
"27","大阪府","27227","東大阪市","272270115002","本庄中二丁目","34.686249","135.604049","0","3"
"27","大阪府","27227","東大阪市","272270062004","東鴻池町四丁目","34.693783","135.608302","0","3"
"27","大阪府","27227","東大阪市","272270106008","吉田八丁目","34.665308","135.630191","0","3"
"27","大阪府","27227","東大阪市","272270105002","東石切町二丁目","34.680848","135.650343","0","3"
"27","大阪府","27227","東大阪市","272270043002","御厨栄町二丁目","34.668496","135.581518","0","3"
"27","大阪府","27227","東大阪市","272270024001","足代一丁目","34.662776","135.561050","0","3"
"27","大阪府","27227","東大阪市","272270116002","中鴻池町二丁目","34.696322","135.598825","0","3"
"27","大阪府","27227","東大阪市","272270117001","花園本町一丁目","34.661492","135.617843","0","3"
"27","大阪府","27227","東大阪市","272270040006","菱屋西六丁目","34.667818","135.578403","0","3"
"27","大阪府","27227","東大阪市","272270112004","日下町四丁目","34.692271","135.643162","0","3"
"27","大阪府","27227","東大阪市","272270074002","箕輪二丁目","34.687289","135.611446","0","3"
"27","大阪府","27227","東大阪市","272270082003","西石切町三丁目","34.681052","135.640550","0","3"
"27","大阪府","27227","東大阪市","272270063005","中小阪五丁目","34.659544","135.591564","0","3"
"27","大阪府","27227","東大阪市","272270054003","友井三丁目","34.640922","135.585270","0","3"
"27","大阪府","27227","東大阪市","272270118000","新庄南","34.687519","135.604339","0","1"
"27","大阪府","27227","東大阪市","272270119001","西岩田一丁目","34.664977","135.603228","0","3"
"27","大阪府","27227","東大阪市","272270082002","西石切町二丁目","34.683649","135.640943","0","3"
"27","大阪府","27227","東大阪市","272270022002","瓜生堂二丁目","34.660541","135.604139","0","3"
"27","大阪府","27227","東大阪市","272270067001","長瀬町一丁目","34.651139","135.574813","0","3"
"27","大阪府","27227","東大阪市","272270120000","稲田三島町","34.694416","135.590796","0","1"
"27","大阪府","27227","東大阪市","272270121000","新庄西","34.688541","135.599482","0","1"
"27","大阪府","27227","東大阪市","272270122002","本庄西二丁目","34.686262","135.599475","0","3"
"27","大阪府","27227","東大阪市","272270119002","西岩田二丁目","34.664962","135.600184","0","3"
"27","大阪府","27227","東大阪市","272270067003","長瀬町三丁目","34.650650","135.571671","0","3"
"27","大阪府","27227","東大阪市","272270112005","日下町五丁目","34.695815","135.642689","0","3"
"27","大阪府","27227","東大阪市","272270073003","柏田西三丁目","34.644350","135.567052","0","3"
"27","大阪府","27227","東大阪市","272270123001","高井田元町一丁目","34.666543","135.573365","0","3"
"27","大阪府","27227","東大阪市","272270124000","鴻池本町","34.700058","135.600883","0","1"
"27","大阪府","27227","東大阪市","272270096002","若江西新町二丁目","34.658633","135.596683","0","3"
"27","大阪府","27227","東大阪市","272270052006","池島町六丁目","34.645925","135.627216","0","3"
"27","大阪府","27227","東大阪市","272270125003","岩田町三丁目","34.661293","135.607872","0","3"
"27","大阪府","27227","東大阪市","272270125004","岩田町四丁目","34.664195","135.607161","0","3"
"27","大阪府","27227","東大阪市","272270068001","菱屋東一丁目","34.666325","135.611547","0","3"
"27","大阪府","27227","東大阪市","272270092003","荒本北三丁目","34.684044","135.595962","0","3"
"27","大阪府","27227","東大阪市","272270126000","北鴻池町","34.701900","135.594102","0","1"
"27","大阪府","27227","東大阪市","272270063004","中小阪四丁目","34.657738","135.591710","0","3"
"27","大阪府","27227","東大阪市","272270033003","宝持三丁目","34.654168","135.591915","0","3"
"27","大阪府","27227","東大阪市","272270105001","東石切町一丁目","34.681554","135.647133","0","3"
"27","大阪府","27227","東大阪市","272270127001","加納一丁目","34.694377","135.619693","0","3"
"27","大阪府","27227","東大阪市","272270105006","東石切町六丁目","34.687733","135.652513","0","3"
"27","大阪府","27227","東大阪市","272270128001","御厨東一丁目","34.668004","135.592357","0","3"
"27","大阪府","27227","東大阪市","272270122003","本庄西三丁目","34.687177","135.595697","0","3"
"27","大阪府","27227","東大阪市","272270063001","中小阪一丁目","34.657863","135.583731","0","3"
"27","大阪府","27227","東大阪市","272270077002","南鴻池町二丁目","34.694387","135.603474","0","3"
"27","大阪府","27227","東大阪市","272270129004","稲葉四丁目","34.667081","135.612877","0","3"
"27","大阪府","27227","東大阪市","272270116003","中鴻池町三丁目","34.696132","135.604001","0","3"
"27","大阪府","27227","東大阪市","272270130001","川田一丁目","34.690354","135.618372","0","3"
"27","大阪府","27227","東大阪市","272270101001","下小阪一丁目","34.661512","135.583053","0","3"
"27","大阪府","27227","東大阪市","272270131003","稲田本町三丁目","34.689337","135.580538","0","3"
"27","大阪府","27227","東大阪市","272270132000","額田町","34.677791","135.650442","0","1"
"27","大阪府","27227","東大阪市","272270088001","花園東町一丁目","34.659999","135.620898","0","3"
"27","大阪府","27227","東大阪市","272270122001","本庄西一丁目","34.683666","135.599608","0","3"
"27","大阪府","27227","東大阪市","272270090002","衣摺二丁目","34.643969","135.571860","0","3"
"27","大阪府","27227","東大阪市","272270133000","柏田東町","34.646795","135.573997","0","1"
"27","大阪府","27227","東大阪市","272270079003","下六万寺町三丁目","34.654722","135.636054","0","3"
"27","大阪府","27227","東大阪市","272270075003","善根寺町三丁目","34.698282","135.641287","0","3"
"27","大阪府","27227","東大阪市","272270112006","日下町六丁目","34.695248","135.646215","0","3"
"27","大阪府","27227","東大阪市","272270047001","花園西町一丁目","34.661184","135.614387","0","3"
"27","大阪府","27227","東大阪市","272270134000","御幸町","34.658978","135.637333","0","1"
"27","大阪府","27227","東大阪市","272270135001","中新開一丁目","34.681992","135.619407","0","3"
"27","大阪府","27227","東大阪市","272270100002","布市町二丁目","34.692982","135.638522","0","3"
"27","大阪府","27227","東大阪市","272270061001","西鴻池町一丁目","34.699736","135.594923","0","3"
"27","大阪府","27227","東大阪市","272270136002","六万寺町二丁目","34.650817","135.641293","0","3"
"27","大阪府","27227","東大阪市","272270104001","永和一丁目","34.660838","135.573179","0","3"
"27","大阪府","27227","東大阪市","272270137000","神田町","34.660957","135.637419","0","1"
"27","大阪府","27227","東大阪市","272270080006","中石切町六丁目","34.689484","135.635228","0","3"
"27","大阪府","27227","東大阪市","272270129003","稲葉三丁目","34.665473","135.617280","0","3"
"27","大阪府","27227","東大阪市","272270090006","衣摺六丁目","34.640546","135.566484","0","3"
"27","大阪府","27227","東大阪市","272270138000","横枕西","34.680384","135.604872","0","1"
"27","大阪府","27227","東大阪市","272270117002","花園本町二丁目","34.658612","135.618018","0","3"
"27","大阪府","27227","東大阪市","272270139001","玉串町東一丁目","34.656460","135.622653","0","3"
"27","大阪府","27227","東大阪市","272270140000","新鴻池町","34.690427","135.612668","0","1"
"27","大阪府","27227","東大阪市","272270035001","小若江一丁目","34.649939","135.581329","0","3"
"27","大阪府","27227","東大阪市","272270065002","若江東町二丁目","34.656941","135.612059","0","3"
"27","大阪府","27227","東大阪市","272270103002","渋川町二丁目","34.646885","135.563071","0","3"
"27","大阪府","27227","東大阪市","272270141001","荒本一丁目","34.672067","135.603420","0","3"
"27","大阪府","27227","東大阪市","272270142001","玉串元町一丁目","34.655298","135.618200","0","3"
"27","大阪府","27227","東大阪市","272270065004","若江東町四丁目","34.653814","135.611460","0","3"
"27","大阪府","27227","東大阪市","272270143000","鳥居町","34.669145","135.642693","0","1"
"27","大阪府","27227","東大阪市","272270056001","大蓮東一丁目","34.641530","135.578531","0","3"
"27","大阪府","27227","東大阪市","272270116001","中鴻池町一丁目","34.696386","135.594381","0","3"
"27","大阪府","27227","東大阪市","272270070003","寿町三丁目","34.651358","135.564008","0","3"
"27","大阪府","27227","東大阪市","272270144002","森河内東二丁目","34.683384","135.571395","0","3"
"27","大阪府","27227","東大阪市","272270111002","新庄二丁目","34.691392","135.602346","0","3"
"27","大阪府","27227","東大阪市","272270111003","新庄三丁目","34.692269","135.606229","0","3"
"27","大阪府","27227","東大阪市","272270073002","柏田西二丁目","34.647091","135.567350","0","3"
"27","大阪府","27227","東大阪市","272270141002","荒本二丁目","34.675139","135.603638","0","3"
"27","大阪府","27227","東大阪市","272270087002","角田二丁目","34.682347","135.614675","0","3"
"27","大阪府","27227","東大阪市","272270013004","大蓮北四丁目","34.637160","135.570924","0","3"
"27","大阪府","27227","東大阪市","272270145001","上石切町一丁目","34.681588","135.654625","0","3"
"27","大阪府","27227","東大阪市","272270040004","菱屋西四丁目","34.660581","135.578345","0","3"
"27","大阪府","27227","東大阪市","272270095002","荒川二丁目","34.659259","135.569442","0","3"
"27","大阪府","27227","東大阪市","272270129002","稲葉二丁目","34.669312","135.616800","0","3"
"27","大阪府","27227","東大阪市","272270096004","若江西新町四丁目","34.653971","135.596643","0","3"
"27","大阪府","27227","東大阪市","272270080004","中石切町四丁目","34.688615","135.645421","0","3"
"27","大阪府","27227","東大阪市","272270146000","源氏ケ丘","34.644876","135.579431","0","1"
"27","大阪府","27227","東大阪市","272270030003","若江北町三丁目","34.656163","135.601153","0","3"
"27","大阪府","27227","東大阪市","272270103003","渋川町三丁目","34.644271","135.563240","0","3"
"27","大阪府","27227","東大阪市","272270094001","近江堂一丁目","34.645472","135.581125","0","3"
"27","大阪府","27227","東大阪市","272270147000","末広町","34.656738","135.637159","0","1"
"27","大阪府","27227","東大阪市","272270148000","箱殿町","34.671872","135.642783","0","1"
"27","大阪府","27227","東大阪市","272270139002","玉串町東二丁目","34.652982","135.620737","0","3"
"27","大阪府","27227","東大阪市","272270082001","西石切町一丁目","34.681089","135.643902","0","3"
"27","大阪府","27227","東大阪市","272270149000","若草町","34.658661","135.633670","0","1"
"27","大阪府","27227","東大阪市","272270088002","花園東町二丁目","34.660946","135.623950","0","3"
"27","大阪府","27227","東大阪市","272270106006","吉田六丁目","34.664944","135.625744","0","3"
"27","大阪府","27227","東大阪市","272270150000","南四条町","34.657061","135.642669","0","1"
"27","大阪府","27227","東大阪市","272270100001","布市町一丁目","34.692972","135.640764","0","3"
"27","大阪府","27227","東大阪市","272270151001","三島一丁目","34.691738","135.599308","0","3"
"27","大阪府","27227","東大阪市","272270125006","岩田町六丁目","34.668513","135.603989","0","3"
"27","大阪府","27227","東大阪市","272270152000","豊浦町","34.672043","135.647288","0","1"
"27","大阪府","27227","東大阪市","272270153000","本町","34.663522","135.642147","0","1"
"27","大阪府","27227","東大阪市","272270106009","吉田九丁目","34.664938","135.632014","0","3"
"27","大阪府","27227","東大阪市","272270106004","吉田四丁目","34.670226","135.622282","0","3"
"27","大阪府","27227","東大阪市","272270154002","今米二丁目","34.686125","135.627521","0","3"
"27","大阪府","27227","東大阪市","272270155003","横小路町三丁目","34.647040","135.641898","0","3"
"27","大阪府","27227","東大阪市","272270156001","楠根一丁目","34.683173","135.585102","0","3"
"27","大阪府","27227","東大阪市","272270142002","玉串元町二丁目","34.651958","135.617993","0","3"
"27","大阪府","27227","東大阪市","272270157000","鴻池徳庵町","34.697998","135.586306","0","1"
"27","大阪府","27227","東大阪市","272270151002","三島二丁目","34.692090","135.596396","0","3"
"27","大阪府","27227","東大阪市","272270042001","荒本西一丁目","34.672202","135.599630","0","3"
"27","大阪府","27227","東大阪市","272270096003","若江西新町三丁目","34.656303","135.596765","0","3"
"27","大阪府","27227","東大阪市","272270130004","川田四丁目","34.689698","135.628640","0","3"
"27","大阪府","27227","東大阪市","272270127002","加納二丁目","34.693899","135.622240","0","3"
"27","大阪府","27227","東大阪市","272270158000","瓢箪山町","34.661267","135.643496","0","1"
"27","大阪府","27227","東大阪市","272270040001","菱屋西一丁目","34.652809","135.578900","0","3"
"27","大阪府","27227","東大阪市","272270097003","吉田本町三丁目","34.678129","135.624493","0","3"
"27","大阪府","27227","東大阪市","272270159001","稲田上町一丁目","34.692348","135.583857","0","3"
"27","大阪府","27227","東大阪市","272270128002","御厨東二丁目","34.667895","135.594785","0","3"
"27","大阪府","27227","東大阪市","272270160000","柏田本町","34.646615","135.571114","0","1"
"27","大阪府","27227","東大阪市","272270059003","新池島町三丁目","34.658292","135.626889","0","3"
"27","大阪府","27227","東大阪市","272270161002","松原南二丁目","34.670047","135.631113","0","3"
"27","大阪府","27227","東大阪市","272270054005","友井五丁目","34.643662","135.591051","0","3"
"27","大阪府","27227","東大阪市","272270156003","楠根三丁目","34.687125","135.585153","0","3"
"27","大阪府","27227","東大阪市","272270112002","日下町二丁目","34.691717","135.649861","0","3"
"27","大阪府","27227","東大阪市","272270022001","瓜生堂一丁目","34.662251","135.602778","0","3"
"27","大阪府","27227","東大阪市","272270162004","水走四丁目","34.685666","135.631497","0","3"
"27","大阪府","27227","東大阪市","272270162005","水走五丁目","34.689692","135.631788","0","3"
"27","大阪府","27227","東大阪市","272270163000","四条町","34.658824","135.642832","0","1"
"27","大阪府","27227","東大阪市","272270065006","若江東町六丁目","34.652668","135.608334","0","3"
"27","大阪府","27227","東大阪市","272270115001","本庄中一丁目","34.683719","135.604030","0","3"
"27","大阪府","27227","東大阪市","272270059001","新池島町一丁目","34.658167","135.631519","0","3"
"27","大阪府","27227","東大阪市","272270106007","吉田七丁目","34.664869","135.628071","0","3"
"27","大阪府","27227","東大阪市","272270106003","吉田三丁目","34.667742","135.621811","0","3"
"27","大阪府","27227","東大阪市","272270130003","川田三丁目","34.689823","135.625426","0","3"
"27","大阪府","27227","東大阪市","272270125001","岩田町一丁目","34.664159","135.612401","0","3"
"27","大阪府","27227","東大阪市","272270087001","角田一丁目","34.679815","135.614691","0","3"
"27","大阪府","27227","東大阪市","272270052005","池島町五丁目","34.643803","135.632125","0","3"
"27","大阪府","27227","東大阪市","272270059002","新池島町二丁目","34.658128","135.629241","0","3"
"27","大阪府","27227","東大阪市","272270164000","立花町","34.674768","135.648578","0","1"
"27","大阪府","27227","東大阪市","272270130002","川田二丁目","34.690023","135.621705","0","3"
"27","大阪府","27227","東大阪市","272270165000","長栄寺","34.666585","135.570754","0","1"
"27","大阪府","27227","東大阪市","272270072001","松原一丁目","34.673732","135.627531","0","3"
"27","大阪府","27227","東大阪市","272270131002","稲田本町二丁目","34.685114","135.579610","0","3"
"27","大阪府","27227","東大阪市","272270135002","中新開二丁目","34.682387","135.622182","0","3"
"27","大阪府","27227","東大阪市","272270052007","池島町七丁目","34.649161","135.627294","0","3"
"27","大阪府","27227","東大阪市","272270080002","中石切町二丁目","34.685880","135.646306","0","3"
"27","大阪府","27227","東大阪市","272270052004","池島町四丁目","34.649190","135.630807","0","3"
"27","大阪府","27227","東大阪市","272270125002","岩田町二丁目","34.661002","135.611052","0","3"
"27","大阪府","27227","東大阪市","272270049001","鴻池町一丁目","34.699323","135.604748","0","3"
"27","大阪府","27227","東大阪市","272270123002","高井田元町二丁目","34.666600","135.575805","0","3"
"27","大阪府","27227","東大阪市","272270069003","長堂三丁目","34.666583","135.567671","0","3"
"27","大阪府","27227","東大阪市","272270106005","吉田五丁目","34.665182","135.623424","0","3"
"27","大阪府","27227","東大阪市","272270062002","東鴻池町二丁目","34.692248","135.615416","0","3"
"27","大阪府","27227","東大阪市","272270112007","日下町七丁目","34.694247","135.650604","0","3"
"27","大阪府","27227","東大阪市","272270155006","横小路町六丁目","34.647155","135.634038","0","3"
"27","大阪府","27227","東大阪市","272270090004","衣摺四丁目","34.639571","135.574306","0","3"
"27","大阪府","27227","東大阪市","272270111004","新庄四丁目","34.690443","135.608885","0","3"
"27","大阪府","27227","東大阪市","272270136003","六万寺町三丁目","34.653796","135.641272","0","3"
"27","大阪府","27227","東大阪市","272270104002","永和二丁目","34.660798","135.574963","0","3"
"27","大阪府","27227","東大阪市","272270069001","長堂一丁目","34.666433","135.563458","0","3"
"27","大阪府","27227","東大阪市","272270166000","池之端町","34.696409","135.648969","0","1"
"27","大阪府","27227","東大阪市","272270090003","衣摺三丁目","34.641460","135.573918","0","3"
"27","大阪府","27227","東大阪市","272270167000","七軒家","34.686842","135.591051","0","1"
"27","大阪府","27227","東大阪市","272270052003","池島町三丁目","34.653274","135.630985","0","3"
"27","大阪府","27227","東大阪市","272270062005","東鴻池町五丁目","34.695321","135.610208","0","3"
"27","大阪府","27227","東大阪市","272270052008","池島町八丁目","34.653262","135.627351","0","3"
"27","大阪府","27227","東大阪市","272270119004","西岩田四丁目","34.668400","135.600689","0","3"
"27","大阪府","27227","東大阪市","272270096001","若江西新町一丁目","34.661215","135.596616","0","3"
"27","大阪府","27227","東大阪市","272270155004","横小路町四丁目","34.646977","135.639545","0","3"
"27","大阪府","27227","東大阪市","272270161001","松原南一丁目","34.669430","135.627305","0","3"
"27","大阪府","27227","東大阪市","272270129001","稲葉一丁目","34.669602","135.612351","0","3"
"27","大阪府","27227","東大阪市","272270162002","水走二丁目","34.677720","135.627774","0","3"
"27","大阪府","27227","東大阪市","272270155002","横小路町二丁目","34.646860","135.644134","0","3"
"27","大阪府","27227","東大阪市","272270168000","北石切町","34.688581","135.649503","0","1"
"27","大阪府","27227","東大阪市","272270110002","島之内二丁目","34.677815","135.621224","0","3"
"27","大阪府","27227","東大阪市","272270125005","岩田町五丁目","34.667016","135.607212","0","3"
"27","大阪府","27227","東大阪市","272270097001","吉田本町一丁目","34.673394","135.622648","0","3"
"27","大阪府","27227","東大阪市","272270169001","古箕輪一丁目","34.686638","135.617182","0","3"
"27","大阪府","27227","東大阪市","272270155005","横小路町五丁目","34.647166","135.636892","0","3"
"27","大阪府","27227","東大阪市","272270066002","菱江二丁目","34.675139","135.613521","0","3"
"27","大阪府","27227","東大阪市","272270170000","南上小阪","34.647270","135.592254","0","1"
"27","大阪府","27227","東大阪市","272270105004","東石切町四丁目","34.685458","135.652777","0","3"
"27","大阪府","27227","東大阪市","272270171000","昭和町","34.663348","135.637390","0","1"
"27","大阪府","27227","東大阪市","272270066003","菱江三丁目","34.677860","135.613685","0","3"
"27","大阪府","27227","東大阪市","272270100003","布市町三丁目","34.693227","135.636032","0","3"
"27","大阪府","27227","東大阪市","272270090005","衣摺五丁目","34.640578","135.569487","0","3"
"27","大阪府","27227","東大阪市","272270127006","加納六丁目","34.700420","135.627349","0","3"
"27","大阪府","27227","東大阪市","272270156002","楠根二丁目","34.685114","135.584949","0","3"
"27","大阪府","27227","東大阪市","272270131001","稲田本町一丁目","34.685672","135.576890","0","3"
"27","大阪府","27227","東大阪市","272270080003","中石切町三丁目","34.686080","135.639780","0","3"
"27","大阪府","27227","東大阪市","272270084002","吉原二丁目","34.686538","135.623208","0","3"
"27","大阪府","27227","東大阪市","272270172000","喜里川町","34.666478","135.642009","0","1"
"27","大阪府","27227","東大阪市","272270127008","加納八丁目","34.698839","135.620145","0","3"
"27","大阪府","27227","東大阪市","272270075004","善根寺町四丁目","34.700626","135.641595","0","3"
"27","大阪府","27227","東大阪市","272270173000","高井田","34.673669","135.572742","0","1"
"27","大阪府","27227","東大阪市","272270113003","稲田新町三丁目","34.689225","135.591257","0","3"
"27","大阪府","27227","東大阪市","272270113002","稲田新町二丁目","34.690299","135.587073","0","3"
"27","大阪府","27227","東大阪市","272270095003","荒川三丁目","34.660922","135.571213","0","3"
"27","大阪府","27227","東大阪市","272270174000","旭町","34.666243","135.637192","0","1"
"27","大阪府","27227","東大阪市","272270175002","森河内西二丁目","34.685858","135.569261","0","3"
"27","大阪府","27227","東大阪市","272270176000","南荘町","34.675099","135.643551","0","1"
"27","大阪府","27227","東大阪市","272270154001","今米一丁目","34.682440","135.625952","0","3"
"27","大阪府","27227","東大阪市","272270177000","吉田下島","34.673734","135.618838","0","1"
"27","大阪府","27227","東大阪市","272270175001","森河内西一丁目","34.683118","135.565872","0","3"
"27","大阪府","27227","東大阪市","272270091002","川俣二丁目","34.684929","135.574959","0","3"
"27","大阪府","27227","東大阪市","272270139003","玉串町東三丁目","34.652970","135.623719","0","3"
"27","大阪府","27227","東大阪市","272270054002","友井二丁目","34.643736","135.587160","0","3"
"27","大阪府","27227","東大阪市","272270127007","加納七丁目","34.698722","135.623841","0","3"
"27","大阪府","27227","東大阪市","272270112001","日下町一丁目","34.689245","135.656137","0","3"
"27","大阪府","27227","東大阪市","272270178000","新上小阪","34.650710","135.591901","0","1"
"27","大阪府","27227","東大阪市","272270179000","弥生町","34.678278","135.637232","0","1"
"27","大阪府","27227","東大阪市","272270127003","加納三丁目","34.694134","135.626017","0","3"
"27","大阪府","27227","東大阪市","272270080005","中石切町五丁目","34.688933","135.640311","0","3"
"27","大阪府","27227","東大阪市","272270162003","水走三丁目","34.682364","135.631137","0","3"
"27","大阪府","27227","東大阪市","272270066001","菱江一丁目","34.672472","135.613376","0","3"
"27","大阪府","27227","東大阪市","272270092001","荒本北一丁目","34.680333","135.598761","0","3"
"27","大阪府","27227","東大阪市","272270035003","小若江三丁目","34.650264","135.587498","0","3"
"27","大阪府","27227","東大阪市","272270144001","森河内東一丁目","34.681782","135.569475","0","3"
"27","大阪府","27227","東大阪市","272270091001","川俣一丁目","34.680307","135.575526","0","3"
"27","大阪府","27227","東大阪市","272270062001","東鴻池町一丁目","34.695918","135.615579","0","3"
"27","大阪府","27227","東大阪市","272270180000","新町","34.672268","135.636859","0","1"
"27","大阪府","27227","東大阪市","272270181000","東山町","34.678323","135.645126","0","1"
"27","大阪府","27227","東大阪市","272270151003","三島三丁目","34.693070","135.593741","0","3"
"27","大阪府","27227","東大阪市","272270159002","稲田上町二丁目","34.694260","135.586238","0","3"
"27","大阪府","27227","東大阪市","272270162001","水走一丁目","34.676839","135.631234","0","3"
"27","大阪府","27227","東大阪市","272270182000","鷹殿町","34.669306","135.636568","0","1"
"27","大阪府","27227","東大阪市","272270119003","西岩田三丁目","34.667012","135.597401","0","3"
"27","大阪府","27227","東大阪市","272270127005","加納五丁目","34.699134","135.631288","0","3"
"27","大阪府","27227","東大阪市","272270127004","加納四丁目","34.694215","135.630881","0","3"
"27","大阪府","27227","東大阪市","272270183000","宝町","34.675471","135.637024","0","1"
"27","大阪府","27227","東大阪市","272270075006","善根寺町六丁目","34.700538","135.654904","0","3"
"27","大阪府","27227","東大阪市","272270184000","五条町","34.666227","135.652713","0","1"
"27","大阪府","27227","東大阪市","272270185000","出雲井町","34.669072","135.656251","0","1"
"27","大阪府","27227","東大阪市","272270186000","客坊町","34.663209","135.650977","0","1"
"27","大阪府","27227","東大阪市","272270187000","上六万寺町","34.655092","135.654874","0","1"
"27","大阪府","27227","東大阪市","272270136001","六万寺町一丁目","34.652648","135.654192","0","3"
"27","大阪府","27227","東大阪市","272270075001","善根寺町一丁目","34.697842","135.661047","0","3"
"27","大阪府","27227","東大阪市","272270112008","日下町八丁目","34.692481","135.662888","0","3"
"27","大阪府","27227","東大阪市","272270155001","横小路町一丁目","34.646754","135.655374","0","3"
"27","大阪府","27227","東大阪市","272270188000","東豊浦町","34.669277","135.665136","0","1"
"27","大阪府","27227","東大阪市","272270189000","山手町","34.676824","135.664838","0","1"
"27","大阪府","27227","東大阪市","272270190000","上四条町","34.661281","135.660513","0","1"
"27","大阪府","27227","東大阪市","272270145002","上石切町二丁目","34.684120","135.667836","0","3"
