"PrefCode","PrefName","MuniCode","MuniName","DistCode","DistName","lat","lon","SrcCode","CatCode"
28,兵庫県,28222,養父市,282220001000,三谷,35.333523,134.734854,0,1
28,兵庫県,28222,養父市,282220002000,長野,35.286451,134.767844,0,1
28,兵庫県,28222,養父市,282220003000,建屋,35.300609,134.74641,0,1
28,兵庫県,28222,養父市,282220004000,森,35.312788,134.724925,0,1
28,兵庫県,28222,養父市,282220005000,大屋町明延,35.264205,134.671922,0,1
28,兵庫県,28222,養父市,282220006000,大屋町筏,35.313316,134.625154,0,1
28,兵庫県,28222,養父市,282220007000,船谷,35.337259,134.757329,0,1
28,兵庫県,28222,養父市,282220008000,畑,35.339097,134.78348,0,1
28,兵庫県,28222,養父市,282220009000,八鹿町三谷,35.421957,134.759372,0,1
28,兵庫県,28222,養父市,282220010000,八鹿町九鹿,35.409193,134.752428,0,1
28,兵庫県,28222,養父市,282220011000,八鹿町高柳,35.391328,134.737991,0,1
28,兵庫県,28222,養父市,282220012000,八鹿町国木,35.397543,134.751255,0,1
28,兵庫県,28222,養父市,282220013000,大屋町中,35.345696,134.705035,0,1
28,兵庫県,28222,養父市,282220014000,大屋町夏梅,35.345293,134.676131,0,1
28,兵庫県,28222,養父市,282220015000,大屋町加保,35.342763,134.658175,0,1
28,兵庫県,28222,養父市,282220016000,大屋町大杉,35.329998,134.650344,0,1
28,兵庫県,28222,養父市,282220017000,大屋町蔵垣,35.321083,134.64388,0,1
28,兵庫県,28222,養父市,282220018000,大坪,35.350755,134.756536,0,1
28,兵庫県,28222,養父市,282220019000,伊豆,35.357359,134.741863,0,1
28,兵庫県,28222,養父市,282220020000,左近山,35.371208,134.745385,0,1
28,兵庫県,28222,養父市,282220021000,大屋町上山,35.350699,134.719475,0,1
28,兵庫県,28222,養父市,282220022000,吉井,35.373257,134.631756,0,1
28,兵庫県,28222,養父市,282220023000,中瀬,35.364906,134.621628,0,1
28,兵庫県,28222,養父市,282220024000,大屋町中間,35.322226,134.598276,0,1
28,兵庫県,28222,養父市,282220025000,関宮,35.378905,134.636796,0,1
28,兵庫県,28222,養父市,282220026000,大屋町横行,35.325054,134.552239,0,1
28,兵庫県,28222,養父市,282220027000,安井,35.34972,134.578719,0,1
28,兵庫県,28222,養父市,282220028000,八鹿町上小田,35.422042,134.785624,0,1
28,兵庫県,28222,養父市,282220029000,八鹿町坂本,35.418502,134.797524,0,1
28,兵庫県,28222,養父市,282220030000,八鹿町八鹿,35.41152,134.773144,0,1
28,兵庫県,28222,養父市,282220031000,八鹿町大江,35.416924,134.821059,0,1
28,兵庫県,28222,養父市,282220032000,八鹿町青山,35.436349,134.755814,0,1
28,兵庫県,28222,養父市,282220033000,八鹿町小佐,35.415414,134.731748,0,1
28,兵庫県,28222,養父市,282220034000,八鹿町石原,35.414993,134.706194,0,1
28,兵庫県,28222,養父市,282220035000,八鹿町日畑,35.418324,134.670659,0,1
28,兵庫県,28222,養父市,282220036000,大屋町糸原,35.320961,134.686442,0,1
28,兵庫県,28222,養父市,282220037000,大屋町山路,35.330876,134.66514,0,1
28,兵庫県,28222,養父市,282220038000,大屋町笠谷,35.32722,134.661369,0,1
28,兵庫県,28222,養父市,282220039000,大屋町大屋市場,35.332295,134.670312,0,1
28,兵庫県,28222,養父市,282220040000,大屋町門野,35.307572,134.681837,0,1
28,兵庫県,28222,養父市,282220041000,大屋町須西,35.303461,134.667907,0,1
28,兵庫県,28222,養父市,282220042000,大屋町和田,35.291886,134.657702,0,1
28,兵庫県,28222,養父市,282220043000,餅耕地,35.286705,134.722547,0,1
28,兵庫県,28222,養父市,282220044000,能座,35.302171,134.731205,0,1
28,兵庫県,28222,養父市,282220045000,大屋町宮本,35.30472,134.697789,0,1
28,兵庫県,28222,養父市,282220046000,大屋町若杉,35.287819,134.59722,0,1
28,兵庫県,28222,養父市,282220047000,八鹿町下網場,35.405141,134.778155,0,1
28,兵庫県,28222,養父市,282220048000,八鹿町小山,35.398836,134.759183,0,1
28,兵庫県,28222,養父市,282220049000,八鹿町米里,35.38444,134.754214,0,1
28,兵庫県,28222,養父市,282220050000,稲津,35.359397,134.771777,0,1
28,兵庫県,28222,養父市,282220051000,大塚,35.37654,134.823089,0,1
28,兵庫県,28222,養父市,282220052000,堀畑,35.367871,134.809827,0,1
28,兵庫県,28222,養父市,282220053000,上野,35.365779,134.788651,0,1
28,兵庫県,28222,養父市,282220054000,広谷,35.375382,134.771151,0,1
28,兵庫県,28222,養父市,282220055000,浅野,35.361972,134.755577,0,1
28,兵庫県,28222,養父市,282220056000,鉄屋米地,35.38499,134.825082,0,1
28,兵庫県,28222,養父市,282220057000,口米地,35.392166,134.81987,0,1
28,兵庫県,28222,養父市,282220058000,養父市場,35.386364,134.807883,0,1
28,兵庫県,28222,養父市,282220059000,小城,35.381721,134.790562,0,1
28,兵庫県,28222,養父市,282220060000,八鹿町舞狂,35.406626,134.786854,0,1
28,兵庫県,28222,養父市,282220061000,薮崎,35.390904,134.787515,0,1
28,兵庫県,28222,養父市,282220062000,八鹿町上網場,35.396573,134.778229,0,1
28,兵庫県,28222,養父市,282220063000,上箇,35.384783,134.776265,0,1
28,兵庫県,28222,養父市,282220064000,八鹿町朝倉,35.392846,134.76539,0,1
28,兵庫県,28222,養父市,282220065000,十二所,35.374223,134.761398,0,1
28,兵庫県,28222,養父市,282220066000,奥米地,35.396553,134.849132,0,1
28,兵庫県,28222,養父市,282220067000,中米地,35.397954,134.829687,0,1
28,兵庫県,28222,養父市,282220068000,大薮,35.400586,134.806721,0,1
28,兵庫県,28222,養父市,282220069000,大屋町由良,35.343273,134.692558,0,1
28,兵庫県,28222,養父市,282220070000,八鹿町今滝寺,35.395725,134.707131,0,1
28,兵庫県,28222,養父市,282220071000,大屋町樽見,35.354702,134.706571,0,1
28,兵庫県,28222,養父市,282220072000,玉見,35.371554,134.734419,0,1
28,兵庫県,28222,養父市,282220073000,八鹿町八木,35.385095,134.7198,0,1
28,兵庫県,28222,養父市,282220074000,新津,35.36535,134.72663,0,1
28,兵庫県,28222,養父市,282220075000,大屋町宮垣,35.368946,134.712815,0,1
28,兵庫県,28222,養父市,282220076000,三宅,35.386359,134.699335,0,1
28,兵庫県,28222,養父市,282220077000,大谷,35.388431,134.685322,0,1
28,兵庫県,28222,養父市,282220078000,万久里,35.392024,134.666656,0,1
28,兵庫県,28222,養父市,282220079000,尾崎,35.383635,134.659801,0,1
28,兵庫県,28222,養父市,282220080000,轟,35.350192,134.601379,0,1
28,兵庫県,28222,養父市,282220081000,鵜縄,35.350357,134.547154,0,1
28,兵庫県,28222,養父市,282220082000,出合,35.362704,134.599172,0,1
28,兵庫県,28222,養父市,282220083000,小路頃,35.368502,134.583207,0,1
28,兵庫県,28222,養父市,282220084000,川原場,35.370632,134.579535,0,1
28,兵庫県,28222,養父市,282220085000,梨ケ原,35.37128,134.550153,0,1
28,兵庫県,28222,養父市,282220086000,外野,35.371771,134.568482,0,1
28,兵庫県,28222,養父市,282220087000,草出,35.373558,134.555265,0,1
28,兵庫県,28222,養父市,282220088000,奈良尾,35.368329,134.540286,0,1
28,兵庫県,28222,養父市,282220089000,大久保,35.377704,134.520339,0,1
28,兵庫県,28222,養父市,282220090000,福定,35.371114,134.538233,0,1
28,兵庫県,28222,養父市,282220091000,葛畑,35.382281,134.59167,0,1
28,兵庫県,28222,養父市,282220092000,別宮,35.386887,134.563916,0,1
28,兵庫県,28222,養父市,282220093000,丹戸,35.376654,134.545072,0,1
28,兵庫県,28222,養父市,282220094000,八鹿町下小田,35.426014,134.788456,0,1
28,兵庫県,28222,養父市,282220095000,八鹿町岩崎,35.428576,134.822614,0,1
28,兵庫県,28222,養父市,282220096000,八鹿町浅間,35.441206,134.808864,0,1
28,兵庫県,28222,養父市,282220097000,八鹿町伊佐,35.431791,134.794225,0,1
28,兵庫県,28222,養父市,282220098000,八鹿町宿南,35.434427,134.778205,0,1
