"PrefCode","PrefName","MuniCode","MuniName","DistCode","DistName","lat","lon","SrcCode","CatCode"
"29","奈良県","29207","五條市","292070001000","相谷町","34.331910","135.665295","0","1"
"29","奈良県","29207","五條市","292070002000","居傳町","34.386914","135.714364","0","1"
"29","奈良県","29207","五條市","292070003000","犬飼町","34.340075","135.676885","0","1"
"29","奈良県","29207","五條市","292070004001","今井一丁目","34.355693","135.702608","0","3"
"29","奈良県","29207","五條市","292070004002","今井二丁目","34.353671","135.703452","0","3"
"29","奈良県","29207","五條市","292070004003","今井三丁目","34.357174","135.706557","0","3"
"29","奈良県","29207","五條市","292070004004","今井四丁目","34.354461","135.708138","0","3"
"29","奈良県","29207","五條市","292070004005","今井五丁目","34.360797","135.714026","0","3"
"29","奈良県","29207","五條市","292070005000","今井町","34.365400","135.707523","0","1"
"29","奈良県","29207","五條市","292070006000","宇野町","34.365845","135.721580","0","1"
"29","奈良県","29207","五條市","292070007000","大澤町","34.372169","135.661066","0","1"
"29","奈良県","29207","五條市","292070008000","大津町","34.329459","135.672904","0","1"
"29","奈良県","29207","五條市","292070009000","大塔町宇井","34.151610","135.747401","0","1"
"29","奈良県","29207","五條市","292070010000","大塔町小代","34.191456","135.742922","0","1"
"29","奈良県","29207","五條市","292070011000","大塔町阪本","34.213306","135.724901","0","1"
"29","奈良県","29207","五條市","292070012000","大塔町猿谷","34.173815","135.729183","0","1"
"29","奈良県","29207","五條市","292070013000","大塔町篠原","34.166766","135.851715","0","1"
"29","奈良県","29207","五條市","292070014000","大塔町清水","34.120483","135.715190","0","1"
"29","奈良県","29207","五條市","292070015000","大塔町簾","34.222413","135.744133","0","1"
"29","奈良県","29207","五條市","292070016000","大塔町惣谷","34.152106","135.804282","0","1"
"29","奈良県","29207","五條市","292070017000","大塔町辻堂","34.173120","135.766026","0","1"
"29","奈良県","29207","五條市","292070018000","大塔町堂平","34.170265","135.739041","0","1"
"29","奈良県","29207","五條市","292070019000","大塔町唐笠","34.186744","135.754144","0","1"
"29","奈良県","29207","五條市","292070020000","大塔町閉君","34.158691","135.759140","0","1"
"29","奈良県","29207","五條市","292070021000","大塔町殿野","34.176206","135.782174","0","1"
"29","奈良県","29207","五條市","292070022000","大塔町中井傍示","34.144911","135.783962","0","1"
"29","奈良県","29207","五條市","292070023000","大塔町中原","34.185674","135.715459","0","1"
"29","奈良県","29207","五條市","292070024000","大塔町中峯","34.157860","135.775763","0","1"
"29","奈良県","29207","五條市","292070025000","大塔町引土","34.161589","135.738598","0","1"
"29","奈良県","29207","五條市","292070026000","大塔町飛養曽","34.166113","135.734956","0","1"
"29","奈良県","29207","五條市","292070027000","大野新田町","34.386127","135.742560","0","1"
"29","奈良県","29207","五條市","292070028000","大野町","34.328627","135.687385","0","1"
"29","奈良県","29207","五條市","292070029000","大深町","34.286049","135.677982","0","1"
"29","奈良県","29207","五條市","292070030001","岡口一丁目","34.355531","135.696091","0","3"
"29","奈良県","29207","五條市","292070030002","岡口二丁目","34.357363","135.697867","0","3"
"29","奈良県","29207","五條市","292070031000","岡町","34.367522","135.695992","0","1"
"29","奈良県","29207","五條市","292070032000","生子町","34.311422","135.705552","0","1"
"29","奈良県","29207","五條市","292070033000","小和町","34.393074","135.698217","0","1"
"29","奈良県","29207","五條市","292070034000","樫辻町","34.299219","135.704066","0","1"
"29","奈良県","29207","五條市","292070035000","釜窪町","34.346517","135.676406","0","1"
"29","奈良県","29207","五條市","292070036000","上之町","34.379692","135.672989","0","1"
"29","奈良県","29207","五條市","292070037000","北山町","34.392018","135.674945","0","1"
"29","奈良県","29207","五條市","292070038000","木ノ原町","34.354715","135.666129","0","1"
"29","奈良県","29207","五條市","292070039000","久留野町","34.393541","135.690767","0","1"
"29","奈良県","29207","五條市","292070040000","車谷町","34.352212","135.768215","0","1"
"29","奈良県","29207","五條市","292070041000","黒駒町","34.334400","135.684427","0","1"
"29","奈良県","29207","五條市","292070042000","上野町","34.336255","135.673422","0","1"
"29","奈良県","29207","五條市","292070043000","小島町","34.358952","135.720665","0","1"
"29","奈良県","29207","五條市","292070044001","五條一丁目","34.350448","135.695790","0","3"
"29","奈良県","29207","五條市","292070044002","五條二丁目","34.350844","135.697739","0","3"
"29","奈良県","29207","五條市","292070044003","五條三丁目","34.350896","135.699948","0","3"
"29","奈良県","29207","五條市","292070044004","五條四丁目","34.350408","135.704619","0","3"
"29","奈良県","29207","五條市","292070045000","小山町","34.392255","135.714258","0","1"
"29","奈良県","29207","五條市","292070046000","阪合部新田町","34.302521","135.685984","0","1"
"29","奈良県","29207","五條市","292070047000","三在町","34.373866","135.724252","0","1"
"29","奈良県","29207","五條市","292070048000","島野町","34.354910","135.735865","0","1"
"29","奈良県","29207","五條市","292070049000","下之町","34.350280","135.685881","0","1"
"29","奈良県","29207","五條市","292070050001","新町一丁目","34.348417","135.690997","0","3"
"29","奈良県","29207","五條市","292070050002","新町二丁目","34.347048","135.689295","0","3"
"29","奈良県","29207","五條市","292070050003","新町三丁目","34.350328","135.689809","0","3"
"29","奈良県","29207","五條市","292070051001","須恵一丁目","34.352992","135.696163","0","3"
"29","奈良県","29207","五條市","292070051002","須恵二丁目","34.353693","135.697685","0","3"
"29","奈良県","29207","五條市","292070051003","須恵三丁目","34.354779","135.699621","0","3"
"29","奈良県","29207","五條市","292070052000","住川町","34.382587","135.719418","0","1"
"29","奈良県","29207","五條市","292070053000","滝町","34.356983","135.758803","0","1"
"29","奈良県","29207","五條市","292070054000","田殿町","34.310217","135.668627","0","1"
"29","奈良県","29207","五條市","292070055000","丹原町","34.324154","135.699119","0","1"
"29","奈良県","29207","五條市","292070056000","近内町","34.382095","135.703169","0","1"
"29","奈良県","29207","五條市","292070057000","出屋敷町","34.394147","135.707171","0","1"
"29","奈良県","29207","五條市","292070058001","田園一丁目","34.373247","135.685672","0","3"
"29","奈良県","29207","五條市","292070058002","田園二丁目","34.372318","135.684248","0","3"
"29","奈良県","29207","五條市","292070058003","田園三丁目","34.365843","135.681652","0","3"
"29","奈良県","29207","五條市","292070058004","田園四丁目","34.365793","135.687354","0","3"
"29","奈良県","29207","五條市","292070058005","田園五丁目","34.370510","135.675702","0","3"
"29","奈良県","29207","五條市","292070059000","中町","34.332576","135.678801","0","1"
"29","奈良県","29207","五條市","292070060000","中之町","34.363827","135.675602","0","1"
"29","奈良県","29207","五條市","292070061001","なつみ台一丁目","34.357581","135.668283","0","3"
"29","奈良県","29207","五條市","292070061002","なつみ台二丁目","34.345091","135.669468","0","3"
"29","奈良県","29207","五條市","292070061003","なつみ台三丁目","34.343939","135.664397","0","3"
"29","奈良県","29207","五條市","292070061004","なつみ台四丁目","34.341657","135.666734","0","3"
"29","奈良県","29207","五條市","292070062000","西阿田町","34.378787","135.741097","0","1"
"29","奈良県","29207","五條市","292070063000","西河内町","34.373295","135.707494","0","1"
"29","奈良県","29207","五條市","292070064000","西久留野町","34.376741","135.694031","0","1"
"29","奈良県","29207","五條市","292070065000","西吉野町赤松","34.332888","135.750887","0","1"
"29","奈良県","29207","五條市","292070066000","西吉野町賀名生","34.298966","135.720015","0","1"
"29","奈良県","29207","五條市","292070067000","西吉野町尼ヶ生","34.308198","135.771211","0","1"
"29","奈良県","29207","五條市","292070068000","西吉野町永谷","34.244289","135.727663","0","1"
"29","奈良県","29207","五條市","292070069000","西吉野町江出","34.304432","135.720568","0","1"
"29","奈良県","29207","五條市","292070070000","西吉野町老野","34.310171","135.712757","0","1"
"29","奈良県","29207","五條市","292070071000","西吉野町小古田","34.299423","135.760849","0","1"
"29","奈良県","29207","五條市","292070072000","西吉野町大峯","34.274860","135.781646","0","1"
"29","奈良県","29207","五條市","292070073000","西吉野町奥谷","34.320749","135.737613","0","1"
"29","奈良県","29207","五條市","292070074000","西吉野町大日川","34.278056","135.718229","0","1"
"29","奈良県","29207","五條市","292070075000","西吉野町陰地","34.280284","135.761828","0","1"
"29","奈良県","29207","五條市","292070076000","西吉野町唐戸","34.319693","135.770958","0","1"
"29","奈良県","29207","五條市","292070077000","西吉野町川岸","34.290415","135.762891","0","1"
"29","奈良県","29207","五條市","292070078000","西吉野町川股","34.247745","135.793241","0","1"
"29","奈良県","29207","五條市","292070079000","西吉野町黒渕","34.290805","135.740250","0","1"
"29","奈良県","29207","五條市","292070080000","西吉野町神野","34.303013","135.711844","0","1"
"29","奈良県","29207","五條市","292070081000","西吉野町阪巻","34.269795","135.751612","0","1"
"29","奈良県","29207","五條市","292070082000","西吉野町鹿場","34.301775","135.753213","0","1"
"29","奈良県","29207","五條市","292070083000","西吉野町城戸","34.285053","135.751926","0","1"
"29","奈良県","29207","五條市","292070084000","西吉野町勢井","34.263410","135.824129","0","1"
"29","奈良県","29207","五條市","292070085000","西吉野町滝","34.313779","135.717953","0","1"
"29","奈良県","29207","五條市","292070086000","西吉野町立川渡","34.247548","135.741666","0","1"
"29","奈良県","29207","五條市","292070087000","西吉野町津越","34.280500","135.774999","0","1"
"29","奈良県","29207","五條市","292070088000","西吉野町十日市","34.300850","135.773651","0","1"
"29","奈良県","29207","五條市","292070089000","西吉野町茄子原","34.251502","135.769181","0","1"
"29","奈良県","29207","五條市","292070090000","西吉野町西新子","34.316622","135.747176","0","1"
"29","奈良県","29207","五條市","292070091000","西吉野町西野","34.265918","135.734309","0","1"
"29","奈良県","29207","五條市","292070092000","西吉野町西日裏","34.255810","135.802958","0","1"
"29","奈良県","29207","五條市","292070093000","西吉野町桧川迫","34.277106","135.806019","0","1"
"29","奈良県","29207","五條市","292070094000","西吉野町平雄","34.263184","135.773387","0","1"
"29","奈良県","29207","五條市","292070095000","西吉野町平沼田","34.321030","135.755577","0","1"
"29","奈良県","29207","五條市","292070096000","西吉野町北曽木","34.294262","135.713178","0","1"
"29","奈良県","29207","五條市","292070097000","西吉野町南山","34.295638","135.769516","0","1"
"29","奈良県","29207","五條市","292070098000","西吉野町向加名生","34.289623","135.726683","0","1"
"29","奈良県","29207","五條市","292070099000","西吉野町宗川野","34.262497","135.751413","0","1"
"29","奈良県","29207","五條市","292070100000","西吉野町本谷","34.243224","135.759058","0","1"
"29","奈良県","29207","五條市","292070101000","西吉野町百谷","34.338422","135.761090","0","1"
"29","奈良県","29207","五條市","292070102000","西吉野町八ッ川","34.308765","135.760410","0","1"
"29","奈良県","29207","五條市","292070103000","西吉野町屋那瀬","34.297933","135.724358","0","1"
"29","奈良県","29207","五條市","292070104000","西吉野町湯川","34.336857","135.740658","0","1"
"29","奈良県","29207","五條市","292070105000","西吉野町湯塩","34.312329","135.727685","0","1"
"29","奈良県","29207","五條市","292070106000","西吉野町夜中","34.310915","135.736798","0","1"
"29","奈良県","29207","五條市","292070107000","西吉野町和田","34.294301","135.722162","0","1"
"29","奈良県","29207","五條市","292070108000","野原町","34.336466","135.724958","0","1"
"29","奈良県","29207","五條市","292070109001","野原中一丁目","34.346408","135.706265","0","3"
"29","奈良県","29207","五條市","292070109002","野原中二丁目","34.346740","135.710562","0","3"
"29","奈良県","29207","五條市","292070109003","野原中三丁目","34.340941","135.702714","0","3"
"29","奈良県","29207","五條市","292070109004","野原中四丁目","34.341363","135.705502","0","3"
"29","奈良県","29207","五條市","292070109005","野原中五丁目","34.342409","135.707347","0","3"
"29","奈良県","29207","五條市","292070109006","野原中六丁目","34.342987","135.712631","0","3"
"29","奈良県","29207","五條市","292070110001","野原西一丁目","34.344618","135.693479","0","3"
"29","奈良県","29207","五條市","292070110002","野原西二丁目","34.346530","135.698492","0","3"
"29","奈良県","29207","五條市","292070110003","野原西三丁目","34.345402","135.702168","0","3"
"29","奈良県","29207","五條市","292070110004","野原西四丁目","34.343848","135.698776","0","3"
"29","奈良県","29207","五條市","292070110005","野原西五丁目","34.341413","135.699942","0","3"
"29","奈良県","29207","五條市","292070110006","野原西六丁目","34.340504","135.696192","0","3"
"29","奈良県","29207","五條市","292070111001","野原東一丁目","34.347446","135.713496","0","3"
"29","奈良県","29207","五條市","292070111002","野原東二丁目","34.349637","135.713666","0","3"
"29","奈良県","29207","五條市","292070111003","野原東三丁目","34.352969","135.714773","0","3"
"29","奈良県","29207","五條市","292070111004","野原東四丁目","34.353911","135.719220","0","3"
"29","奈良県","29207","五條市","292070111005","野原東五丁目","34.349364","135.717971","0","3"
"29","奈良県","29207","五條市","292070111006","野原東六丁目","34.343479","135.716630","0","3"
"29","奈良県","29207","五條市","292070111007","野原東七丁目","34.341192","135.716166","0","3"
"29","奈良県","29207","五條市","292070112000","畑田町","34.336949","135.662587","0","1"
"29","奈良県","29207","五條市","292070113000","八田町","34.374933","135.764444","0","1"
"29","奈良県","29207","五條市","292070114000","原町","34.361729","135.739096","0","1"
"29","奈良県","29207","五條市","292070115000","火打町","34.319513","135.671786","0","1"
"29","奈良県","29207","五條市","292070116000","東阿田町","34.380729","135.751579","0","1"
"29","奈良県","29207","五條市","292070117000","表野町","34.320715","135.678806","0","1"
"29","奈良県","29207","五條市","292070118001","二見一丁目","34.346865","135.686892","0","3"
"29","奈良県","29207","五條市","292070118002","二見二丁目","34.344563","135.684943","0","3"
"29","奈良県","29207","五條市","292070118003","二見三丁目","34.344446","135.682646","0","3"
"29","奈良県","29207","五條市","292070118004","二見四丁目","34.344063","135.688089","0","3"
"29","奈良県","29207","五條市","292070118005","二見五丁目","34.340894","135.686576","0","3"
"29","奈良県","29207","五條市","292070118006","二見六丁目","34.347202","135.684210","0","3"
"29","奈良県","29207","五條市","292070118007","二見七丁目","34.344715","135.679395","0","3"
"29","奈良県","29207","五條市","292070119001","本町一丁目","34.352061","135.693227","0","3"
"29","奈良県","29207","五條市","292070119002","本町二丁目","34.349677","135.694064","0","3"
"29","奈良県","29207","五條市","292070119003","本町三丁目","34.354955","135.693203","0","3"
"29","奈良県","29207","五條市","292070120000","牧町","34.347804","135.724441","0","1"
"29","奈良県","29207","五條市","292070121000","南阿田町","34.367629","135.761315","0","1"
"29","奈良県","29207","五條市","292070122000","御山町","34.332213","135.692468","0","1"
"29","奈良県","29207","五條市","292070123000","六倉町","34.353252","135.730307","0","1"
"29","奈良県","29207","五條市","292070124000","山陰町","34.322691","135.682697","0","1"
"29","奈良県","29207","五條市","292070125000","山田町","34.368123","135.738415","0","1"
"29","奈良県","29207","五條市","292070126000","湯谷市塚町","34.347360","135.756712","0","1"
"29","奈良県","29207","五條市","292070127000","霊安寺町","34.327664","135.712840","0","1"
