"PrefCode","PrefName","MuniCode","MuniName","DistCode","DistName","lat","lon","SrcCode","CatCode"
"29","奈良県","29342","生駒郡平群町","293420001000","大字櫟原","34.645954","135.681028","0","1"
"29","奈良県","29342","生駒郡平群町","293420002000","大字上庄","34.639669","135.711222","0","1"
"29","奈良県","29342","生駒郡平群町","293420003000","大字久安寺","34.621857","135.667431","0","1"
"29","奈良県","29342","生駒郡平群町","293420004000","大字越木塚","34.620635","135.690556","0","1"
"29","奈良県","29342","生駒郡平群町","293420005000","大字信貴山","34.609751","135.669943","0","1"
"29","奈良県","29342","生駒郡平群町","293420006000","大字信貴畑","34.617475","135.681440","0","1"
"29","奈良県","29342","生駒郡平群町","293420007000","大字椣原","34.644627","135.716974","0","1"
"29","奈良県","29342","生駒郡平群町","293420008000","大字下垣内","34.625559","135.703737","0","1"
"29","奈良県","29342","生駒郡平群町","293420009000","大字白石畑","34.628025","135.717894","0","1"
"29","奈良県","29342","生駒郡平群町","293420010000","大字椿井","34.617256","135.710881","0","1"
"29","奈良県","29342","生駒郡平群町","293420011000","大字梨本","34.633674","135.698893","0","1"
"29","奈良県","29342","生駒郡平群町","293420012000","大字鳴川","34.655367","135.678165","0","1"
"29","奈良県","29342","生駒郡平群町","293420013000","大字西向","34.639154","135.697431","0","1"
"29","奈良県","29342","生駒郡平群町","293420014000","大字平等寺","34.624003","135.709665","0","1"
"29","奈良県","29342","生駒郡平群町","293420015000","大字福貴","34.631498","135.693050","0","1"
"29","奈良県","29342","生駒郡平群町","293420016000","大字福貴畑","34.633908","135.673659","0","1"
"29","奈良県","29342","生駒郡平群町","293420017000","大字椹原","34.616632","135.693946","0","1"
"29","奈良県","29342","生駒郡平群町","293420018000","大字三里","34.632626","135.711740","0","1"
"29","奈良県","29342","生駒郡平群町","293420019000","大字若井","34.621311","135.699428","0","1"
"29","奈良県","29342","生駒郡平群町","293420020001","春日丘一丁目","34.617417","135.701258","0","3"
"29","奈良県","29342","生駒郡平群町","293420020002","春日丘二丁目","34.615290","135.701356","0","3"
"29","奈良県","29342","生駒郡平群町","293420021001","上庄一丁目","34.639813","135.702020","0","3"
"29","奈良県","29342","生駒郡平群町","293420021002","上庄二丁目","34.640593","135.705528","0","3"
"29","奈良県","29342","生駒郡平群町","293420021003","上庄三丁目","34.640300","135.707760","0","3"
"29","奈良県","29342","生駒郡平群町","293420021004","上庄四丁目","34.637280","135.705619","0","3"
"29","奈良県","29342","生駒郡平群町","293420021005","上庄五丁目","34.637389","135.702143","0","3"
"29","奈良県","29342","生駒郡平群町","293420022001","菊美台一丁目","34.645709","135.707617","0","3"
"29","奈良県","29342","生駒郡平群町","293420022002","菊美台二丁目","34.645702","135.709796","0","3"
"29","奈良県","29342","生駒郡平群町","293420022003","菊美台三丁目","34.646136","135.712214","0","3"
"29","奈良県","29342","生駒郡平群町","293420022004","菊美台四丁目","34.646437","135.715056","0","3"
"29","奈良県","29342","生駒郡平群町","293420022005","菊美台五丁目","34.648170","135.712184","0","3"
"29","奈良県","29342","生駒郡平群町","293420023001","北信貴ケ丘一丁目","34.611580","135.706375","0","3"
"29","奈良県","29342","生駒郡平群町","293420023002","北信貴ケ丘二丁目","34.611120","135.708142","0","3"
"29","奈良県","29342","生駒郡平群町","293420024001","竜田川一丁目","34.614532","135.711660","0","3"
"29","奈良県","29342","生駒郡平群町","293420024002","竜田川二丁目","34.612413","135.711218","0","3"
"29","奈良県","29342","生駒郡平群町","293420024003","竜田川三丁目","34.611446","135.710156","0","3"
"29","奈良県","29342","生駒郡平群町","293420025001","椿台一丁目","34.642115","135.695867","0","3"
"29","奈良県","29342","生駒郡平群町","293420025002","椿台二丁目","34.641183","135.693283","0","3"
"29","奈良県","29342","生駒郡平群町","293420025003","椿台三丁目","34.642499","135.692419","0","3"
"29","奈良県","29342","生駒郡平群町","293420025004","椿台四丁目","34.643476","135.693881","0","3"
"29","奈良県","29342","生駒郡平群町","293420026001","西宮一丁目","34.620152","135.702774","0","3"
"29","奈良県","29342","生駒郡平群町","293420026002","西宮二丁目","34.617349","135.705442","0","3"
"29","奈良県","29342","生駒郡平群町","293420026003","西宮三丁目","34.617206","135.703844","0","3"
"29","奈良県","29342","生駒郡平群町","293420027001","初香台一丁目","34.627849","135.699617","0","3"
"29","奈良県","29342","生駒郡平群町","293420027002","初香台二丁目","34.626123","135.697982","0","3"
"29","奈良県","29342","生駒郡平群町","293420027003","初香台三丁目","34.625107","135.697822","0","3"
"29","奈良県","29342","生駒郡平群町","293420027004","初香台四丁目","34.624028","135.697128","0","3"
"29","奈良県","29342","生駒郡平群町","293420027005","初香台五丁目","34.624559","135.699757","0","3"
"29","奈良県","29342","生駒郡平群町","293420028001","光ケ丘一丁目","34.625742","135.701201","0","3"
"29","奈良県","29342","生駒郡平群町","293420028002","光ケ丘二丁目","34.625638","135.699450","0","3"
"29","奈良県","29342","生駒郡平群町","293420029001","緑ケ丘一丁目","34.644261","135.698062","0","3"
"29","奈良県","29342","生駒郡平群町","293420029002","緑ケ丘二丁目","34.642996","135.700159","0","3"
"29","奈良県","29342","生駒郡平群町","293420029003","緑ケ丘三丁目","34.644757","135.702000","0","3"
"29","奈良県","29342","生駒郡平群町","293420029004","緑ケ丘四丁目","34.645841","135.700656","0","3"
"29","奈良県","29342","生駒郡平群町","293420029005","緑ケ丘五丁目","34.646476","135.698493","0","3"
"29","奈良県","29342","生駒郡平群町","293420029006","緑ケ丘六丁目","34.648030","135.697647","0","3"
"29","奈良県","29342","生駒郡平群町","293420030001","吉新一丁目","34.628256","135.701544","0","3"
"29","奈良県","29342","生駒郡平群町","293420030002","吉新二丁目","34.631734","135.701494","0","3"
"29","奈良県","29342","生駒郡平群町","293420030003","吉新三丁目","34.631729","135.703651","0","3"
"29","奈良県","29342","生駒郡平群町","293420030004","吉新四丁目","34.628678","135.703187","0","3"
"29","奈良県","29342","生駒郡平群町","293420031001","若葉台一丁目","34.635649","135.695782","0","3"
"29","奈良県","29342","生駒郡平群町","293420031002","若葉台二丁目","34.638491","135.693401","0","3"
"29","奈良県","29342","生駒郡平群町","293420031003","若葉台三丁目","34.636951","135.690465","0","3"
"29","奈良県","29342","生駒郡平群町","293420031004","若葉台四丁目","34.635698","135.692593","0","3"
"29","奈良県","29342","生駒郡平群町","293420031005","若葉台五丁目","34.634834","135.694590","0","3"
