"PrefCode","PrefName","MuniCode","MuniName","DistCode","DistName","lat","lon","SrcCode","CatCode"
"30","和歌山県","30201","和歌山市","302010001000","葵町","34.213480","135.163085","0","1"
"30","和歌山県","30201","和歌山市","302010002000","秋月","34.230374","135.203712","0","1"
"30","和歌山県","30201","和歌山市","302010003000","秋葉町","34.200466","135.171405","0","1"
"30","和歌山県","30201","和歌山市","302010004000","朝日","34.192106","135.218759","0","1"
"30","和歌山県","30201","和歌山市","302010005000","芦辺丁","34.223697","135.175487","0","1"
"30","和歌山県","30201","和歌山市","302010006000","小豆島","34.252869","135.229079","0","1"
"30","和歌山県","30201","和歌山市","302010007000","網屋町","34.228907","135.161261","0","1"
"30","和歌山県","30201","和歌山市","302010008000","有家","34.222050","135.199850","0","1"
"30","和歌山県","30201","和歌山市","302010009000","有田屋町","34.227224","135.166584","0","1"
"30","和歌山県","30201","和歌山市","302010010000","有田屋町南ノ丁","34.227037","135.165525","0","1"
"30","和歌山県","30201","和歌山市","302010011000","有本","34.249854","135.194426","0","1"
"30","和歌山県","30201","和歌山市","302010012000","新内","34.233578","135.184124","0","1"
"30","和歌山県","30201","和歌山市","302010013000","粟","34.249870","135.175833","0","1"
"30","和歌山県","30201","和歌山市","302010014000","石橋丁","34.238341","135.167063","0","1"
"30","和歌山県","30201","和歌山市","302010015000","磯の浦","34.268912","135.091693","0","1"
"30","和歌山県","30201","和歌山市","302010016000","伊太祈曽","34.197800","135.251469","0","1"
"30","和歌山県","30201","和歌山市","302010017000","板屋町","34.233801","135.170327","0","1"
"30","和歌山県","30201","和歌山市","302010018000","市小路","34.255674","135.166173","0","1"
"30","和歌山県","30201","和歌山市","302010019000","一番丁","34.227823","135.172113","0","1"
"30","和歌山県","30201","和歌山市","302010020000","五筋目","34.240321","135.170600","0","1"
"30","和歌山県","30201","和歌山市","302010021000","井戸","34.199533","135.228621","0","1"
"30","和歌山県","30201","和歌山市","302010022000","井ノ口","34.240497","135.249115","0","1"
"30","和歌山県","30201","和歌山市","302010023001","今福一丁目","34.214738","135.165668","0","3"
"30","和歌山県","30201","和歌山市","302010023002","今福二丁目","34.210330","135.165987","0","3"
"30","和歌山県","30201","和歌山市","302010023003","今福三丁目","34.210381","135.163764","0","3"
"30","和歌山県","30201","和歌山市","302010023004","今福四丁目","34.212497","135.161124","0","3"
"30","和歌山県","30201","和歌山市","302010023005","今福五丁目","34.210618","135.161220","0","3"
"30","和歌山県","30201","和歌山市","302010024000","岩橋","34.235171","135.231368","0","1"
"30","和歌山県","30201","和歌山市","302010025000","井辺","34.219964","135.214878","0","1"
"30","和歌山県","30201","和歌山市","302010026000","上野","34.270896","135.254502","0","1"
"30","和歌山県","30201","和歌山市","302010027001","上野町一丁目","34.226751","135.168086","0","3"
"30","和歌山県","30201","和歌山市","302010027002","上野町二丁目","34.226892","135.167786","0","3"
"30","和歌山県","30201","和歌山市","302010027003","上野町三丁目","34.225939","135.165065","0","3"
"30","和歌山県","30201","和歌山市","302010028000","植松丁","34.227602","135.161089","0","1"
"30","和歌山県","30201","和歌山市","302010029000","宇治鉄砲場","34.243068","135.173010","0","1"
"30","和歌山県","30201","和歌山市","302010030000","宇治袋町","34.236718","135.173273","0","1"
"30","和歌山県","30201","和歌山市","302010031000","宇治家裏","34.241983","135.178954","0","1"
"30","和歌山県","30201","和歌山市","302010032000","宇治藪下","34.243544","135.177659","0","1"
"30","和歌山県","30201","和歌山市","302010033001","宇須一丁目","34.211009","135.174126","0","3"
"30","和歌山県","30201","和歌山市","302010033002","宇須二丁目","34.212179","135.176076","0","3"
"30","和歌山県","30201","和歌山市","302010033003","宇須三丁目","34.210385","135.177163","0","3"
"30","和歌山県","30201","和歌山市","302010033004","宇須四丁目","34.207495","135.177735","0","3"
"30","和歌山県","30201","和歌山市","302010034000","宇田森","34.261085","135.246799","0","1"
"30","和歌山県","30201","和歌山市","302010035000","打越町","34.204308","135.176760","0","1"
"30","和歌山県","30201","和歌山市","302010036000","内原","34.176912","135.197710","0","1"
"30","和歌山県","30201","和歌山市","302010037000","梅原","34.269961","135.139844","0","1"
"30","和歌山県","30201","和歌山市","302010038000","上町","34.229689","135.160452","0","1"
"30","和歌山県","30201","和歌山市","302010039001","餌差町一丁目","34.228763","135.184610","0","3"
"30","和歌山県","30201","和歌山市","302010039002","餌差町二丁目","34.229872","135.184247","0","3"
"30","和歌山県","30201","和歌山市","302010040000","江南","34.188172","135.230387","0","1"
"30","和歌山県","30201","和歌山市","302010041000","榎原","34.255613","135.130490","0","1"
"30","和歌山県","30201","和歌山市","302010042000","大垣内","34.247262","135.274789","0","1"
"30","和歌山県","30201","和歌山市","302010043000","大川","34.302073","135.088492","0","1"
"30","和歌山県","30201","和歌山市","302010044000","大河内","34.193652","135.269958","0","1"
"30","和歌山県","30201","和歌山市","302010045000","太田","34.230096","135.199521","0","1"
"30","和歌山県","30201","和歌山市","302010046001","太田一丁目","34.230684","135.193219","0","3"
"30","和歌山県","30201","和歌山市","302010046002","太田二丁目","34.230710","135.195421","0","3"
"30","和歌山県","30201","和歌山市","302010046003","太田三丁目","34.230924","135.197456","0","3"
"30","和歌山県","30201","和歌山市","302010046004","太田四丁目","34.228754","135.196081","0","3"
"30","和歌山県","30201","和歌山市","302010047000","大谷","34.268080","135.175374","0","1"
"30","和歌山県","30201","和歌山市","302010048000","岡円福院西ノ丁","34.233862","135.181927","0","1"
"30","和歌山県","30201","和歌山市","302010049000","岡円福院東ノ丁","34.234162","135.183933","0","1"
"30","和歌山県","30201","和歌山市","302010050000","岡織屋小路","34.233506","135.183311","0","1"
"30","和歌山県","30201","和歌山市","302010051000","岡北ノ丁","34.233404","135.182848","0","1"
"30","和歌山県","30201","和歌山市","302010052000","岡南ノ丁","34.232002","135.182433","0","1"
"30","和歌山県","30201","和歌山市","302010053000","岡山丁","34.225606","135.176444","0","1"
"30","和歌山県","30201","和歌山市","302010054000","奥須佐","34.193962","135.246650","0","1"
"30","和歌山県","30201","和歌山市","302010055000","小倉","34.251608","135.291682","0","1"
"30","和歌山県","30201","和歌山市","302010056000","尾崎丁","34.222519","135.165793","0","1"
"30","和歌山県","30201","和歌山市","302010057000","落合","34.299831","135.247095","0","1"
"30","和歌山県","30201","和歌山市","302010058000","男野芝丁","34.229496","135.164419","0","1"
"30","和歌山県","30201","和歌山市","302010059001","小野町一丁目","34.231907","135.167070","0","3"
"30","和歌山県","30201","和歌山市","302010059002","小野町二丁目","34.232024","135.165386","0","3"
"30","和歌山県","30201","和歌山市","302010059003","小野町三丁目","34.232018","135.163631","0","3"
"30","和歌山県","30201","和歌山市","302010060001","雄松町一丁目","34.222808","135.181920","0","3"
"30","和歌山県","30201","和歌山市","302010060002","雄松町二丁目","34.222169","135.181786","0","3"
"30","和歌山県","30201","和歌山市","302010060003","雄松町三丁目","34.221030","135.182217","0","3"
"30","和歌山県","30201","和歌山市","302010060004","雄松町四丁目","34.220174","135.181596","0","3"
"30","和歌山県","30201","和歌山市","302010060005","雄松町五丁目","34.219104","135.180812","0","3"
"30","和歌山県","30201","和歌山市","302010060006","雄松町六丁目","34.217824","135.182010","0","3"
"30","和歌山県","30201","和歌山市","302010061000","嘉家作丁","34.242247","135.177283","0","1"
"30","和歌山県","30201","和歌山市","302010062000","駕町","34.225892","135.163493","0","1"
"30","和歌山県","30201","和歌山市","302010063000","加太","34.275072","135.081156","0","1"
"30","和歌山県","30201","和歌山市","302010064001","片岡町一丁目","34.225172","135.174482","0","3"
"30","和歌山県","30201","和歌山市","302010064002","片岡町二丁目","34.223383","135.174697","0","3"
"30","和歌山県","30201","和歌山市","302010065000","徒町","34.225975","135.166332","0","1"
"30","和歌山県","30201","和歌山市","302010066000","金谷","34.230791","135.273200","0","1"
"30","和歌山県","30201","和歌山市","302010067000","加納","34.245537","135.204490","0","1"
"30","和歌山県","30201","和歌山市","302010068000","加納町","34.225515","135.159664","0","1"
"30","和歌山県","30201","和歌山市","302010069000","上黒谷","34.282319","135.264085","0","1"
"30","和歌山県","30201","和歌山市","302010070000","上三毛","34.244117","135.304608","0","1"
"30","和歌山県","30201","和歌山市","302010071000","川辺","34.256882","135.266203","0","1"
"30","和歌山県","30201","和歌山市","302010072000","梶取","34.251438","135.156502","0","1"
"30","和歌山県","30201","和歌山市","302010073000","北","34.256869","135.241034","0","1"
"30","和歌山県","30201","和歌山市","302010074000","北相生丁","34.224060","135.165068","0","1"
"30","和歌山県","30201","和歌山市","302010075000","北牛町","34.227032","135.161473","0","1"
"30","和歌山県","30201","和歌山市","302010076000","北桶屋町","34.236563","135.175229","0","1"
"30","和歌山県","30201","和歌山市","302010077000","北休賀町","34.231476","135.179211","0","1"
"30","和歌山県","30201","和歌山市","302010078000","北釘貫丁","34.240249","135.173024","0","1"
"30","和歌山県","30201","和歌山市","302010079000","北細工町","34.228061","135.179495","0","1"
"30","和歌山県","30201","和歌山市","302010080000","北坂ノ上丁","34.228722","135.165819","0","1"
"30","和歌山県","30201","和歌山市","302010081000","北島","34.240796","135.161068","0","1"
"30","和歌山県","30201","和歌山市","302010082001","北新一丁目","34.240960","135.177483","0","3"
"30","和歌山県","30201","和歌山市","302010082002","北新二丁目","34.239688","135.177550","0","3"
"30","和歌山県","30201","和歌山市","302010082003","北新三丁目","34.238759","135.177516","0","3"
"30","和歌山県","30201","和歌山市","302010082004","北新四丁目","34.237734","135.177535","0","3"
"30","和歌山県","30201","和歌山市","302010082005","北新五丁目","34.235784","135.177586","0","3"
"30","和歌山県","30201","和歌山市","302010083000","北新戎ノ丁","34.238751","135.178245","0","1"
"30","和歌山県","30201","和歌山市","302010084000","北新桶屋町","34.236454","135.178271","0","1"
"30","和歌山県","30201","和歌山市","302010085000","北新金屋丁","34.236747","135.179533","0","1"
"30","和歌山県","30201","和歌山市","302010086000","北甚五兵衛丁","34.227051","135.163261","0","1"
"30","和歌山県","30201","和歌山市","302010087000","北新七軒丁","34.240906","135.178177","0","1"
"30","和歌山県","30201","和歌山市","302010088000","北新中ノ丁","34.237673","135.178246","0","1"
"30","和歌山県","30201","和歌山市","302010089000","北新博労町","34.239993","135.178396","0","1"
"30","和歌山県","30201","和歌山市","302010090000","北新元金屋丁","34.238625","135.180208","0","1"
"30","和歌山県","30201","和歌山市","302010091000","北大工町","34.235091","135.173623","0","1"
"30","和歌山県","30201","和歌山市","302010092000","北田辺丁","34.224467","135.163458","0","1"
"30","和歌山県","30201","和歌山市","302010093000","北中間町","34.225473","135.163520","0","1"
"30","和歌山県","30201","和歌山市","302010094000","北出島","34.221889","135.194438","0","1"
"30","和歌山県","30201","和歌山市","302010095001","北出島一丁目","34.222860","135.191023","0","3"
"30","和歌山県","30201","和歌山市","302010096000","北土佐丁","34.225202","135.161266","0","1"
"30","和歌山県","30201","和歌山市","302010097001","北中島一丁目","34.212120","135.186941","0","3"
"30","和歌山県","30201","和歌山市","302010098000","北野","34.274694","135.248552","0","1"
"30","和歌山県","30201","和歌山市","302010099001","北ノ新地一丁目","34.231180","135.183823","0","3"
"30","和歌山県","30201","和歌山市","302010099002","北ノ新地二丁目","34.232354","135.183371","0","3"
"30","和歌山県","30201","和歌山市","302010100000","北ノ新地裏田町","34.232356","135.184133","0","1"
"30","和歌山県","30201","和歌山市","302010101000","北ノ新地榎丁","34.231976","135.184252","0","1"
"30","和歌山県","30201","和歌山市","302010102000","北ノ新地上六軒丁","34.230966","135.183192","0","1"
"30","和歌山県","30201","和歌山市","302010103000","北ノ新地下六軒丁","34.232099","135.182980","0","1"
"30","和歌山県","30201","和歌山市","302010104000","北ノ新地田町","34.232757","135.184000","0","1"
"30","和歌山県","30201","和歌山市","302010105000","北ノ新地中六軒丁","34.231599","135.183054","0","1"
"30","和歌山県","30201","和歌山市","302010106000","北ノ新地東ノ丁","34.231339","135.184493","0","1"
"30","和歌山県","30201","和歌山市","302010107000","北ノ新地分銅丁","34.233201","135.183638","0","1"
"30","和歌山県","30201","和歌山市","302010108000","北別所","34.282744","135.253920","0","1"
"30","和歌山県","30201","和歌山市","302010109000","北町","34.236064","135.173282","0","1"
"30","和歌山県","30201","和歌山市","302010110000","北汀丁","34.229475","135.168128","0","1"
"30","和歌山県","30201","和歌山市","302010111000","狐島","34.245474","135.150771","0","1"
"30","和歌山県","30201","和歌山市","302010112000","木ノ本","34.266823","135.129006","0","1"
"30","和歌山県","30201","和歌山市","302010113002","木広町二丁目","34.226660","135.186457","0","3"
"30","和歌山県","30201","和歌山市","302010113003","木広町三丁目","34.226884","135.187882","0","3"
"30","和歌山県","30201","和歌山市","302010113004","木広町四丁目","34.227046","135.189192","0","3"
"30","和歌山県","30201","和歌山市","302010113005","木広町五丁目","34.227367","135.191115","0","3"
"30","和歌山県","30201","和歌山市","302010114000","紀三井寺","34.182944","135.188492","0","1"
"30","和歌山県","30201","和歌山市","302010115000","久右衛門丁","34.225592","135.165724","0","1"
"30","和歌山県","30201","和歌山市","302010116000","九番丁","34.231272","135.172133","0","1"
"30","和歌山県","30201","和歌山市","302010117000","吉礼","34.209217","135.237013","0","1"
"30","和歌山県","30201","和歌山市","302010118000","金龍寺丁","34.220441","135.164869","0","1"
"30","和歌山県","30201","和歌山市","302010119000","杭ノ瀬","34.208424","135.192075","0","1"
"30","和歌山県","30201","和歌山市","302010120000","九家ノ丁","34.235892","135.169855","0","1"
"30","和歌山県","30201","和歌山市","302010121000","楠右衛門小路","34.230348","135.184760","0","1"
"30","和歌山県","30201","和歌山市","302010122000","楠見中","34.255094","135.176331","0","1"
"30","和歌山県","30201","和歌山市","302010123000","楠本","34.257073","135.257206","0","1"
"30","和歌山県","30201","和歌山市","302010124000","口須佐","34.201892","135.246022","0","1"
"30","和歌山県","30201","和歌山市","302010125001","久保丁一丁目","34.231333","135.167074","0","3"
"30","和歌山県","30201","和歌山市","302010125002","久保丁二丁目","34.231343","135.165505","0","3"
"30","和歌山県","30201","和歌山市","302010125003","久保丁三丁目","34.231341","135.164029","0","3"
"30","和歌山県","30201","和歌山市","302010125004","久保丁四丁目","34.230693","135.161803","0","3"
"30","和歌山県","30201","和歌山市","302010126000","蔵小路","34.229421","135.184934","0","1"
"30","和歌山県","30201","和歌山市","302010127000","栗栖","34.238922","135.223621","0","1"
"30","和歌山県","30201","和歌山市","302010128000","黒岩","34.182071","135.273490","0","1"
"30","和歌山県","30201","和歌山市","302010129000","黒田","34.236413","135.195280","0","1"
"30","和歌山県","30201","和歌山市","302010130001","黒田一丁目","34.233031","135.192816","0","3"
"30","和歌山県","30201","和歌山市","302010130002","黒田二丁目","34.233253","135.195328","0","3"
"30","和歌山県","30201","和歌山市","302010131000","黒谷","34.181865","135.256092","0","1"
"30","和歌山県","30201","和歌山市","302010132000","桑山","34.195902","135.221867","0","1"
"30","和歌山県","30201","和歌山市","302010133000","毛革屋丁","34.230520","135.182483","0","1"
"30","和歌山県","30201","和歌山市","302010134000","下町","34.230266","135.162980","0","1"
"30","和歌山県","30201","和歌山市","302010135000","毛見","34.165258","135.187063","0","1"
"30","和歌山県","30201","和歌山市","302010136001","源蔵馬場一丁目","34.241065","135.172694","0","3"
"30","和歌山県","30201","和歌山市","302010136002","源蔵馬場二丁目","34.242166","135.172908","0","3"
"30","和歌山県","30201","和歌山市","302010137000","神前","34.212236","135.208171","0","1"
"30","和歌山県","30201","和歌山市","302010138000","神波","34.266047","135.255820","0","1"
"30","和歌山県","30201","和歌山市","302010139000","小雑賀","34.201312","135.183974","0","1"
"30","和歌山県","30201","和歌山市","302010140001","小雑賀一丁目","34.211542","135.179032","0","3"
"30","和歌山県","30201","和歌山市","302010140002","小雑賀二丁目","34.210590","135.181635","0","3"
"30","和歌山県","30201","和歌山市","302010140003","小雑賀三丁目","34.211098","135.184420","0","3"
"30","和歌山県","30201","和歌山市","302010141000","小瀬田","34.180211","135.230940","0","1"
"30","和歌山県","30201","和歌山市","302010142000","五番丁","34.229173","135.176937","0","1"
"30","和歌山県","30201","和歌山市","302010143000","木挽丁","34.232968","135.180739","0","1"
"30","和歌山県","30201","和歌山市","302010144000","小人町","34.230679","135.167094","0","1"
"30","和歌山県","30201","和歌山市","302010145000","小人町南ノ丁","34.229646","135.166067","0","1"
"30","和歌山県","30201","和歌山市","302010146000","木枕","34.211404","135.261441","0","1"
"30","和歌山県","30201","和歌山市","302010147005","小松原五丁目","34.218095","135.167886","0","3"
"30","和歌山県","30201","和歌山市","302010147006","小松原六丁目","34.216473","135.168007","0","3"
"30","和歌山県","30201","和歌山市","302010148001","小松原通一丁目","34.225812","135.168052","0","3"
"30","和歌山県","30201","和歌山市","302010148002","小松原通二丁目","34.223602","135.169140","0","3"
"30","和歌山県","30201","和歌山市","302010148003","小松原通三丁目","34.221955","135.168822","0","3"
"30","和歌山県","30201","和歌山市","302010148004","小松原通四丁目","34.220017","135.168800","0","3"
"30","和歌山県","30201","和歌山市","302010148005","小松原通五丁目","34.219234","135.167006","0","3"
"30","和歌山県","30201","和歌山市","302010149000","米屋町","34.233320","135.175484","0","1"
"30","和歌山県","30201","和歌山市","302010150000","古屋","34.248496","135.117359","0","1"
"30","和歌山県","30201","和歌山市","302010151000","雑賀崎","34.193820","135.144244","0","1"
"30","和歌山県","30201","和歌山市","302010152000","雑賀町","34.233188","135.177292","0","1"
"30","和歌山県","30201","和歌山市","302010153000","雑賀道","34.224720","135.180914","0","1"
"30","和歌山県","30201","和歌山市","302010154000","雑賀屋町","34.227765","135.167664","0","1"
"30","和歌山県","30201","和歌山市","302010155000","雑賀屋町東ノ丁","34.226918","135.168969","0","1"
"30","和歌山県","30201","和歌山市","302010156000","材木丁","34.228361","135.160741","0","1"
"30","和歌山県","30201","和歌山市","302010157000","境原","34.186569","135.244641","0","1"
"30","和歌山県","30201","和歌山市","302010158000","栄谷","34.266061","135.156418","0","1"
"30","和歌山県","30201","和歌山市","302010159000","坂田","34.203099","135.202286","0","1"
"30","和歌山県","30201","和歌山市","302010160000","鷺ノ森","34.236129","135.171108","0","1"
"30","和歌山県","30201","和歌山市","302010161000","鷺ノ森片町","34.236430","135.171494","0","1"
"30","和歌山県","30201","和歌山市","302010162000","鷺ノ森新道","34.237048","135.170715","0","1"
"30","和歌山県","30201","和歌山市","302010163000","鷺ノ森堂前丁","34.235837","135.172083","0","1"
"30","和歌山県","30201","和歌山市","302010164000","鷺ノ森中ノ丁","34.236711","135.170985","0","1"
"30","和歌山県","30201","和歌山市","302010165000","鷺ノ森西ノ丁","34.236292","135.170400","0","1"
"30","和歌山県","30201","和歌山市","302010166000","鷺ノ森東ノ丁","34.236734","135.172379","0","1"
"30","和歌山県","30201","和歌山市","302010167000","鷺ノ森南ノ丁","34.235199","135.170928","0","1"
"30","和歌山県","30201","和歌山市","302010168000","鷺ノ森明神丁","34.237000","135.171739","0","1"
"30","和歌山県","30201","和歌山市","302010169000","作事丁","34.222655","135.165083","0","1"
"30","和歌山県","30201","和歌山市","302010170000","里","34.265798","135.267460","0","1"
"30","和歌山県","30201","和歌山市","302010171000","山東中","34.198949","135.274519","0","1"
"30","和歌山県","30201","和歌山市","302010172000","三番丁","34.227975","135.177149","0","1"
"30","和歌山県","30201","和歌山市","302010173000","塩ノ谷","34.216961","135.252620","0","1"
"30","和歌山県","30201","和歌山市","302010174001","汐見町一丁目","34.222715","135.185564","0","3"
"30","和歌山県","30201","和歌山市","302010174002","汐見町二丁目","34.221423","135.185497","0","3"
"30","和歌山県","30201","和歌山市","302010174003","汐見町三丁目","34.220723","135.185269","0","3"
"30","和歌山県","30201","和歌山市","302010175001","塩屋一丁目","34.203870","135.179073","0","3"
"30","和歌山県","30201","和歌山市","302010175002","塩屋二丁目","34.201537","135.175574","0","3"
"30","和歌山県","30201","和歌山市","302010175003","塩屋三丁目","34.198321","135.175160","0","3"
"30","和歌山県","30201","和歌山市","302010175004","塩屋四丁目","34.200149","135.177184","0","3"
"30","和歌山県","30201","和歌山市","302010175005","塩屋五丁目","34.199686","135.180020","0","3"
"30","和歌山県","30201","和歌山市","302010175006","塩屋六丁目","34.195875","135.177368","0","3"
"30","和歌山県","30201","和歌山市","302010176000","七番丁","34.230447","135.171994","0","1"
"30","和歌山県","30201","和歌山市","302010177000","芝ノ丁","34.221715","135.168051","0","1"
"30","和歌山県","30201","和歌山市","302010178000","島","34.258011","135.251811","0","1"
"30","和歌山県","30201","和歌山市","302010179001","島崎町一丁目","34.223103","135.179415","0","3"
"30","和歌山県","30201","和歌山市","302010179002","島崎町二丁目","34.222379","135.179402","0","3"
"30","和歌山県","30201","和歌山市","302010179003","島崎町三丁目","34.221637","135.179341","0","3"
"30","和歌山県","30201","和歌山市","302010179004","島崎町四丁目","34.220952","135.179237","0","3"
"30","和歌山県","30201","和歌山市","302010179005","島崎町五丁目","34.219491","135.179318","0","3"
"30","和歌山県","30201","和歌山市","302010179006","島崎町六丁目","34.218023","135.179020","0","3"
"30","和歌山県","30201","和歌山市","302010179007","島崎町七丁目","34.216236","135.179244","0","3"
"30","和歌山県","30201","和歌山市","302010180000","島橋北ノ丁","34.246054","135.145355","0","1"
"30","和歌山県","30201","和歌山市","302010181000","島橋西ノ丁","34.244211","135.145902","0","1"
"30","和歌山県","30201","和歌山市","302010182000","島橋東ノ丁","34.244558","135.148644","0","1"
"30","和歌山県","30201","和歌山市","302010183000","島橋南ノ丁","34.242985","135.148314","0","1"
"30","和歌山県","30201","和歌山市","302010184000","下三毛","34.239916","135.297428","0","1"
"30","和歌山県","30201","和歌山市","302010185000","下和佐","34.228646","135.237324","0","1"
"30","和歌山県","30201","和歌山市","302010186000","十一番丁","34.232024","135.175145","0","1"
"30","和歌山県","30201","和歌山市","302010187000","十三番丁","34.231863","135.169261","0","1"
"30","和歌山県","30201","和歌山市","302010188000","十二番丁","34.232035","135.172088","0","1"
"30","和歌山県","30201","和歌山市","302010189000","十番丁","34.231014","135.175203","0","1"
"30","和歌山県","30201","和歌山市","302010190000","次郎丸","34.255551","135.150144","0","1"
"30","和歌山県","30201","和歌山市","302010191000","新魚町","34.241949","135.173626","0","1"
"30","和歌山県","30201","和歌山市","302010192000","新雑賀町","34.234243","135.178727","0","1"
"30","和歌山県","30201","和歌山市","302010193000","新在家","34.242092","135.198681","0","1"
"30","和歌山県","30201","和歌山市","302010194000","新堺丁","34.234672","135.179665","0","1"
"30","和歌山県","30201","和歌山市","302010195000","新庄","34.239657","135.289555","0","1"
"30","和歌山県","30201","和歌山市","302010196000","新生町","34.222422","135.188270","0","1"
"30","和歌山県","30201","和歌山市","302010197000","新大工町","34.233323","135.181156","0","1"
"30","和歌山県","30201","和歌山市","302010198001","新通一丁目","34.227894","135.183514","0","3"
"30","和歌山県","30201","和歌山市","302010198002","新通二丁目","34.228801","135.182462","0","3"
"30","和歌山県","30201","和歌山市","302010198003","新通三丁目","34.229936","135.181391","0","3"
"30","和歌山県","30201","和歌山市","302010198004","新通四丁目","34.230924","135.180554","0","3"
"30","和歌山県","30201","和歌山市","302010198005","新通五丁目","34.231709","135.180087","0","3"
"30","和歌山県","30201","和歌山市","302010198006","新通六丁目","34.232647","135.179534","0","3"
"30","和歌山県","30201","和歌山市","302010198007","新通七丁目","34.233530","135.179170","0","3"
"30","和歌山県","30201","和歌山市","302010199000","新中島","34.216184","135.196826","0","1"
"30","和歌山県","30201","和歌山市","302010200001","新中通一丁目","34.229091","135.182980","0","3"
"30","和歌山県","30201","和歌山市","302010200002","新中通二丁目","34.230206","135.181966","0","3"
"30","和歌山県","30201","和歌山市","302010200003","新中通三丁目","34.231149","135.181281","0","3"
"30","和歌山県","30201","和歌山市","302010200004","新中通四丁目","34.232075","135.180698","0","3"
"30","和歌山県","30201","和歌山市","302010200005","新中通五丁目","34.232834","135.180280","0","3"
"30","和歌山県","30201","和歌山市","302010200006","新中通六丁目","34.233589","135.179888","0","3"
"30","和歌山県","30201","和歌山市","302010201001","新堀東一丁目","34.213256","135.172729","0","3"
"30","和歌山県","30201","和歌山市","302010201002","新堀東二丁目","34.214234","135.175771","0","3"
"30","和歌山県","30201","和歌山市","302010202000","新八百屋丁","34.234563","135.180193","0","1"
"30","和歌山県","30201","和歌山市","302010203000","新和歌浦","34.187622","135.159287","0","1"
"30","和歌山県","30201","和歌山市","302010204001","杉ノ馬場一丁目","34.235662","135.168508","0","3"
"30","和歌山県","30201","和歌山市","302010204002","杉ノ馬場二丁目","34.236998","135.168393","0","3"
"30","和歌山県","30201","和歌山市","302010204003","杉ノ馬場三丁目","34.237889","135.168838","0","3"
"30","和歌山県","30201","和歌山市","302010204004","杉ノ馬場四丁目","34.238471","135.168061","0","3"
"30","和歌山県","30201","和歌山市","302010204005","杉ノ馬場五丁目","34.240556","135.167102","0","3"
"30","和歌山県","30201","和歌山市","302010205000","数寄屋丁","34.232217","135.181184","0","1"
"30","和歌山県","30201","和歌山市","302010206000","鈴丸丁","34.235796","135.179822","0","1"
"30","和歌山県","30201","和歌山市","302010207000","頭陀寺","34.189604","135.248965","0","1"
"30","和歌山県","30201","和歌山市","302010208001","砂山南一丁目","34.217973","135.165201","0","3"
"30","和歌山県","30201","和歌山市","302010208002","砂山南二丁目","34.218248","135.161755","0","3"
"30","和歌山県","30201","和歌山市","302010208003","砂山南三丁目","34.216015","135.162622","0","3"
"30","和歌山県","30201","和歌山市","302010208004","砂山南四丁目","34.214939","135.160202","0","3"
"30","和歌山県","30201","和歌山市","302010209000","住吉町","34.236972","135.176242","0","1"
"30","和歌山県","30201","和歌山市","302010210000","駿河町","34.232979","135.173327","0","1"
"30","和歌山県","30201","和歌山市","302010211001","関戸一丁目","34.200037","135.167810","0","3"
"30","和歌山県","30201","和歌山市","302010211002","関戸二丁目","34.196588","135.166953","0","3"
"30","和歌山県","30201","和歌山市","302010211003","関戸三丁目","34.196143","135.164090","0","3"
"30","和歌山県","30201","和歌山市","302010211004","関戸四丁目","34.195644","135.160784","0","3"
"30","和歌山県","30201","和歌山市","302010211005","関戸五丁目","34.192542","135.160760","0","3"
"30","和歌山県","30201","和歌山市","302010212000","専光寺門前丁","34.235059","135.171993","0","1"
"30","和歌山県","30201","和歌山市","302010213000","船場町","34.227767","135.181924","0","1"
"30","和歌山県","30201","和歌山市","302010214000","善明寺","34.268084","135.182678","0","1"
"30","和歌山県","30201","和歌山市","302010215000","相坂","34.195908","135.233913","0","1"
"30","和歌山県","30201","和歌山市","302010216000","園部","34.270943","135.192945","0","1"
"30","和歌山県","30201","和歌山市","302010217001","鷹匠町一丁目","34.222817","135.176741","0","3"
"30","和歌山県","30201","和歌山市","302010217002","鷹匠町二丁目","34.221978","135.176896","0","3"
"30","和歌山県","30201","和歌山市","302010217003","鷹匠町三丁目","34.221401","135.177076","0","3"
"30","和歌山県","30201","和歌山市","302010217004","鷹匠町四丁目","34.220494","135.177048","0","3"
"30","和歌山県","30201","和歌山市","302010217005","鷹匠町五丁目","34.219429","135.176596","0","3"
"30","和歌山県","30201","和歌山市","302010217006","鷹匠町六丁目","34.217827","135.177316","0","3"
"30","和歌山県","30201","和歌山市","302010217007","鷹匠町七丁目","34.215899","135.177085","0","3"
"30","和歌山県","30201","和歌山市","302010218000","滝畑","34.301672","135.263364","0","1"
"30","和歌山県","30201","和歌山市","302010219000","匠町","34.234437","135.175290","0","1"
"30","和歌山県","30201","和歌山市","302010220000","田尻","34.203708","135.196931","0","1"
"30","和歌山県","30201","和歌山市","302010221000","畳屋町","34.240518","135.173646","0","1"
"30","和歌山県","30201","和歌山市","302010222002","田中町二丁目","34.228001","135.186067","0","3"
"30","和歌山県","30201","和歌山市","302010222003","田中町三丁目","34.228134","135.187649","0","3"
"30","和歌山県","30201","和歌山市","302010222004","田中町四丁目","34.228372","135.189002","0","3"
"30","和歌山県","30201","和歌山市","302010222005","田中町五丁目","34.228632","135.190985","0","3"
"30","和歌山県","30201","和歌山市","302010223000","谷","34.278122","135.269585","0","1"
"30","和歌山県","30201","和歌山市","302010224000","谷町","34.224045","135.177446","0","1"
"30","和歌山県","30201","和歌山市","302010225000","田野","34.185832","135.151086","0","1"
"30","和歌山県","30201","和歌山市","302010226000","田屋","34.255172","135.224196","0","1"
"30","和歌山県","30201","和歌山市","302010227001","築港一丁目","34.224596","135.156992","0","3"
"30","和歌山県","30201","和歌山市","302010227002","築港二丁目","34.223307","135.155437","0","3"
"30","和歌山県","30201","和歌山市","302010227003","築港三丁目","34.222454","135.154119","0","3"
"30","和歌山県","30201","和歌山市","302010227004","築港四丁目","34.221186","135.153174","0","3"
"30","和歌山県","30201","和歌山市","302010227005","築港五丁目","34.220877","135.151538","0","3"
"30","和歌山県","30201","和歌山市","302010227006","築港六丁目","34.220511","135.148563","0","3"
"30","和歌山県","30201","和歌山市","302010228000","茶屋ノ丁","34.222488","135.167637","0","1"
"30","和歌山県","30201","和歌山市","302010229000","茶屋町","34.228128","135.183885","0","1"
"30","和歌山県","30201","和歌山市","302010230001","つつじが丘一丁目","34.268940","135.097993","0","3"
"30","和歌山県","30201","和歌山市","302010230002","つつじが丘二丁目","34.269972","135.101071","0","3"
"30","和歌山県","30201","和歌山市","302010230003","つつじが丘三丁目","34.272220","135.102778","0","3"
"30","和歌山県","30201","和歌山市","302010230004","つつじが丘四丁目","34.268560","135.102124","0","3"
"30","和歌山県","30201","和歌山市","302010230005","つつじが丘五丁目","34.266653","135.101667","0","3"
"30","和歌山県","30201","和歌山市","302010230006","つつじが丘六丁目","34.266140","135.104181","0","3"
"30","和歌山県","30201","和歌山市","302010230007","つつじが丘七丁目","34.265403","135.098581","0","3"
"30","和歌山県","30201","和歌山市","302010231000","津秦","34.219777","135.204901","0","1"
"30","和歌山県","30201","和歌山市","302010232000","出口甲賀丁","34.222498","135.163258","0","1"
"30","和歌山県","30201","和歌山市","302010233000","出口新端ノ丁","34.220469","135.162865","0","1"
"30","和歌山県","30201","和歌山市","302010234000","出口中ノ丁","34.221733","135.163259","0","1"
"30","和歌山県","30201","和歌山市","302010235000","出口端ノ丁","34.220972","135.163339","0","1"
"30","和歌山県","30201","和歌山市","302010236000","出島","34.247177","135.221700","0","1"
"30","和歌山県","30201","和歌山市","302010237001","手平一丁目","34.218555","135.187293","0","3"
"30","和歌山県","30201","和歌山市","302010237002","手平二丁目","34.220881","135.190511","0","3"
"30","和歌山県","30201","和歌山市","302010237003","手平三丁目","34.215625","135.188320","0","3"
"30","和歌山県","30201","和歌山市","302010237004","手平四丁目","34.217585","135.185386","0","3"
"30","和歌山県","30201","和歌山市","302010237005","手平五丁目","34.214904","135.185194","0","3"
"30","和歌山県","30201","和歌山市","302010237006","手平六丁目","34.215878","135.181550","0","3"
"30","和歌山県","30201","和歌山市","302010238000","出水","34.237037","135.203897","0","1"
"30","和歌山県","30201","和歌山市","302010239000","寺内","34.217460","135.225920","0","1"
"30","和歌山県","30201","和歌山市","302010240000","伝法橋南ノ丁","34.234305","135.164286","0","1"
"30","和歌山県","30201","和歌山市","302010241000","道場町","34.230373","135.164896","0","1"
"30","和歌山県","30201","和歌山市","302010242000","土入","34.252148","135.142326","0","1"
"30","和歌山県","30201","和歌山市","302010243000","徳田木丁","34.239568","135.165571","0","1"
"30","和歌山県","30201","和歌山市","302010244001","土佐町一丁目","34.223967","135.161164","0","3"
"30","和歌山県","30201","和歌山市","302010244002","土佐町二丁目","34.222053","135.161252","0","3"
"30","和歌山県","30201","和歌山市","302010244003","土佐町三丁目","34.220195","135.161151","0","3"
"30","和歌山県","30201","和歌山市","302010245002","友田町二丁目","34.232538","135.185412","0","3"
"30","和歌山県","30201","和歌山市","302010245003","友田町三丁目","34.232843","135.186814","0","3"
"30","和歌山県","30201","和歌山市","302010245004","友田町四丁目","34.232985","135.188364","0","3"
"30","和歌山県","30201","和歌山市","302010245005","友田町五丁目","34.233254","135.190416","0","3"
"30","和歌山県","30201","和歌山市","302010246000","中","34.271103","135.148486","0","1"
"30","和歌山県","30201","和歌山市","302010247000","中島","34.208449","135.186951","0","1"
"30","和歌山県","30201","和歌山市","302010248000","中筋日延","34.269138","135.271647","0","1"
"30","和歌山県","30201","和歌山市","302010249000","中野","34.256210","135.140477","0","1"
"30","和歌山県","30201","和歌山市","302010250000","中之島","34.241873","135.187805","0","1"
"30","和歌山県","30201","和歌山市","302010251000","中ノ店北ノ丁","34.235309","135.176020","0","1"
"30","和歌山県","30201","和歌山市","302010252000","中ノ店中ノ丁","34.234442","135.176115","0","1"
"30","和歌山県","30201","和歌山市","302010253000","中ノ店南ノ丁","34.233508","135.176028","0","1"
"30","和歌山県","30201","和歌山市","302010254000","永山","34.209335","135.271124","0","1"
"30","和歌山県","30201","和歌山市","302010255000","七曲り","34.227916","135.162855","0","1"
"30","和歌山県","30201","和歌山市","302010256000","鍋屋町","34.241530","135.175007","0","1"
"30","和歌山県","30201","和歌山市","302010257000","鳴神","34.230709","135.213087","0","1"
"30","和歌山県","30201","和歌山市","302010258000","永穂","34.253300","135.246504","0","1"
"30","和歌山県","30201","和歌山市","302010259000","新高町","34.202912","135.167775","0","1"
"30","和歌山県","30201","和歌山市","302010260000","仁井辺","34.182941","135.228447","0","1"
"30","和歌山県","30201","和歌山市","302010261000","西","34.209579","135.215740","0","1"
"30","和歌山県","30201","和歌山市","302010262000","西鍛冶屋町","34.234302","135.170948","0","1"
"30","和歌山県","30201","和歌山市","302010263000","西河岸町","34.226963","135.159335","0","1"
"30","和歌山県","30201","和歌山市","302010264001","西釘貫丁一丁目","34.236737","135.172729","0","3"
"30","和歌山県","30201","和歌山市","302010264002","西釘貫丁二丁目","34.238328","135.172589","0","3"
"30","和歌山県","30201","和歌山市","302010264003","西釘貫丁三丁目","34.240141","135.172543","0","3"
"30","和歌山県","30201","和歌山市","302010265000","西蔵前丁","34.236894","135.164552","0","1"
"30","和歌山県","30201","和歌山市","302010266001","西小二里一丁目","34.205216","135.163151","0","3"
"30","和歌山県","30201","和歌山市","302010266002","西小二里二丁目","34.204949","135.160708","0","3"
"30","和歌山県","30201","和歌山市","302010266003","西小二里三丁目","34.208119","135.161295","0","3"
"30","和歌山県","30201","和歌山市","302010267001","西紺屋町一丁目","34.227103","135.180329","0","3"
"30","和歌山県","30201","和歌山市","302010267002","西紺屋町二丁目","34.228091","135.180326","0","3"
"30","和歌山県","30201","和歌山市","302010268000","西坂ノ上丁","34.227794","135.164675","0","1"
"30","和歌山県","30201","和歌山市","302010269000","西田井","34.256515","135.235960","0","1"
"30","和歌山県","30201","和歌山市","302010270000","西大工町","34.235222","135.172826","0","1"
"30","和歌山県","30201","和歌山市","302010271001","西高松一丁目","34.209485","135.169811","0","3"
"30","和歌山県","30201","和歌山市","302010271002","西高松二丁目","34.204707","135.169375","0","3"
"30","和歌山県","30201","和歌山市","302010272001","西仲間町一丁目","34.237376","135.178855","0","3"
"30","和歌山県","30201","和歌山市","302010272002","西仲間町二丁目","34.238764","135.178843","0","3"
"30","和歌山県","30201","和歌山市","302010273001","西長町一丁目","34.226779","135.162211","0","3"
"30","和歌山県","30201","和歌山市","302010273002","西長町二丁目","34.225676","135.162020","0","3"
"30","和歌山県","30201","和歌山市","302010273003","西長町三丁目","34.224459","135.162208","0","3"
"30","和歌山県","30201","和歌山市","302010273004","西長町四丁目","34.223575","135.162344","0","3"
"30","和歌山県","30201","和歌山市","302010274001","西布経丁一丁目","34.236725","135.169509","0","3"
"30","和歌山県","30201","和歌山市","302010274002","西布経丁二丁目","34.237560","135.169123","0","3"
"30","和歌山県","30201","和歌山市","302010274003","西布経丁三丁目","34.238589","135.169463","0","3"
"30","和歌山県","30201","和歌山市","302010274004","西布経丁四丁目","34.239295","135.169510","0","3"
"30","和歌山県","30201","和歌山市","302010274005","西布経丁五丁目","34.240074","135.169047","0","3"
"30","和歌山県","30201","和歌山市","302010274006","西布経丁六丁目","34.241920","135.168700","0","3"
"30","和歌山県","30201","和歌山市","302010275000","西庄","34.262383","135.113088","0","1"
"30","和歌山県","30201","和歌山市","302010276000","西ノ店","34.233840","135.172106","0","1"
"30","和歌山県","30201","和歌山市","302010277000","西旅籠町","34.237832","135.175458","0","1"
"30","和歌山県","30201","和歌山市","302010278000","西浜","34.200634","135.152203","0","1"
"30","和歌山県","30201","和歌山市","302010279001","西浜一丁目","34.200411","135.166122","0","3"
"30","和歌山県","30201","和歌山市","302010279002","西浜二丁目","34.199683","135.164179","0","3"
"30","和歌山県","30201","和歌山市","302010279003","西浜三丁目","34.199333","135.161074","0","3"
"30","和歌山県","30201","和歌山市","302010280000","西汀丁","34.229630","135.167144","0","1"
"30","和歌山県","30201","和歌山市","302010281000","二番丁","34.228085","135.175874","0","1"
"30","和歌山県","30201","和歌山市","302010282000","新留丁","34.226035","135.185264","0","1"
"30","和歌山県","30201","和歌山市","302010283000","布引","34.176292","135.183397","0","1"
"30","和歌山県","30201","和歌山市","302010284000","禰宜","34.230201","135.251065","0","1"
"30","和歌山県","30201","和歌山市","302010285000","直川","34.278890","135.218012","0","1"
"30","和歌山県","30201","和歌山市","302010286000","納定","34.239247","135.192032","0","1"
"30","和歌山県","30201","和歌山市","302010287000","野崎","34.244346","135.156518","0","1"
"30","和歌山県","30201","和歌山市","302010288000","延時","34.252224","135.150010","0","1"
"30","和歌山県","30201","和歌山市","302010289000","橋丁","34.233969","135.168733","0","1"
"30","和歌山県","30201","和歌山市","302010290000","橋向丁","34.227617","135.184715","0","1"
"30","和歌山県","30201","和歌山市","302010291000","畑屋敷榎丁","34.234799","135.183718","0","1"
"30","和歌山県","30201","和歌山市","302010292000","畑屋敷円福院西ノ丁","34.234132","135.182010","0","1"
"30","和歌山県","30201","和歌山市","302010293000","畑屋敷円福院東ノ丁","34.234179","135.183094","0","1"
"30","和歌山県","30201","和歌山市","302010294000","畑屋敷雁木丁","34.234371","135.181105","0","1"
"30","和歌山県","30201","和歌山市","302010295000","畑屋敷葛屋丁","34.234692","135.182860","0","1"
"30","和歌山県","30201","和歌山市","302010296000","畑屋敷新道丁","34.236283","135.181224","0","1"
"30","和歌山県","30201","和歌山市","302010297000","畑屋敷千体仏丁","34.236175","135.183176","0","1"
"30","和歌山県","30201","和歌山市","302010298000","畑屋敷中ノ丁","34.235375","135.182145","0","1"
"30","和歌山県","30201","和歌山市","302010299000","畑屋敷西ノ丁","34.235323","135.180924","0","1"
"30","和歌山県","30201","和歌山市","302010300000","畑屋敷端ノ丁","34.236372","135.184140","0","1"
"30","和歌山県","30201","和歌山市","302010301000","畑屋敷東ノ丁","34.235454","135.183935","0","1"
"30","和歌山県","30201","和歌山市","302010302000","畑屋敷兵庫ノ丁","34.236034","135.182736","0","1"
"30","和歌山県","30201","和歌山市","302010303000","畑屋敷袋町","34.234650","135.182315","0","1"
"30","和歌山県","30201","和歌山市","302010304000","八番丁","34.231128","135.169092","0","1"
"30","和歌山県","30201","和歌山市","302010305000","馬場","34.193901","135.225950","0","1"
"30","和歌山県","30201","和歌山市","302010306000","吐前","34.245098","135.271116","0","1"
"30","和歌山県","30201","和歌山市","302010307000","東鍛冶屋町","34.234579","135.172487","0","1"
"30","和歌山県","30201","和歌山市","302010308001","東釘貫丁一丁目","34.236697","135.173826","0","3"
"30","和歌山県","30201","和歌山市","302010308002","東釘貫丁二丁目","34.238445","135.173518","0","3"
"30","和歌山県","30201","和歌山市","302010308003","東釘貫丁三丁目","34.239463","135.173514","0","3"
"30","和歌山県","30201","和歌山市","302010309000","東蔵前丁","34.236007","135.166325","0","1"
"30","和歌山県","30201","和歌山市","302010310000","東小二里町","34.206862","135.164872","0","1"
"30","和歌山県","30201","和歌山市","302010311000","東紺屋町","34.228067","135.180888","0","1"
"30","和歌山県","30201","和歌山市","302010312000","東坂ノ上丁","34.228014","135.166191","0","1"
"30","和歌山県","30201","和歌山市","302010313001","東高松一丁目","34.209675","135.173885","0","3"
"30","和歌山県","30201","和歌山市","302010313002","東高松二丁目","34.207807","135.173670","0","3"
"30","和歌山県","30201","和歌山市","302010313003","東高松三丁目","34.205108","135.172203","0","3"
"30","和歌山県","30201","和歌山市","302010313004","東高松四丁目","34.204873","135.174399","0","3"
"30","和歌山県","30201","和歌山市","302010314000","東田中","34.235894","135.284283","0","1"
"30","和歌山県","30201","和歌山市","302010315001","東仲間町一丁目","34.237727","135.179400","0","3"
"30","和歌山県","30201","和歌山市","302010315002","東仲間町二丁目","34.238865","135.179359","0","3"
"30","和歌山県","30201","和歌山市","302010316010","東長町十丁目","34.219930","135.166125","0","3"
"30","和歌山県","30201","和歌山市","302010316011","東長町十一丁目","34.219399","135.166285","0","3"
"30","和歌山県","30201","和歌山市","302010316001","東長町一丁目","34.228636","135.163500","0","3"
"30","和歌山県","30201","和歌山市","302010316002","東長町二丁目","34.228058","135.163402","0","3"
"30","和歌山県","30201","和歌山市","302010316003","東長町三丁目","34.226704","135.164707","0","3"
"30","和歌山県","30201","和歌山市","302010316004","東長町四丁目","34.226176","135.164604","0","3"
"30","和歌山県","30201","和歌山市","302010316005","東長町五丁目","34.225112","135.165413","0","3"
"30","和歌山県","30201","和歌山市","302010316006","東長町六丁目","34.224002","135.165836","0","3"
"30","和歌山県","30201","和歌山市","302010316007","東長町七丁目","34.222782","135.166648","0","3"
"30","和歌山県","30201","和歌山市","302010316008","東長町八丁目","34.221729","135.166250","0","3"
"30","和歌山県","30201","和歌山市","302010316009","東長町九丁目","34.220914","135.166674","0","3"
"30","和歌山県","30201","和歌山市","302010317000","東長町中ノ丁","34.220111","135.167034","0","1"
"30","和歌山県","30201","和歌山市","302010318001","東布経丁一丁目","34.237634","135.171866","0","3"
"30","和歌山県","30201","和歌山市","302010318002","東布経丁二丁目","34.238395","135.171843","0","3"
"30","和歌山県","30201","和歌山市","302010318003","東布経丁三丁目","34.239196","135.171814","0","3"
"30","和歌山県","30201","和歌山市","302010318004","東布経丁四丁目","34.239912","135.171821","0","3"
"30","和歌山県","30201","和歌山市","302010318005","東布経丁五丁目","34.240822","135.171671","0","3"
"30","和歌山県","30201","和歌山市","302010318006","東布経丁六丁目","34.242148","135.171619","0","3"
"30","和歌山県","30201","和歌山市","302010319000","東旅籠町","34.237868","135.176035","0","1"
"30","和歌山県","30201","和歌山市","302010320000","一筋目","34.237622","135.171044","0","1"
"30","和歌山県","30201","和歌山市","302010321000","日野","34.276670","135.104304","0","1"
"30","和歌山県","30201","和歌山市","302010322000","屏風丁","34.236182","135.167269","0","1"
"30","和歌山県","30201","和歌山市","302010323000","平井","34.269275","135.167944","0","1"
"30","和歌山県","30201","和歌山市","302010324000","平尾","34.215179","135.244658","0","1"
"30","和歌山県","30201","和歌山市","302010325000","平岡","34.265011","135.273634","0","1"
"30","和歌山県","30201","和歌山市","302010326001","広瀬通丁一丁目","34.226411","135.180173","0","3"
"30","和歌山県","30201","和歌山市","302010326002","広瀬通丁二丁目","34.226363","135.181647","0","3"
"30","和歌山県","30201","和歌山市","302010326003","広瀬通丁三丁目","34.226698","135.182835","0","3"
"30","和歌山県","30201","和歌山市","302010327001","広瀬中ノ丁一丁目","34.225340","135.179488","0","3"
"30","和歌山県","30201","和歌山市","302010327002","広瀬中ノ丁二丁目","34.225579","135.183107","0","3"
"30","和歌山県","30201","和歌山市","302010328000","弘西","34.277501","135.240395","0","1"
"30","和歌山県","30201","和歌山市","302010329000","広原","34.188177","135.203656","0","1"
"30","和歌山県","30201","和歌山市","302010330000","広道","34.224653","135.166712","0","1"
"30","和歌山県","30201","和歌山市","302010331001","吹上一丁目","34.222980","135.172409","0","3"
"30","和歌山県","30201","和歌山市","302010331002","吹上二丁目","34.221503","135.170130","0","3"
"30","和歌山県","30201","和歌山市","302010331003","吹上三丁目","34.218585","135.171368","0","3"
"30","和歌山県","30201","和歌山市","302010331004","吹上四丁目","34.216812","135.171844","0","3"
"30","和歌山県","30201","和歌山市","302010331005","吹上五丁目","34.219064","135.174483","0","3"
"30","和歌山県","30201","和歌山市","302010332001","吹屋町一丁目","34.224478","135.186253","0","3"
"30","和歌山県","30201","和歌山市","302010332002","吹屋町二丁目","34.224918","135.187122","0","3"
"30","和歌山県","30201","和歌山市","302010332003","吹屋町三丁目","34.225104","135.188255","0","3"
"30","和歌山県","30201","和歌山市","302010332004","吹屋町四丁目","34.225295","135.189450","0","3"
"30","和歌山県","30201","和歌山市","302010332005","吹屋町五丁目","34.225536","135.191356","0","3"
"30","和歌山県","30201","和歌山市","302010333000","福島","34.247906","135.164902","0","1"
"30","和歌山県","30201","和歌山市","302010334000","福町","34.232983","135.171858","0","1"
"30","和歌山県","30201","和歌山市","302010335000","藤田","34.267156","135.264323","0","1"
"30","和歌山県","30201","和歌山市","302010336000","二筋目","34.238035","135.170529","0","1"
"30","和歌山県","30201","和歌山市","302010337000","府中","34.281362","135.231984","0","1"
"30","和歌山県","30201","和歌山市","302010338000","舟大工町","34.234525","135.169031","0","1"
"30","和歌山県","30201","和歌山市","302010339001","舟津町一丁目","34.223855","135.159175","0","3"
"30","和歌山県","30201","和歌山市","302010339002","舟津町二丁目","34.222176","135.159481","0","3"
"30","和歌山県","30201","和歌山市","302010339003","舟津町三丁目","34.220190","135.159465","0","3"
"30","和歌山県","30201","和歌山市","302010339004","舟津町四丁目","34.218354","135.159070","0","3"
"30","和歌山県","30201","和歌山市","302010340000","船所","34.252533","135.185383","0","1"
"30","和歌山県","30201","和歌山市","302010341000","冬野","34.183551","135.210556","0","1"
"30","和歌山県","30201","和歌山市","302010342000","弁財天丁","34.224584","135.177007","0","1"
"30","和歌山県","30201","和歌山市","302010343000","坊主丁","34.232360","135.182056","0","1"
"30","和歌山県","30201","和歌山市","302010344000","卜半町","34.233004","135.170377","0","1"
"30","和歌山県","30201","和歌山市","302010345000","布施屋","34.243489","135.259809","0","1"
"30","和歌山県","30201","和歌山市","302010346001","堀止西一丁目","34.214398","135.168166","0","3"
"30","和歌山県","30201","和歌山市","302010346002","堀止西二丁目","34.211851","135.168570","0","3"
"30","和歌山県","30201","和歌山市","302010347001","堀止東一丁目","34.215224","135.171891","0","3"
"30","和歌山県","30201","和歌山市","302010347002","堀止東二丁目","34.216191","135.174877","0","3"
"30","和歌山県","30201","和歌山市","302010348000","堀止南ノ丁","34.212829","135.171255","0","1"
"30","和歌山県","30201","和歌山市","302010349001","本町一丁目","34.233183","135.174602","0","3"
"30","和歌山県","30201","和歌山市","302010349002","本町二丁目","34.234431","135.174368","0","3"
"30","和歌山県","30201","和歌山市","302010349003","本町三丁目","34.235519","135.174360","0","3"
"30","和歌山県","30201","和歌山市","302010349004","本町四丁目","34.236964","135.174453","0","3"
"30","和歌山県","30201","和歌山市","302010349005","本町五丁目","34.238081","135.174644","0","3"
"30","和歌山県","30201","和歌山市","302010349006","本町六丁目","34.239742","135.174433","0","3"
"30","和歌山県","30201","和歌山市","302010349007","本町七丁目","34.240807","135.174417","0","3"
"30","和歌山県","30201","和歌山市","302010349008","本町八丁目","34.241814","135.174324","0","3"
"30","和歌山県","30201","和歌山市","302010349009","本町九丁目","34.242253","135.175896","0","3"
"30","和歌山県","30201","和歌山市","302010350001","真砂丁一丁目","34.224238","135.169504","0","3"
"30","和歌山県","30201","和歌山市","302010351000","松江","34.241171","135.130627","0","1"
"30","和歌山県","30201","和歌山市","302010352001","松江北一丁目","34.248468","135.140210","0","3"
"30","和歌山県","30201","和歌山市","302010352002","松江北二丁目","34.249744","135.136391","0","3"
"30","和歌山県","30201","和歌山市","302010352003","松江北三丁目","34.252807","135.136730","0","3"
"30","和歌山県","30201","和歌山市","302010352004","松江北四丁目","34.252584","135.133204","0","3"
"30","和歌山県","30201","和歌山市","302010352005","松江北五丁目","34.250671","135.132184","0","3"
"30","和歌山県","30201","和歌山市","302010352006","松江北六丁目","34.251403","135.126195","0","3"
"30","和歌山県","30201","和歌山市","302010352007","松江北七丁目","34.252228","135.128270","0","3"
"30","和歌山県","30201","和歌山市","302010353001","松江中一丁目","34.246349","135.130722","0","3"
"30","和歌山県","30201","和歌山市","302010353002","松江中二丁目","34.246540","135.134313","0","3"
"30","和歌山県","30201","和歌山市","302010353003","松江中三丁目","34.248344","135.131753","0","3"
"30","和歌山県","30201","和歌山市","302010354001","松江西一丁目","34.248385","135.126582","0","3"
"30","和歌山県","30201","和歌山市","302010354002","松江西二丁目","34.250547","135.125953","0","3"
"30","和歌山県","30201","和歌山市","302010354003","松江西三丁目","34.249792","135.124635","0","3"
"30","和歌山県","30201","和歌山市","302010355001","松江東一丁目","34.242537","135.137614","0","3"
"30","和歌山県","30201","和歌山市","302010355002","松江東二丁目","34.244856","135.136278","0","3"
"30","和歌山県","30201","和歌山市","302010355003","松江東三丁目","34.247045","135.136953","0","3"
"30","和歌山県","30201","和歌山市","302010355004","松江東四丁目","34.245736","135.140807","0","3"
"30","和歌山県","30201","和歌山市","302010356001","松ケ丘一丁目","34.205516","135.166684","0","3"
"30","和歌山県","30201","和歌山市","302010356002","松ケ丘二丁目","34.203769","135.165190","0","3"
"30","和歌山県","30201","和歌山市","302010356003","松ケ丘三丁目","34.203144","135.162663","0","3"
"30","和歌山県","30201","和歌山市","302010357000","松島","34.247203","135.210767","0","1"
"30","和歌山県","30201","和歌山市","302010358000","松原","34.189809","135.235886","0","1"
"30","和歌山県","30201","和歌山市","302010359000","三葛","34.193144","135.187864","0","1"
"30","和歌山県","30201","和歌山市","302010360000","三木町台所町","34.230225","135.177708","0","1"
"30","和歌山県","30201","和歌山市","302010361000","三木町中ノ丁","34.230890","135.178168","0","1"
"30","和歌山県","30201","和歌山市","302010362000","三木町堀詰","34.231879","135.177798","0","1"
"30","和歌山県","30201","和歌山市","302010363000","三木町南ノ丁","34.230311","135.178800","0","1"
"30","和歌山県","30201","和歌山市","302010364001","三沢町一丁目","34.222697","135.183935","0","3"
"30","和歌山県","30201","和歌山市","302010364002","三沢町二丁目","34.221819","135.183779","0","3"
"30","和歌山県","30201","和歌山市","302010364003","三沢町三丁目","34.220124","135.184374","0","3"
"30","和歌山県","30201","和歌山市","302010364004","三沢町四丁目","34.218742","135.183689","0","3"
"30","和歌山県","30201","和歌山市","302010365000","三筋目","34.238818","135.170725","0","1"
"30","和歌山県","30201","和歌山市","302010366002","美園町二丁目","34.230205","135.186110","0","3"
"30","和歌山県","30201","和歌山市","302010366003","美園町三丁目","34.230318","135.187451","0","3"
"30","和歌山県","30201","和歌山市","302010366004","美園町四丁目","34.230593","135.188685","0","3"
"30","和歌山県","30201","和歌山市","302010366005","美園町五丁目","34.230990","135.190817","0","3"
"30","和歌山県","30201","和歌山市","302010367000","満屋","34.250665","135.278714","0","1"
"30","和歌山県","30201","和歌山市","302010368000","湊","34.220955","135.144285","0","1"
"30","和歌山県","30201","和歌山市","302010369001","湊一丁目","34.235277","135.149912","0","3"
"30","和歌山県","30201","和歌山市","302010369002","湊二丁目","34.234112","135.146143","0","3"
"30","和歌山県","30201","和歌山市","302010369003","湊三丁目","34.232076","135.146342","0","3"
"30","和歌山県","30201","和歌山市","302010369004","湊四丁目","34.231940","135.142931","0","3"
"30","和歌山県","30201","和歌山市","302010369005","湊五丁目","34.228926","135.145286","0","3"
"30","和歌山県","30201","和歌山市","302010370000","湊桶屋町","34.220002","135.167792","0","1"
"30","和歌山県","30201","和歌山市","302010371001","湊北町一丁目","34.232526","135.166961","0","3"
"30","和歌山県","30201","和歌山市","302010371002","湊北町二丁目","34.232605","135.165371","0","3"
"30","和歌山県","30201","和歌山市","302010371003","湊北町三丁目","34.232547","135.163932","0","3"
"30","和歌山県","30201","和歌山市","302010372001","湊御殿一丁目","34.221484","135.157605","0","3"
"30","和歌山県","30201","和歌山市","302010372002","湊御殿二丁目","34.219269","135.156458","0","3"
"30","和歌山県","30201","和歌山市","302010372003","湊御殿三丁目","34.217764","135.157176","0","3"
"30","和歌山県","30201","和歌山市","302010373001","湊紺屋町一丁目","34.234301","135.167132","0","3"
"30","和歌山県","30201","和歌山市","302010373002","湊紺屋町二丁目","34.233750","135.165464","0","3"
"30","和歌山県","30201","和歌山市","302010373003","湊紺屋町三丁目","34.233651","135.164571","0","3"
"30","和歌山県","30201","和歌山市","302010374001","湊通丁北一丁目","34.224519","135.168786","0","3"
"30","和歌山県","30201","和歌山市","302010374002","湊通丁北二丁目","34.223987","135.167157","0","3"
"30","和歌山県","30201","和歌山市","302010374003","湊通丁北三丁目","34.223510","135.165474","0","3"
"30","和歌山県","30201","和歌山市","302010374004","湊通丁北四丁目","34.223429","135.163832","0","3"
"30","和歌山県","30201","和歌山市","302010375001","湊通丁南一丁目","34.223688","135.168160","0","3"
"30","和歌山県","30201","和歌山市","302010375002","湊通丁南二丁目","34.223343","135.166906","0","3"
"30","和歌山県","30201","和歌山市","302010375003","湊通丁南三丁目","34.223149","135.165534","0","3"
"30","和歌山県","30201","和歌山市","302010375004","湊通丁南四丁目","34.223016","135.163092","0","3"
"30","和歌山県","30201","和歌山市","302010376001","湊本町一丁目","34.233186","135.166972","0","3"
"30","和歌山県","30201","和歌山市","302010376002","湊本町二丁目","34.233176","135.165400","0","3"
"30","和歌山県","30201","和歌山市","302010376003","湊本町三丁目","34.233097","135.163635","0","3"
"30","和歌山県","30201","和歌山市","302010377000","南相生丁","34.222919","135.164679","0","1"
"30","和歌山県","30201","和歌山市","302010378000","南牛町","34.226313","135.161454","0","1"
"30","和歌山県","30201","和歌山市","302010379000","南桶屋町","34.235335","135.175287","0","1"
"30","和歌山県","30201","和歌山市","302010380001","南片原一丁目","34.223685","135.179486","0","3"
"30","和歌山県","30201","和歌山市","302010380002","南片原二丁目","34.223963","135.183186","0","3"
"30","和歌山県","30201","和歌山市","302010381000","南休賀町","34.230731","135.179729","0","1"
"30","和歌山県","30201","和歌山市","302010382000","南雑賀町","34.232421","135.178703","0","1"
"30","和歌山県","30201","和歌山市","302010383000","南細工町","34.226908","135.179504","0","1"
"30","和歌山県","30201","和歌山市","302010384001","南材木丁一丁目","34.227521","135.183118","0","3"
"30","和歌山県","30201","和歌山市","302010384002","南材木丁二丁目","34.228512","135.181947","0","3"
"30","和歌山県","30201","和歌山市","302010384003","南材木丁三丁目","34.229556","135.180811","0","3"
"30","和歌山県","30201","和歌山市","302010385000","南甚五兵衛丁","34.226411","135.163410","0","1"
"30","和歌山県","30201","和歌山市","302010386000","南大工町","34.234426","135.173553","0","1"
"30","和歌山県","30201","和歌山市","302010387000","南田辺丁","34.223904","135.163578","0","1"
"30","和歌山県","30201","和歌山市","302010388000","南中間町","34.225028","135.163610","0","1"
"30","和歌山県","30201","和歌山市","302010389000","南出島","34.217564","135.192704","0","1"
"30","和歌山県","30201","和歌山市","302010390000","南畑","34.189581","135.259236","0","1"
"30","和歌山県","30201","和歌山市","302010391000","南汀丁","34.228822","135.168107","0","1"
"30","和歌山県","30201","和歌山市","302010392000","深山","34.290473","135.083583","0","1"
"30","和歌山県","30201","和歌山市","302010393000","明王寺","34.220942","135.251401","0","1"
"30","和歌山県","30201","和歌山市","302010394000","向","34.256716","135.145012","0","1"
"30","和歌山県","30201","和歌山市","302010395000","六筋目","34.241132","135.170735","0","1"
"30","和歌山県","30201","和歌山市","302010396000","六十谷","34.270354","135.205061","0","1"
"30","和歌山県","30201","和歌山市","302010397001","元寺町一丁目","34.234683","135.177346","0","3"
"30","和歌山県","30201","和歌山市","302010397002","元寺町二丁目","34.235543","135.176912","0","3"
"30","和歌山県","30201","和歌山市","302010397003","元寺町三丁目","34.237166","135.176908","0","3"
"30","和歌山県","30201","和歌山市","302010397004","元寺町四丁目","34.238152","135.176873","0","3"
"30","和歌山県","30201","和歌山市","302010397005","元寺町五丁目","34.240298","135.176555","0","3"
"30","和歌山県","30201","和歌山市","302010398000","元寺町北ノ丁","34.241084","135.175339","0","1"
"30","和歌山県","30201","和歌山市","302010399000","元寺町西ノ丁","34.239652","135.175210","0","1"
"30","和歌山県","30201","和歌山市","302010400000","元寺町東ノ丁","34.239667","135.175744","0","1"
"30","和歌山県","30201","和歌山市","302010401000","元寺町南ノ丁","34.238501","135.175663","0","1"
"30","和歌山県","30201","和歌山市","302010402000","元博労町","34.234945","135.169071","0","1"
"30","和歌山県","30201","和歌山市","302010403001","元町奉行丁一丁目","34.224242","135.179432","0","3"
"30","和歌山県","30201","和歌山市","302010403002","元町奉行丁二丁目","34.224303","135.183951","0","3"
"30","和歌山県","30201","和歌山市","302010404000","本脇","34.262943","135.101783","0","1"
"30","和歌山県","30201","和歌山市","302010405000","本渡","34.178794","135.220773","0","1"
"30","和歌山県","30201","和歌山市","302010406000","森小手穂","34.213152","135.230512","0","1"
"30","和歌山県","30201","和歌山市","302010407001","屋形町一丁目","34.230993","135.177165","0","3"
"30","和歌山県","30201","和歌山市","302010407002","屋形町二丁目","34.229286","135.178659","0","3"
"30","和歌山県","30201","和歌山市","302010407003","屋形町三丁目","34.227465","135.178768","0","3"
"30","和歌山県","30201","和歌山市","302010407004","屋形町四丁目","34.225290","135.178052","0","3"
"30","和歌山県","30201","和歌山市","302010407005","屋形町五丁目","34.223852","135.178328","0","3"
"30","和歌山県","30201","和歌山市","302010408000","薬勝寺","34.184445","135.235396","0","1"
"30","和歌山県","30201","和歌山市","302010409000","矢田","34.220101","135.266853","0","1"
"30","和歌山県","30201","和歌山市","302010410000","柳丁","34.229982","135.183360","0","1"
"30","和歌山県","30201","和歌山市","302010411000","藪ノ丁","34.225039","135.173710","0","1"
"30","和歌山県","30201","和歌山市","302010412000","山蔭丁","34.225101","135.176327","0","1"
"30","和歌山県","30201","和歌山市","302010413000","山口西","34.268763","135.260780","0","1"
"30","和歌山県","30201","和歌山市","302010414000","山吹丁","34.237269","135.173273","0","1"
"30","和歌山県","30201","和歌山市","302010415000","湯屋谷","34.282959","135.273061","0","1"
"30","和歌山県","30201","和歌山市","302010416000","吉里","34.194690","135.240319","0","1"
"30","和歌山県","30201","和歌山市","302010417000","吉田","34.235635","135.188469","0","1"
"30","和歌山県","30201","和歌山市","302010418000","吉原","34.190805","135.199447","0","1"
"30","和歌山県","30201","和歌山市","302010419000","四筋目","34.239343","135.170732","0","1"
"30","和歌山県","30201","和歌山市","302010420000","寄合町","34.233013","135.168719","0","1"
"30","和歌山県","30201","和歌山市","302010421000","万町","34.233841","135.172954","0","1"
"30","和歌山県","30201","和歌山市","302010422000","四番丁","34.228062","135.177861","0","1"
"30","和歌山県","30201","和歌山市","302010423000","六番丁","34.229978","135.175214","0","1"
"30","和歌山県","30201","和歌山市","302010424001","和歌浦中一丁目","34.192229","135.168555","0","3"
"30","和歌山県","30201","和歌山市","302010424002","和歌浦中二丁目","34.191417","135.169692","0","3"
"30","和歌山県","30201","和歌山市","302010424003","和歌浦中三丁目","34.189561","135.171079","0","3"
"30","和歌山県","30201","和歌山市","302010425001","和歌浦西一丁目","34.196443","135.169036","0","3"
"30","和歌山県","30201","和歌山市","302010425002","和歌浦西二丁目","34.192122","135.164877","0","3"
"30","和歌山県","30201","和歌山市","302010426001","和歌浦東一丁目","34.196021","135.172892","0","3"
"30","和歌山県","30201","和歌山市","302010426002","和歌浦東二丁目","34.192025","135.174028","0","3"
"30","和歌山県","30201","和歌山市","302010426003","和歌浦東三丁目","34.190229","135.177568","0","3"
"30","和歌山県","30201","和歌山市","302010426004","和歌浦東四丁目","34.188598","135.174439","0","3"
"30","和歌山県","30201","和歌山市","302010427001","和歌浦南一丁目","34.187900","135.164637","0","3"
"30","和歌山県","30201","和歌山市","302010427002","和歌浦南二丁目","34.187768","135.168012","0","3"
"30","和歌山県","30201","和歌山市","302010427003","和歌浦南三丁目","34.178786","135.174813","0","3"
"30","和歌山県","30201","和歌山市","302010428000","和歌川町","34.194300","135.179257","0","1"
"30","和歌山県","30201","和歌山市","302010429000","和歌町","34.229342","135.179586","0","1"
"30","和歌山県","30201","和歌山市","302010430000","和佐関戸","34.239185","135.257548","0","1"
"30","和歌山県","30201","和歌山市","302010431000","和佐中","34.238177","135.239640","0","1"
"30","和歌山県","30201","和歌山市","302010432000","和田","34.202704","135.209885","0","1"
