"PrefCode","PrefName","MuniCode","MuniName","DistCode","DistName","lat","lon","SrcCode","CatCode"
"30","和歌山県","30207","新宮市","302070001001","相筋一丁目","33.732571","135.982393","0","3"
"30","和歌山県","30207","新宮市","302070001002","相筋二丁目","33.734335","135.979348","0","3"
"30","和歌山県","30207","新宮市","302070002000","あけぼの","33.724514","136.006452","0","1"
"30","和歌山県","30207","新宮市","302070003001","阿須賀一丁目","33.729275","135.997968","0","3"
"30","和歌山県","30207","新宮市","302070003002","阿須賀二丁目","33.727356","135.997074","0","3"
"30","和歌山県","30207","新宮市","302070004001","池田一丁目","33.730156","135.994846","0","3"
"30","和歌山県","30207","新宮市","302070004002","池田二丁目","33.727959","135.995450","0","3"
"30","和歌山県","30207","新宮市","302070004003","池田三丁目","33.727333","135.995288","0","3"
"30","和歌山県","30207","新宮市","302070005001","伊佐田町一丁目","33.728543","135.993796","0","3"
"30","和歌山県","30207","新宮市","302070005002","伊佐田町二丁目","33.727409","135.993757","0","3"
"30","和歌山県","30207","新宮市","302070006000","井の沢","33.723330","135.990443","0","1"
"30","和歌山県","30207","新宮市","302070007000","磐盾","33.720452","135.981839","0","1"
"30","和歌山県","30207","新宮市","302070008000","浮島","33.725755","135.990566","0","1"
"30","和歌山県","30207","新宮市","302070009001","馬町一丁目","33.728063","135.985831","0","3"
"30","和歌山県","30207","新宮市","302070009002","馬町二丁目","33.727945","135.987423","0","3"
"30","和歌山県","30207","新宮市","302070010000","相賀","33.733821","135.932430","0","1"
"30","和歌山県","30207","新宮市","302070011001","王子町一丁目","33.717486","136.000942","0","3"
"30","和歌山県","30207","新宮市","302070011002","王子町二丁目","33.718883","136.002603","0","3"
"30","和歌山県","30207","新宮市","302070011003","王子町三丁目","33.718698","136.005549","0","3"
"30","和歌山県","30207","新宮市","302070012001","大橋通一丁目","33.732753","135.987712","0","3"
"30","和歌山県","30207","新宮市","302070012002","大橋通二丁目","33.730132","135.986893","0","3"
"30","和歌山県","30207","新宮市","302070012003","大橋通三丁目","33.729057","135.986789","0","3"
"30","和歌山県","30207","新宮市","302070012004","大橋通四丁目","33.727931","135.986570","0","3"
"30","和歌山県","30207","新宮市","302070013000","春日","33.725609","135.992604","0","1"
"30","和歌山県","30207","新宮市","302070014001","神倉一丁目","33.723041","135.985127","0","3"
"30","和歌山県","30207","新宮市","302070014002","神倉二丁目","33.723072","135.987765","0","3"
"30","和歌山県","30207","新宮市","302070014003","神倉三丁目","33.720430","135.985480","0","3"
"30","和歌山県","30207","新宮市","302070014004","神倉四丁目","33.720478","135.987649","0","3"
"30","和歌山県","30207","新宮市","302070015001","上本町一丁目","33.731251","135.984901","0","3"
"30","和歌山県","30207","新宮市","302070015002","上本町二丁目","33.730961","135.986148","0","3"
"30","和歌山県","30207","新宮市","302070016000","木ノ川","33.686593","135.946234","0","1"
"30","和歌山県","30207","新宮市","302070017000","熊野川町相須","33.844725","135.835775","0","1"
"30","和歌山県","30207","新宮市","302070018000","熊野川町赤木","33.773704","135.853564","0","1"
"30","和歌山県","30207","新宮市","302070019000","熊野川町畝畑","33.735375","135.769802","0","1"
"30","和歌山県","30207","新宮市","302070020000","熊野川町大山","33.742782","135.848522","0","1"
"30","和歌山県","30207","新宮市","302070021000","熊野川町鎌塚","33.736400","135.822243","0","1"
"30","和歌山県","30207","新宮市","302070022000","熊野川町上長井","33.765683","135.848378","0","1"
"30","和歌山県","30207","新宮市","302070023000","熊野川町九重","33.873165","135.846675","0","1"
"30","和歌山県","30207","新宮市","302070024000","熊野川町篠尾","33.884060","135.821663","0","1"
"30","和歌山県","30207","新宮市","302070025000","熊野川町四瀧","33.858873","135.839140","0","1"
"30","和歌山県","30207","新宮市","302070026000","熊野川町嶋津","33.877992","135.890328","0","1"
"30","和歌山県","30207","新宮市","302070027000","熊野川町瀧本","33.712914","135.820867","0","1"
"30","和歌山県","30207","新宮市","302070028000","熊野川町田長","33.772225","135.877456","0","1"
"30","和歌山県","30207","新宮市","302070029000","熊野川町玉置口","33.900675","135.870987","0","1"
"30","和歌山県","30207","新宮市","302070030000","熊野川町西","33.761780","135.818398","0","1"
"30","和歌山県","30207","新宮市","302070031000","熊野川町西敷屋","33.853159","135.806733","0","1"
"30","和歌山県","30207","新宮市","302070032000","熊野川町能城山本","33.791797","135.874700","0","1"
"30","和歌山県","30207","新宮市","302070033000","熊野川町東","33.740576","135.864099","0","1"
"30","和歌山県","30207","新宮市","302070034000","熊野川町東敷屋","33.829254","135.822587","0","1"
"30","和歌山県","30207","新宮市","302070035000","熊野川町日足","33.808156","135.851610","0","1"
"30","和歌山県","30207","新宮市","302070036000","熊野川町宮井","33.832125","135.849620","0","1"
"30","和歌山県","30207","新宮市","302070037000","熊野川町椋井","33.788602","135.841899","0","1"
"30","和歌山県","30207","新宮市","302070038001","熊野地一丁目","33.724335","136.000487","0","3"
"30","和歌山県","30207","新宮市","302070038002","熊野地二丁目","33.721860","136.002659","0","3"
"30","和歌山県","30207","新宮市","302070039000","五新","33.718435","135.983899","0","1"
"30","和歌山県","30207","新宮市","302070040000","佐野","33.697068","135.956791","0","1"
"30","和歌山県","30207","新宮市","302070041001","佐野一丁目","33.683155","135.976337","0","3"
"30","和歌山県","30207","新宮市","302070041002","佐野二丁目","33.680508","135.972780","0","3"
"30","和歌山県","30207","新宮市","302070041003","佐野三丁目","33.675969","135.969880","0","3"
"30","和歌山県","30207","新宮市","302070042001","清水元一丁目","33.719155","135.997401","0","3"
"30","和歌山県","30207","新宮市","302070042002","清水元二丁目","33.716644","135.999150","0","3"
"30","和歌山県","30207","新宮市","302070043001","下田一丁目","33.719854","135.994855","0","3"
"30","和歌山県","30207","新宮市","302070043002","下田二丁目","33.716729","135.991648","0","3"
"30","和歌山県","30207","新宮市","302070043003","下田三丁目","33.716122","135.993732","0","3"
"30","和歌山県","30207","新宮市","302070044001","下本町一丁目","33.730428","135.987999","0","3"
"30","和歌山県","30207","新宮市","302070044002","下本町二丁目","33.731402","135.989727","0","3"
"30","和歌山県","30207","新宮市","302070045001","徐福一丁目","33.726133","135.994631","0","3"
"30","和歌山県","30207","新宮市","302070045002","徐福二丁目","33.723615","135.995047","0","3"
"30","和歌山県","30207","新宮市","302070046000","新宮","33.716234","135.981869","0","1"
"30","和歌山県","30207","新宮市","302070047001","新町一丁目","33.729922","135.987832","0","3"
"30","和歌山県","30207","新宮市","302070047002","新町二丁目","33.729493","135.988920","0","3"
"30","和歌山県","30207","新宮市","302070047003","新町三丁目","33.729078","135.990092","0","3"
"30","和歌山県","30207","新宮市","302070048000","高田","33.730055","135.894667","0","1"
"30","和歌山県","30207","新宮市","302070049001","田鶴原町一丁目","33.721731","135.998553","0","3"
"30","和歌山県","30207","新宮市","302070049002","田鶴原町二丁目","33.720202","135.999624","0","3"
"30","和歌山県","30207","新宮市","302070050000","谷王子町","33.727641","135.989395","0","1"
"30","和歌山県","30207","新宮市","302070051001","千穂一丁目","33.725667","135.985314","0","3"
"30","和歌山県","30207","新宮市","302070051002","千穂二丁目","33.726335","135.988145","0","3"
"30","和歌山県","30207","新宮市","302070051003","千穂三丁目","33.724782","135.988713","0","3"
"30","和歌山県","30207","新宮市","302070052001","仲之町一丁目","33.729430","135.987575","0","3"
"30","和歌山県","30207","新宮市","302070052002","仲之町二丁目","33.729131","135.988516","0","3"
"30","和歌山県","30207","新宮市","302070052003","仲之町三丁目","33.728672","135.989521","0","3"
"30","和歌山県","30207","新宮市","302070053000","野田","33.723008","135.993147","0","1"
"30","和歌山県","30207","新宮市","302070054001","橋本一丁目","33.716055","135.986497","0","3"
"30","和歌山県","30207","新宮市","302070054002","橋本二丁目","33.715796","135.989302","0","3"
"30","和歌山県","30207","新宮市","302070055000","蜂伏","33.684158","135.962667","0","1"
"30","和歌山県","30207","新宮市","302070056001","船町一丁目","33.733635","135.985466","0","3"
"30","和歌山県","30207","新宮市","302070056002","船町二丁目","33.733074","135.986716","0","3"
"30","和歌山県","30207","新宮市","302070056003","船町三丁目","33.732356","135.988586","0","3"
"30","和歌山県","30207","新宮市","302070057000","別当屋敷町","33.728704","135.985505","0","1"
"30","和歌山県","30207","新宮市","302070058001","蓬莱一丁目","33.727193","135.999965","0","3"
"30","和歌山県","30207","新宮市","302070058002","蓬莱二丁目","33.725742","135.997491","0","3"
"30","和歌山県","30207","新宮市","302070058003","蓬莱三丁目","33.723838","135.998265","0","3"
"30","和歌山県","30207","新宮市","302070059000","丸山","33.722801","135.996600","0","1"
"30","和歌山県","30207","新宮市","302070060001","緑ケ丘一丁目","33.720024","135.992348","0","3"
"30","和歌山県","30207","新宮市","302070060002","緑ケ丘二丁目","33.720320","135.989667","0","3"
"30","和歌山県","30207","新宮市","302070060003","緑ケ丘三丁目","33.718223","135.989830","0","3"
"30","和歌山県","30207","新宮市","302070061000","南檜杖","33.718326","135.962074","0","1"
"30","和歌山県","30207","新宮市","302070062000","三輪崎","33.697835","135.984472","0","1"
"30","和歌山県","30207","新宮市","302070063001","三輪崎一丁目","33.687315","135.985619","0","3"
"30","和歌山県","30207","新宮市","302070063002","三輪崎二丁目","33.686236","135.983685","0","3"
"30","和歌山県","30207","新宮市","302070063003","三輪崎三丁目","33.685051","135.979662","0","3"
"30","和歌山県","30207","新宮市","302070064001","元鍛治町一丁目","33.730671","135.984550","0","3"
"30","和歌山県","30207","新宮市","302070064002","元鍛治町二丁目","33.730352","135.985912","0","3"
"30","和歌山県","30207","新宮市","302070065000","薬師町","33.729530","135.985413","0","1"
"30","和歌山県","30207","新宮市","302070066001","横町一丁目","33.728886","135.987473","0","3"
"30","和歌山県","30207","新宮市","302070066002","横町二丁目","33.728648","135.988455","0","3"
