"PrefCode","PrefName","MuniCode","MuniName","DistCode","DistName","lat","lon","SrcCode","CatCode"
"32","島根県","32204","益田市","322040001000","赤雁町","34.719865","131.888288","0","1"
"32","島根県","32204","益田市","322040002000","赤城町","34.674830","131.836138","0","1"
"32","島根県","32204","益田市","322040003000","あけぼの西町","34.681790","131.837646","0","1"
"32","島根県","32204","益田市","322040004000","あけぼの東町","34.678521","131.843164","0","1"
"32","島根県","32204","益田市","322040005000","あけぼの本町","34.680171","131.840662","0","1"
"32","島根県","32204","益田市","322040006000","愛栄町","34.577695","131.742435","0","1"
"32","島根県","32204","益田市","322040007000","有明町","34.674179","131.847166","0","1"
"32","島根県","32204","益田市","322040008000","有田町","34.641660","131.719203","0","1"
"32","島根県","32204","益田市","322040009000","飯田町","34.667904","131.815452","0","1"
"32","島根県","32204","益田市","322040010000","飯浦町","34.670228","131.699157","0","1"
"32","島根県","32204","益田市","322040011000","猪木谷町","34.604452","131.870444","0","1"
"32","島根県","32204","益田市","322040012000","岩倉町","34.637166","131.894131","0","1"
"32","島根県","32204","益田市","322040013000","馬谷町","34.641789","131.910581","0","1"
"32","島根県","32204","益田市","322040014000","梅月町","34.639752","131.831488","0","1"
"32","島根県","32204","益田市","322040015000","駅前町","34.677688","131.838495","0","1"
"32","島根県","32204","益田市","322040016000","大草町","34.700241","131.889894","0","1"
"32","島根県","32204","益田市","322040017000","大谷町","34.665984","131.876031","0","1"
"32","島根県","32204","益田市","322040018000","乙子町","34.683648","131.892501","0","1"
"32","島根県","32204","益田市","322040019000","乙吉町","34.685084","131.847676","0","1"
"32","島根県","32204","益田市","322040020000","柏原町","34.593235","131.754816","0","1"
"32","島根県","32204","益田市","322040021000","桂平町","34.592882","131.730458","0","1"
"32","島根県","32204","益田市","322040022000","金山町","34.745719","131.912451","0","1"
"32","島根県","32204","益田市","322040023000","上黒谷町","34.607780","131.728366","0","1"
"32","島根県","32204","益田市","322040024000","川登町","34.626271","131.763553","0","1"
"32","島根県","32204","益田市","322040025000","神田町","34.602941","131.805714","0","1"
"32","島根県","32204","益田市","322040026000","木部町","34.736326","131.876059","0","1"
"32","島根県","32204","益田市","322040027000","久々茂町","34.666793","131.898191","0","1"
"32","島根県","32204","益田市","322040028000","久城町","34.699355","131.844707","0","1"
"32","島根県","32204","益田市","322040029000","黒周町","34.605957","131.747656","0","1"
"32","島根県","32204","益田市","322040030000","小浜町","34.671781","131.724340","0","1"
"32","島根県","32204","益田市","322040031000","幸町","34.673252","131.854159","0","1"
"32","島根県","32204","益田市","322040032000","栄町","34.677910","131.833258","0","1"
"32","島根県","32204","益田市","322040033000","下波田町","34.645587","131.930962","0","1"
"32","島根県","32204","益田市","322040034000","下本郷町","34.689476","131.852243","0","1"
"32","島根県","32204","益田市","322040035000","昭和町","34.677489","131.850214","0","1"
"32","島根県","32204","益田市","322040036000","白岩町","34.603904","131.835758","0","1"
"32","島根県","32204","益田市","322040037000","須子町","34.672693","131.827120","0","1"
"32","島根県","32204","益田市","322040038000","薄原町","34.578609","131.842645","0","1"
"32","島根県","32204","益田市","322040039000","隅村町","34.612120","131.817367","0","1"
"32","島根県","32204","益田市","322040040000","染羽町","34.679389","131.864324","0","1"
"32","島根県","32204","益田市","322040041000","高島","34.835675","131.836001","0","1"
"32","島根県","32204","益田市","322040042001","高津一丁目","34.684621","131.823870","0","3"
"32","島根県","32204","益田市","322040042003","高津三丁目","34.683464","131.815585","0","3"
"32","島根県","32204","益田市","322040042004","高津四丁目","34.686379","131.807291","0","3"
"32","島根県","32204","益田市","322040042006","高津六丁目","34.688561","131.810825","0","3"
"32","島根県","32204","益田市","322040042007","高津七丁目","34.690846","131.819066","0","3"
"32","島根県","32204","益田市","322040042008","高津八丁目","34.690440","131.808730","0","3"
"32","島根県","32204","益田市","322040043000","高津町","34.683665","131.801805","0","1"
"32","島根県","32204","益田市","322040044000","多田町","34.663403","131.852249","0","1"
"32","島根県","32204","益田市","322040045000","種村町","34.719233","131.935000","0","1"
"32","島根県","32204","益田市","322040046000","津田町","34.716175","131.872039","0","1"
"32","島根県","32204","益田市","322040047000","土田町","34.754928","131.897155","0","1"
"32","島根県","32204","益田市","322040048000","土井町","34.669383","131.856179","0","1"
"32","島根県","32204","益田市","322040049000","遠田町","34.704690","131.861082","0","1"
"32","島根県","32204","益田市","322040050000","常盤町","34.674273","131.844498","0","1"
"32","島根県","32204","益田市","322040051000","戸田町","34.668242","131.744597","0","1"
"32","島根県","32204","益田市","322040052000","栃山町","34.637092","131.878254","0","1"
"32","島根県","32204","益田市","322040053000","中垣内町","34.641152","131.753067","0","1"
"32","島根県","32204","益田市","322040054000","長沢町","34.610054","131.916261","0","1"
"32","島根県","32204","益田市","322040055000","中吉田町","34.687197","131.838077","0","1"
"32","島根県","32204","益田市","322040056000","七尾町","34.675619","131.860986","0","1"
"32","島根県","32204","益田市","322040057000","西平原町","34.751756","131.881141","0","1"
"32","島根県","32204","益田市","322040058000","波田町","34.633436","131.945123","0","1"
"32","島根県","32204","益田市","322040059000","東町","34.682961","131.859037","0","1"
"32","島根県","32204","益田市","322040060000","匹見町石谷","34.542768","131.930667","0","1"
"32","島根県","32204","益田市","322040061000","匹見町落合","34.590037","132.014390","0","1"
"32","島根県","32204","益田市","322040062000","匹見町紙祖","34.515824","131.988626","0","1"
"32","島根県","32204","益田市","322040063000","匹見町澄川","34.604069","131.946815","0","1"
"32","島根県","32204","益田市","322040064000","匹見町匹見","34.564733","132.025394","0","1"
"32","島根県","32204","益田市","322040065000","匹見町広瀬","34.586418","131.983185","0","1"
"32","島根県","32204","益田市","322040066000","匹見町道川","34.649972","132.101307","0","1"
"32","島根県","32204","益田市","322040067000","左ヶ山町","34.651407","131.838711","0","1"
"32","島根県","32204","益田市","322040068000","本俣賀町","34.650330","131.828549","0","1"
"32","島根県","32204","益田市","322040069000","本町","34.676498","131.859450","0","1"
"32","島根県","32204","益田市","322040070000","水分町","34.671299","131.847471","0","1"
"32","島根県","32204","益田市","322040071000","美都町朝倉","34.672531","131.927257","0","1"
"32","島根県","32204","益田市","322040072000","美都町板井川","34.704255","132.060363","0","1"
"32","島根県","32204","益田市","322040073000","美都町宇津川","34.688817","132.030499","0","1"
"32","島根県","32204","益田市","322040074000","美都町久原","34.690574","131.975584","0","1"
"32","島根県","32204","益田市","322040075000","美都町小原","34.690408","131.930053","0","1"
"32","島根県","32204","益田市","322040076000","美都町笹倉","34.664063","131.920851","0","1"
"32","島根県","32204","益田市","322040077000","美都町仙道","34.672812","131.946156","0","1"
"32","島根県","32204","益田市","322040078000","美都町都茂","34.665194","131.993557","0","1"
"32","島根県","32204","益田市","322040079000","美都町丸茂","34.688193","132.001871","0","1"
"32","島根県","32204","益田市","322040080000","美都町三谷","34.692327","131.950316","0","1"
"32","島根県","32204","益田市","322040081000","美都町山本","34.658665","131.976732","0","1"
"32","島根県","32204","益田市","322040082000","美濃地町","34.629023","131.730100","0","1"
"32","島根県","32204","益田市","322040083000","三宅町","34.676739","131.855422","0","1"
"32","島根県","32204","益田市","322040084000","向横田町","34.611253","131.791003","0","1"
"32","島根県","32204","益田市","322040085000","元町","34.674175","131.839253","0","1"
"32","島根県","32204","益田市","322040086000","安富町","34.643027","131.807407","0","1"
"32","島根県","32204","益田市","322040087000","山折町","34.699851","131.910474","0","1"
"32","島根県","32204","益田市","322040088000","喜阿弥町","34.669597","131.755864","0","1"
"32","島根県","32204","益田市","322040089000","白上町","34.650975","131.777576","0","1"
"32","島根県","32204","益田市","322040090000","市原町","34.668163","131.783065","0","1"
"32","島根県","32204","益田市","322040091000","虫追町","34.643760","131.788896","0","1"
"32","島根県","32204","益田市","322040092000","内田町","34.666926","131.803122","0","1"
"32","島根県","32204","益田市","322040042005","高津五丁目","34.688265","131.817792","0","3"
"32","島根県","32204","益田市","322040042002","高津二丁目","34.679960","131.818611","0","3"
"32","島根県","32204","益田市","322040093000","下種町","34.724899","131.917930","0","1"
"32","島根県","32204","益田市","322040094000","横田町","34.628786","131.810891","0","1"
"32","島根県","32204","益田市","322040095000","中須町","34.699495","131.831810","0","1"
"32","島根県","32204","益田市","322040096000","中島町","34.689854","131.830855","0","1"
"32","島根県","32204","益田市","322040097000","かもしま北町","34.695863","131.832376","0","1"
"32","島根県","32204","益田市","322040098000","かもしま西町","34.693677","131.831821","0","1"
"32","島根県","32204","益田市","322040099000","かもしま東町","34.693845","131.835689","0","1"
