"PrefCode","PrefName","MuniCode","MuniName","DistCode","DistName","lat","lon","SrcCode","CatCode"
"32","島根県","32202","浜田市","322020001000","相生町","34.890513","132.096524","0","1"
"32","島根県","32202","浜田市","322020002000","浅井町","34.905517","132.087856","0","1"
"32","島根県","32202","浜田市","322020003000","旭町市木","34.829291","132.368816","0","1"
"32","島根県","32202","浜田市","322020004000","旭町今市","34.852151","132.253808","0","1"
"32","島根県","32202","浜田市","322020005000","旭町木田","34.888110","132.271929","0","1"
"32","島根県","32202","浜田市","322020006000","旭町来尾","34.818404","132.337865","0","1"
"32","島根県","32202","浜田市","322020007000","旭町坂本","34.816742","132.265334","0","1"
"32","島根県","32202","浜田市","322020008000","旭町重富","34.855913","132.305532","0","1"
"32","島根県","32202","浜田市","322020009000","旭町都川","34.821488","132.303807","0","1"
"32","島根県","32202","浜田市","322020010000","旭町本郷","34.871070","132.311706","0","1"
"32","島根県","32202","浜田市","322020011000","旭町丸原","34.873440","132.247813","0","1"
"32","島根県","32202","浜田市","322020012000","旭町山ノ内","34.898821","132.285686","0","1"
"32","島根県","32202","浜田市","322020013000","旭町和田","34.857913","132.284240","0","1"
"32","島根県","32202","浜田市","322020014000","朝日町","34.898979","132.089311","0","1"
"32","島根県","32202","浜田市","322020015000","熱田町","34.873164","132.063306","0","1"
"32","島根県","32202","浜田市","322020016000","櫟田原町","34.819625","132.053375","0","1"
"32","島根県","32202","浜田市","322020017000","井野町","34.809566","132.054680","0","1"
"32","島根県","32202","浜田市","322020018000","牛市町","34.898931","132.082745","0","1"
"32","島根県","32202","浜田市","322020019000","後野町","34.894549","132.132915","0","1"
"32","島根県","32202","浜田市","322020020000","内田町","34.862517","132.069576","0","1"
"32","島根県","32202","浜田市","322020021000","宇津井町","34.907608","132.174996","0","1"
"32","島根県","32202","浜田市","322020022000","宇野町","34.925922","132.158765","0","1"
"32","島根県","32202","浜田市","322020023000","生湯町","34.922190","132.094195","0","1"
"32","島根県","32202","浜田市","322020024000","蛭子町","34.895677","132.076647","0","1"
"32","島根県","32202","浜田市","322020025000","大金町","34.933548","132.182796","0","1"
"32","島根県","32202","浜田市","322020026000","大辻町","34.896160","132.071471","0","1"
"32","島根県","32202","浜田市","322020027000","折居町","34.820906","131.985199","0","1"
"32","島根県","32202","浜田市","322020028000","笠柄町","34.881227","132.063759","0","1"
"32","島根県","32202","浜田市","322020029000","片庭町","34.898235","132.072784","0","1"
"32","島根県","32202","浜田市","322020030000","金城町今福","34.890105","132.213795","0","1"
"32","島根県","32202","浜田市","322020031000","金城町入野","34.909945","132.217023","0","1"
"32","島根県","32202","浜田市","322020032000","金城町宇津井","34.900715","132.186089","0","1"
"32","島根県","32202","浜田市","322020033000","金城町追原","34.914253","132.248809","0","1"
"32","島根県","32202","浜田市","322020034000","金城町小国","34.816701","132.201868","0","1"
"32","島根県","32202","浜田市","322020035000","金城町上来原","34.835615","132.174752","0","1"
"32","島根県","32202","浜田市","322020036000","金城町久佐","34.852819","132.217845","0","1"
"32","島根県","32202","浜田市","322020037000","金城町七条","34.857094","132.143270","0","1"
"32","島根県","32202","浜田市","322020038000","金城町下来原","34.866491","132.180966","0","1"
"32","島根県","32202","浜田市","322020039000","金城町長田","34.766881","132.207948","0","1"
"32","島根県","32202","浜田市","322020040000","金城町波佐","34.755215","132.171924","0","1"
"32","島根県","32202","浜田市","322020041000","上府町","34.929283","132.131495","0","1"
"32","島根県","32202","浜田市","322020042000","京町","34.895526","132.074108","0","1"
"32","島根県","32202","浜田市","322020043000","久代町","34.952220","132.137211","0","1"
"32","島根県","32202","浜田市","322020044000","黒川町","34.898475","132.101105","0","1"
"32","島根県","32202","浜田市","322020045000","高佐町","34.907384","132.112960","0","1"
"32","島根県","32202","浜田市","322020046000","河内町","34.882517","132.118275","0","1"
"32","島根県","32202","浜田市","322020047000","国分町","34.944803","132.117364","0","1"
"32","島根県","32202","浜田市","322020048000","紺屋町","34.898173","132.080565","0","1"
"32","島根県","32202","浜田市","322020049000","栄町","34.896591","132.076070","0","1"
"32","島根県","32202","浜田市","322020050000","佐野町","34.892265","132.167599","0","1"
"32","島根県","32202","浜田市","322020051000","三階町","34.869005","132.099485","0","1"
"32","島根県","32202","浜田市","322020052000","清水町","34.893090","132.076552","0","1"
"32","島根県","32202","浜田市","322020053000","下有福町","34.948349","132.188498","0","1"
"32","島根県","32202","浜田市","322020054000","下府町","34.922293","132.113279","0","1"
"32","島根県","32202","浜田市","322020055000","真光町","34.894719","132.073605","0","1"
"32","島根県","32202","浜田市","322020056000","新町","34.897496","132.077894","0","1"
"32","島根県","32202","浜田市","322020057000","杉戸町","34.894935","132.082307","0","1"
"32","島根県","32202","浜田市","322020058000","周布町","34.860992","132.025525","0","1"
"32","島根県","32202","浜田市","322020059000","瀬戸ケ島町","34.901173","132.060758","0","1"
"32","島根県","32202","浜田市","322020060000","瀬戸見町","34.892005","132.071837","0","1"
"32","島根県","32202","浜田市","322020061000","高田町","34.896465","132.073659","0","1"
"32","島根県","32202","浜田市","322020062000","竹迫町","34.892709","132.086410","0","1"
"32","島根県","32202","浜田市","322020063000","田橋町","34.833419","132.053968","0","1"
"32","島根県","32202","浜田市","322020064000","田町","34.901224","132.084723","0","1"
"32","島根県","32202","浜田市","322020065000","治和町","34.859626","132.018929","0","1"
"32","島根県","32202","浜田市","322020066000","津摩町","34.862712","132.012109","0","1"
"32","島根県","32202","浜田市","322020067000","天満町","34.896169","132.079066","0","1"
"32","島根県","32202","浜田市","322020068000","外ノ浦町","34.914106","132.077564","0","1"
"32","島根県","32202","浜田市","322020069000","殿町","34.902113","132.077198","0","1"
"32","島根県","32202","浜田市","322020070000","内村町","34.841815","132.066924","0","1"
"32","島根県","32202","浜田市","322020071000","長沢町","34.910795","132.097340","0","1"
"32","島根県","32202","浜田市","322020072000","長浜町","34.872006","132.039490","0","1"
"32","島根県","32202","浜田市","322020073000","長見町","34.843082","132.108141","0","1"
"32","島根県","32202","浜田市","322020074000","鍋石町","34.812941","132.079322","0","1"
"32","島根県","32202","浜田市","322020075000","錦町","34.898026","132.076819","0","1"
"32","島根県","32202","浜田市","322020076000","西村町","34.835584","132.010969","0","1"
"32","島根県","32202","浜田市","322020077000","野原町","34.886401","132.079354","0","1"
"32","島根県","32202","浜田市","322020078000","原井町","34.881349","132.071060","0","1"
"32","島根県","32202","浜田市","322020079000","原町","34.893429","132.072499","0","1"
"32","島根県","32202","浜田市","322020080000","日脚町","34.866805","132.030770","0","1"
"32","島根県","32202","浜田市","322020081000","琵琶町","34.900243","132.087803","0","1"
"32","島根県","32202","浜田市","322020082000","穂出町","34.850618","132.038266","0","1"
"32","島根県","32202","浜田市","322020083000","松原町","34.905734","132.079712","0","1"
"32","島根県","32202","浜田市","322020084000","三隅町芦谷","34.782777","131.991502","0","1"
"32","島根県","32202","浜田市","322020085000","三隅町井川","34.758413","132.009420","0","1"
"32","島根県","32202","浜田市","322020086000","三隅町井野","34.784670","132.026771","0","1"
"32","島根県","32202","浜田市","322020087000","三隅町岡見","34.762269","131.920500","0","1"
"32","島根県","32202","浜田市","322020088000","三隅町折居","34.812128","131.972225","0","1"
"32","島根県","32202","浜田市","322020089000","三隅町上古和","34.712948","132.022871","0","1"
"32","島根県","32202","浜田市","322020090000","三隅町黒沢","34.748691","132.028499","0","1"
"32","島根県","32202","浜田市","322020091000","三隅町河内","34.757692","131.977862","0","1"
"32","島根県","32202","浜田市","322020092000","三隅町西河内","34.803307","131.962400","0","1"
"32","島根県","32202","浜田市","322020093000","三隅町下古和","34.738512","131.989724","0","1"
"32","島根県","32202","浜田市","322020094000","三隅町東平原","34.802529","131.992238","0","1"
"32","島根県","32202","浜田市","322020095000","三隅町三隅","34.781668","131.972184","0","1"
"32","島根県","32202","浜田市","322020096000","三隅町湊浦","34.790100","131.945211","0","1"
"32","島根県","32202","浜田市","322020097000","三隅町向野田","34.766803","131.955652","0","1"
"32","島根県","32202","浜田市","322020098000","三隅町室谷","34.818147","132.008527","0","1"
"32","島根県","32202","浜田市","322020099000","三隅町矢原","34.730888","131.969477","0","1"
"32","島根県","32202","浜田市","322020100000","港町","34.902451","132.068876","0","1"
"32","島根県","32202","浜田市","322020101000","元浜町","34.894560","132.070451","0","1"
"32","島根県","32202","浜田市","322020102000","弥栄町稲代","34.775860","132.093266","0","1"
"32","島根県","32202","浜田市","322020103000","弥栄町大坪","34.762085","132.091330","0","1"
"32","島根県","32202","浜田市","322020104000","弥栄町小坂","34.811397","132.129438","0","1"
"32","島根県","32202","浜田市","322020105000","弥栄町門田","34.796086","132.151991","0","1"
"32","島根県","32202","浜田市","322020106000","弥栄町木都賀","34.750097","132.062657","0","1"
"32","島根県","32202","浜田市","322020107000","弥栄町高内","34.792515","132.126728","0","1"
"32","島根県","32202","浜田市","322020108000","弥栄町田野原","34.720801","132.074292","0","1"
"32","島根県","32202","浜田市","322020109000","弥栄町栃木","34.807537","132.097745","0","1"
"32","島根県","32202","浜田市","322020110000","弥栄町長安本郷","34.774249","132.113951","0","1"
"32","島根県","32202","浜田市","322020111000","弥栄町野坂","34.786433","132.069668","0","1"
"32","島根県","32202","浜田市","322020112000","弥栄町程原","34.738215","132.100013","0","1"
"32","島根県","32202","浜田市","322020113000","弥栄町三里","34.754785","132.135451","0","1"
"32","島根県","32202","浜田市","322020114000","横山町","34.831121","132.032832","0","1"
"32","島根県","32202","浜田市","322020115000","吉地町","34.846344","132.029616","0","1"
"32","島根県","32202","浜田市","322020116000","三隅町古市場","34.781351","131.942978","0","1"
