"PrefCode","PrefName","MuniCode","MuniName","DistCode","DistName","lat","lon","SrcCode","CatCode"
"33","岡山県","33213","赤磐市","332130001000","合田","34.853143","133.999190","0","1"
"33","岡山県","33213","赤磐市","332130002000","石","34.874155","134.049357","0","1"
"33","岡山県","33213","赤磐市","332130003000","石上","34.849677","133.972530","0","1"
"33","岡山県","33213","赤磐市","332130004000","五日市","34.773065","134.013265","0","1"
"33","岡山県","33213","赤磐市","332130005000","稲蒔","34.885628","134.082299","0","1"
"33","岡山県","33213","赤磐市","332130006000","今井","34.819433","134.026844","0","1"
"33","岡山県","33213","赤磐市","332130007000","岩田","34.741433","134.011238","0","1"
"33","岡山県","33213","赤磐市","332130008000","円光寺","34.796487","134.101017","0","1"
"33","岡山県","33213","赤磐市","332130009000","大苅田","34.791080","134.024526","0","1"
"33","岡山県","33213","赤磐市","332130010000","大屋","34.834224","134.032957","0","1"
"33","岡山県","33213","赤磐市","332130011000","岡","34.812630","134.065894","0","1"
"33","岡山県","33213","赤磐市","332130012000","小鎌","34.866719","133.970830","0","1"
"33","岡山県","33213","赤磐市","332130013000","奥吉原","34.779491","134.134209","0","1"
"33","岡山県","33213","赤磐市","332130014000","小瀬木","34.786130","134.090290","0","1"
"33","岡山県","33213","赤磐市","332130015000","尾谷","34.771919","134.021223","0","1"
"33","岡山県","33213","赤磐市","332130016000","可真上","34.786945","134.056250","0","1"
"33","岡山県","33213","赤磐市","332130017000","可真下","34.792376","134.069233","0","1"
"33","岡山県","33213","赤磐市","332130018000","上市","34.757875","134.018429","0","1"
"33","岡山県","33213","赤磐市","332130019000","上仁保","34.774764","133.989732","0","1"
"33","岡山県","33213","赤磐市","332130020000","鴨前","34.757154","134.001351","0","1"
"33","岡山県","33213","赤磐市","332130021000","河田原","34.786936","134.104510","0","1"
"33","岡山県","33213","赤磐市","332130022000","河原屋","34.933821","134.063454","0","1"
"33","岡山県","33213","赤磐市","332130023000","北佐古田","34.821082","134.042579","0","1"
"33","岡山県","33213","赤磐市","332130024000","草生","34.933140","134.083785","0","1"
"33","岡山県","33213","赤磐市","332130025000","熊崎","34.757224","134.010644","0","1"
"33","岡山県","33213","赤磐市","332130026000","暮田","34.869996","134.067614","0","1"
"33","岡山県","33213","赤磐市","332130027000","黒沢","34.910619","134.064721","0","1"
"33","岡山県","33213","赤磐市","332130028000","黒本","34.918631","134.072705","0","1"
"33","岡山県","33213","赤磐市","332130029000","光木","34.885005","134.061602","0","1"
"33","岡山県","33213","赤磐市","332130030000","神田","34.783481","134.022448","0","1"
"33","岡山県","33213","赤磐市","332130031000","河本","34.747768","134.015266","0","1"
"33","岡山県","33213","赤磐市","332130032000","小原","34.836791","134.000273","0","1"
"33","岡山県","33213","赤磐市","332130033000","是里","34.933277","134.031585","0","1"
"33","岡山県","33213","赤磐市","332130034000","斎富","34.752749","134.034778","0","1"
"33","岡山県","33213","赤磐市","332130035000","坂辺","34.849586","134.006796","0","1"
"33","岡山県","33213","赤磐市","332130036010","桜が丘西十丁目","34.784301","134.034941","0","3"
"33","岡山県","33213","赤磐市","332130036001","桜が丘西一丁目","34.767476","134.043696","0","3"
"33","岡山県","33213","赤磐市","332130036002","桜が丘西二丁目","34.770951","134.038587","0","3"
"33","岡山県","33213","赤磐市","332130036003","桜が丘西三丁目","34.773570","134.041709","0","3"
"33","岡山県","33213","赤磐市","332130036004","桜が丘西四丁目","34.777884","134.042661","0","3"
"33","岡山県","33213","赤磐市","332130036005","桜が丘西五丁目","34.778876","134.039338","0","3"
"33","岡山県","33213","赤磐市","332130036006","桜が丘西六丁目","34.778651","134.036027","0","3"
"33","岡山県","33213","赤磐市","332130036007","桜が丘西七丁目","34.773035","134.033495","0","3"
"33","岡山県","33213","赤磐市","332130036008","桜が丘西八丁目","34.776153","134.028889","0","3"
"33","岡山県","33213","赤磐市","332130036009","桜が丘西九丁目","34.780371","134.030312","0","3"
"33","岡山県","33213","赤磐市","332130037001","桜が丘東一丁目","34.773768","134.049285","0","3"
"33","岡山県","33213","赤磐市","332130037002","桜が丘東二丁目","34.778478","134.047034","0","3"
"33","岡山県","33213","赤磐市","332130037003","桜が丘東三丁目","34.783430","134.049430","0","3"
"33","岡山県","33213","赤磐市","332130037004","桜が丘東四丁目","34.783458","134.044303","0","3"
"33","岡山県","33213","赤磐市","332130037005","桜が丘東五丁目","34.783371","134.039398","0","3"
"33","岡山県","33213","赤磐市","332130037006","桜が丘東六丁目","34.788107","134.039263","0","3"
"33","岡山県","33213","赤磐市","332130038000","佐古","34.805897","134.072468","0","1"
"33","岡山県","33213","赤磐市","332130039000","沢原","34.800208","134.086837","0","1"
"33","岡山県","33213","赤磐市","332130040001","山陽一丁目","34.745583","134.006931","0","3"
"33","岡山県","33213","赤磐市","332130040002","山陽二丁目","34.745450","134.003270","0","3"
"33","岡山県","33213","赤磐市","332130040003","山陽三丁目","34.747367","134.008218","0","3"
"33","岡山県","33213","赤磐市","332130040004","山陽四丁目","34.750334","134.003741","0","3"
"33","岡山県","33213","赤磐市","332130040005","山陽五丁目","34.751919","134.008068","0","3"
"33","岡山県","33213","赤磐市","332130040006","山陽六丁目","34.752895","134.004667","0","3"
"33","岡山県","33213","赤磐市","332130040007","山陽七丁目","34.749149","134.000463","0","3"
"33","岡山県","33213","赤磐市","332130041000","塩木","34.884030","134.037234","0","1"
"33","岡山県","33213","赤磐市","332130042000","下市","34.752732","134.016463","0","1"
"33","岡山県","33213","赤磐市","332130043000","下仁保","34.770632","133.997632","0","1"
"33","岡山県","33213","赤磐市","332130044000","酌田","34.822325","134.065299","0","1"
"33","岡山県","33213","赤磐市","332130045000","石蓮寺","34.807838","134.057319","0","1"
"33","岡山県","33213","赤磐市","332130046000","正崎","34.764100","134.015265","0","1"
"33","岡山県","33213","赤磐市","332130047000","周匝","34.916903","134.092079","0","1"
"33","岡山県","33213","赤磐市","332130048000","勢力","34.767893","134.104637","0","1"
"33","岡山県","33213","赤磐市","332130049000","千躰","34.780702","134.111422","0","1"
"33","岡山県","33213","赤磐市","332130050000","惣分","34.846863","134.022744","0","1"
"33","岡山県","33213","赤磐市","332130051000","多賀","34.822076","134.003517","0","1"
"33","岡山県","33213","赤磐市","332130052000","高屋","34.761201","134.022121","0","1"
"33","岡山県","33213","赤磐市","332130053000","滝山","34.914209","134.027692","0","1"
"33","岡山県","33213","赤磐市","332130054000","立川","34.745137","134.024630","0","1"
"33","岡山県","33213","赤磐市","332130055000","津崎","34.778517","134.014506","0","1"
"33","岡山県","33213","赤磐市","332130056000","釣井","34.780767","134.101191","0","1"
"33","岡山県","33213","赤磐市","332130057000","斗有","34.786306","133.991861","0","1"
"33","岡山県","33213","赤磐市","332130058000","徳富","34.777338","134.092253","0","1"
"33","岡山県","33213","赤磐市","332130059000","戸津野","34.896921","134.032015","0","1"
"33","岡山県","33213","赤磐市","332130060000","殿谷","34.815169","134.080892","0","1"
"33","岡山県","33213","赤磐市","332130061000","長尾","34.736800","134.021113","0","1"
"33","岡山県","33213","赤磐市","332130062000","中島","34.760592","134.040616","0","1"
"33","岡山県","33213","赤磐市","332130063000","中勢実","34.897477","134.011563","0","1"
"33","岡山県","33213","赤磐市","332130064000","中畑","34.854029","133.991972","0","1"
"33","岡山県","33213","赤磐市","332130065000","中山","34.899672","134.060026","0","1"
"33","岡山県","33213","赤磐市","332130066000","西軽部","34.808405","134.012451","0","1"
"33","岡山県","33213","赤磐市","332130067000","西窪田","34.782777","134.003348","0","1"
"33","岡山県","33213","赤磐市","332130068000","西勢実","34.883201","133.985056","0","1"
"33","岡山県","33213","赤磐市","332130069000","西中","34.761595","133.993437","0","1"
"33","岡山県","33213","赤磐市","332130070000","仁堀中","34.871947","134.010586","0","1"
"33","岡山県","33213","赤磐市","332130071000","仁堀西","34.872916","133.993994","0","1"
"33","岡山県","33213","赤磐市","332130072000","仁堀東","34.879056","134.022290","0","1"
"33","岡山県","33213","赤磐市","332130073000","沼田","34.756505","134.030212","0","1"
"33","岡山県","33213","赤磐市","332130074000","野間","34.795953","134.039576","0","1"
"33","岡山県","33213","赤磐市","332130075000","稗田","34.798657","134.052421","0","1"
"33","岡山県","33213","赤磐市","332130076000","東軽部","34.802986","134.027777","0","1"
"33","岡山県","33213","赤磐市","332130077000","東窪田","34.784430","134.011048","0","1"
"33","岡山県","33213","赤磐市","332130078000","日古木","34.768271","134.035654","0","1"
"33","岡山県","33213","赤磐市","332130079000","平山","34.866687","134.030382","0","1"
"33","岡山県","33213","赤磐市","332130080000","広戸","34.867341","133.983912","0","1"
"33","岡山県","33213","赤磐市","332130081000","福田","34.904502","134.082286","0","1"
"33","岡山県","33213","赤磐市","332130082000","二井","34.768226","134.027764","0","1"
"33","岡山県","33213","赤磐市","332130083000","穂崎","34.730768","134.005389","0","1"
"33","岡山県","33213","赤磐市","332130084000","町苅田","34.794683","134.010446","0","1"
"33","岡山県","33213","赤磐市","332130085000","松木","34.793232","134.091513","0","1"
"33","岡山県","33213","赤磐市","332130086000","馬屋","34.735300","133.993310","0","1"
"33","岡山県","33213","赤磐市","332130087000","南方","34.748901","134.037822","0","1"
"33","岡山県","33213","赤磐市","332130088000","南佐古田","34.811726","134.042183","0","1"
"33","岡山県","33213","赤磐市","332130089000","弥上","34.774076","134.056981","0","1"
"33","岡山県","33213","赤磐市","332130090000","八島田","34.862774","134.051856","0","1"
"33","岡山県","33213","赤磐市","332130091000","山口","34.792340","133.978578","0","1"
"33","岡山県","33213","赤磐市","332130092000","山手","34.851671","134.038901","0","1"
"33","岡山県","33213","赤磐市","332130093000","由津里","34.801247","133.993027","0","1"
"33","岡山県","33213","赤磐市","332130094000","吉原","34.796234","134.111329","0","1"
"33","岡山県","33213","赤磐市","332130095000","和田","34.745307","133.988734","0","1"
