"PrefCode","PrefName","MuniCode","MuniName","DistCode","DistName","lat","lon","SrcCode","CatCode"
"34","広島県","34101","広島市中区","341010001000","榎町","34.396743","132.444904","0","1"
"34","広島県","34101","広島市中区","341010002000","江波沖町","34.358645","132.429887","0","1"
"34","広島県","34101","広島市中区","341010003000","江波栄町","34.365532","132.427724","0","1"
"34","広島県","34101","広島市中区","341010004001","江波西一丁目","34.372460","132.433139","0","3"
"34","広島県","34101","広島市中区","341010004002","江波西二丁目","34.369113","132.429004","0","3"
"34","広島県","34101","広島市中区","341010005001","江波二本松一丁目","34.369980","132.432152","0","3"
"34","広島県","34101","広島市中区","341010005002","江波二本松二丁目","34.366526","132.432367","0","3"
"34","広島県","34101","広島市中区","341010006001","江波東一丁目","34.372232","132.438922","0","3"
"34","広島県","34101","広島市中区","341010006002","江波東二丁目","34.368652","132.439305","0","3"
"34","広島県","34101","広島市中区","341010007000","江波本町","34.369430","132.435988","0","1"
"34","広島県","34101","広島市中区","341010008001","江波南一丁目","34.366267","132.437227","0","3"
"34","広島県","34101","広島市中区","341010008002","江波南二丁目","34.362738","132.434257","0","3"
"34","広島県","34101","広島市中区","341010008003","江波南三丁目","34.364057","132.430777","0","3"
"34","広島県","34101","広島市中区","341010009000","胡町","34.393038","132.464970","0","1"
"34","広島県","34101","広島市中区","341010010001","大手町一丁目","34.394917","132.454684","0","3"
"34","広島県","34101","広島市中区","341010010002","大手町二丁目","34.391937","132.455349","0","3"
"34","広島県","34101","広島市中区","341010010003","大手町三丁目","34.388386","132.453281","0","3"
"34","広島県","34101","広島市中区","341010010004","大手町四丁目","34.386059","132.452314","0","3"
"34","広島県","34101","広島市中区","341010010005","大手町五丁目","34.382100","132.452002","0","3"
"34","広島県","34101","広島市中区","341010011000","加古町","34.387479","132.448643","0","1"
"34","広島県","34101","広島市中区","341010012000","銀山町","34.391744","132.467519","0","1"
"34","広島県","34101","広島市中区","341010013000","上幟町","34.399344","132.467644","0","1"
"34","広島県","34101","広島市中区","341010014000","上八丁堀","34.400487","132.463400","0","1"
"34","広島県","34101","広島市中区","341010015001","紙屋町一丁目","34.394381","132.458594","0","3"
"34","広島県","34101","広島市中区","341010015002","紙屋町二丁目","34.394393","132.456673","0","3"
"34","広島県","34101","広島市中区","341010016000","河原町","34.389963","132.446750","0","1"
"34","広島県","34101","広島市中区","341010017000","小網町","34.393582","132.444858","0","1"
"34","広島県","34101","広島市中区","341010018001","光南一丁目","34.367916","132.447803","0","3"
"34","広島県","34101","広島市中区","341010018002","光南二丁目","34.368577","132.443677","0","3"
"34","広島県","34101","広島市中区","341010018003","光南三丁目","34.366486","132.442952","0","3"
"34","広島県","34101","広島市中区","341010018004","光南四丁目","34.365521","132.446863","0","3"
"34","広島県","34101","広島市中区","341010018005","光南五丁目","34.362868","132.445453","0","3"
"34","広島県","34101","広島市中区","341010018006","光南六丁目","34.363719","132.442736","0","3"
"34","広島県","34101","広島市中区","341010019001","国泰寺町一丁目","34.385795","132.457012","0","3"
"34","広島県","34101","広島市中区","341010019002","国泰寺町二丁目","34.383702","132.456004","0","3"
"34","広島県","34101","広島市中区","341010020000","小町","34.388026","132.457710","0","1"
"34","広島県","34101","広島市中区","341010021001","堺町一丁目","34.394182","132.448274","0","3"
"34","広島県","34101","広島市中区","341010021002","堺町二丁目","34.394997","132.444973","0","3"
"34","広島県","34101","広島市中区","341010022000","昭和町","34.382723","132.464945","0","1"
"34","広島県","34101","広島市中区","341010023000","新天地","34.391544","132.462462","0","1"
"34","広島県","34101","広島市中区","341010024000","住吉町","34.383577","132.448483","0","1"
"34","広島県","34101","広島市中区","341010025001","千田町一丁目","34.381648","132.454451","0","3"
"34","広島県","34101","広島市中区","341010025002","千田町二丁目","34.379209","132.454483","0","3"
"34","広島県","34101","広島市中区","341010025003","千田町三丁目","34.376146","132.456653","0","3"
"34","広島県","34101","広島市中区","341010026000","宝町","34.385852","132.463474","0","1"
"34","広島県","34101","広島市中区","341010027000","竹屋町","34.383408","132.461039","0","1"
"34","広島県","34101","広島市中区","341010028000","立町","34.393824","132.461003","0","1"
"34","広島県","34101","広島市中区","341010029000","田中町","34.388564","132.464276","0","1"
"34","広島県","34101","広島市中区","341010030000","鶴見町","34.385492","132.467019","0","1"
"34","広島県","34101","広島市中区","341010031000","鉄砲町","34.395631","132.464813","0","1"
"34","広島県","34101","広島市中区","341010032000","寺町","34.403133","132.449947","0","1"
"34","広島県","34101","広島市中区","341010033001","十日市町一丁目","34.396893","132.448097","0","3"
"34","広島県","34101","広島市中区","341010033002","十日市町二丁目","34.399489","132.448883","0","3"
"34","広島県","34101","広島市中区","341010034000","土橋町","34.392944","132.448116","0","1"
"34","広島県","34101","広島市中区","341010035000","中島町","34.392485","132.452029","0","1"
"34","広島県","34101","広島市中区","341010036000","中町","34.390175","132.458443","0","1"
"34","広島県","34101","広島市中区","341010037000","流川町","34.390463","132.463755","0","1"
"34","広島県","34101","広島市中区","341010038000","西川口町","34.382201","132.438313","0","1"
"34","広島県","34101","広島市中区","341010039000","西十日市町","34.398493","132.445149","0","1"
"34","広島県","34101","広島市中区","341010040000","西白島町","34.406239","132.459959","0","1"
"34","広島県","34101","広島市中区","341010041000","西平塚町","34.389382","132.467035","0","1"
"34","広島県","34101","広島市中区","341010042000","猫屋町","34.395084","132.448257","0","1"
"34","広島県","34101","広島市中区","341010043000","幟町","34.395303","132.466912","0","1"
"34","広島県","34101","広島市中区","341010044000","白島北町","34.411486","132.463279","0","1"
"34","広島県","34101","広島市中区","341010045000","白島九軒町","34.407214","132.467877","0","1"
"34","広島県","34101","広島市中区","341010046000","白島中町","34.408974","132.464825","0","1"
"34","広島県","34101","広島市中区","341010047000","羽衣町","34.379425","132.450270","0","1"
"34","広島県","34101","広島市中区","341010048000","橋本町","34.394851","132.469117","0","1"
"34","広島県","34101","広島市中区","341010049000","八丁堀","34.396106","132.463036","0","1"
"34","広島県","34101","広島市中区","341010050001","東千田町一丁目","34.381236","132.458189","0","3"
"34","広島県","34101","広島市中区","341010050002","東千田町二丁目","34.377561","132.459287","0","3"
"34","広島県","34101","広島市中区","341010051000","東白島町","34.404893","132.465139","0","1"
"34","広島県","34101","広島市中区","341010052000","東平塚町","34.388178","132.468319","0","1"
"34","広島県","34101","広島市中区","341010053000","平野町","34.379715","132.462464","0","1"
"34","広島県","34101","広島市中区","341010054000","広瀬北町","34.403406","132.447580","0","1"
"34","広島県","34101","広島市中区","341010055000","広瀬町","34.400264","132.446104","0","1"
"34","広島県","34101","広島市中区","341010056000","袋町","34.391872","132.458972","0","1"
"34","広島県","34101","広島市中区","341010057000","富士見町","34.386592","132.461636","0","1"
"34","広島県","34101","広島市中区","341010058000","舟入川口町","34.380823","132.442760","0","1"
"34","広島県","34101","広島市中区","341010059000","舟入幸町","34.384009","132.441287","0","1"
"34","広島県","34101","広島市中区","341010060000","舟入中町","34.387172","132.443498","0","1"
"34","広島県","34101","広島市中区","341010061000","舟入本町","34.385244","132.443702","0","1"
"34","広島県","34101","広島市中区","341010062000","舟入町","34.390644","132.444314","0","1"
"34","広島県","34101","広島市中区","341010063001","舟入南一丁目","34.378378","132.441318","0","3"
"34","広島県","34101","広島市中区","341010063002","舟入南二丁目","34.379894","132.436861","0","3"
"34","広島県","34101","広島市中区","341010063003","舟入南三丁目","34.377558","132.435463","0","3"
"34","広島県","34101","広島市中区","341010063004","舟入南四丁目","34.375981","132.440193","0","3"
"34","広島県","34101","広島市中区","341010063005","舟入南五丁目","34.374131","132.439246","0","3"
"34","広島県","34101","広島市中区","341010063006","舟入南六丁目","34.375567","132.433902","0","3"
"34","広島県","34101","広島市中区","341010064000","堀川町","34.392249","132.464519","0","1"
"34","広島県","34101","広島市中区","341010065001","本川町一丁目","34.395790","132.450433","0","3"
"34","広島県","34101","広島市中区","341010065002","本川町二丁目","34.397761","132.451043","0","3"
"34","広島県","34101","広島市中区","341010065003","本川町三丁目","34.399668","132.451078","0","3"
"34","広島県","34101","広島市中区","341010066000","本通","34.392916","132.459891","0","1"
"34","広島県","34101","広島市中区","341010067000","三川町","34.389794","132.461888","0","1"
"34","広島県","34101","広島市中区","341010068000","南千田西町","34.372553","132.456226","0","1"
"34","広島県","34101","広島市中区","341010069000","南千田東町","34.371563","132.458875","0","1"
"34","広島県","34101","広島市中区","341010070000","南竹屋町","34.381182","132.461225","0","1"
"34","広島県","34101","広島市中区","341010071001","南吉島一丁目","34.359546","132.444776","0","3"
"34","広島県","34101","広島市中区","341010071002","南吉島二丁目","34.359778","132.441228","0","3"
"34","広島県","34101","広島市中区","341010072000","基町","34.401095","132.456506","0","1"
"34","広島県","34101","広島市中区","341010073000","薬研堀","34.390386","132.465225","0","1"
"34","広島県","34101","広島市中区","341010074000","弥生町","34.390204","132.466981","0","1"
"34","広島県","34101","広島市中区","341010075001","吉島新町一丁目","34.366015","132.451672","0","3"
"34","広島県","34101","広島市中区","341010075002","吉島新町二丁目","34.366775","132.449823","0","3"
"34","広島県","34101","広島市中区","341010076000","吉島町","34.379101","132.446438","0","1"
"34","広島県","34101","広島市中区","341010077001","吉島西一丁目","34.374151","132.447543","0","3"
"34","広島県","34101","広島市中区","341010077002","吉島西二丁目","34.374499","132.444445","0","3"
"34","広島県","34101","広島市中区","341010077003","吉島西三丁目","34.371299","132.444475","0","3"
"34","広島県","34101","広島市中区","341010078001","吉島東一丁目","34.374142","132.451023","0","3"
"34","広島県","34101","広島市中区","341010078002","吉島東二丁目","34.370721","132.448864","0","3"
"34","広島県","34101","広島市中区","341010078003","吉島東三丁目","34.369906","132.451396","0","3"
