"PrefCode","PrefName","MuniCode","MuniName","DistCode","DistName","lat","lon","SrcCode","CatCode"
"34","広島県","34207","福山市","342070001001","青葉台一丁目","34.513455","133.428088","0","3"
"34","広島県","34207","福山市","342070001002","青葉台二丁目","34.517007","133.426456","0","3"
"34","広島県","34207","福山市","342070001003","青葉台三丁目","34.519052","133.426425","0","3"
"34","広島県","34207","福山市","342070001004","青葉台四丁目","34.518830","133.430537","0","3"
"34","広島県","34207","福山市","342070002000","赤坂町大字赤坂","34.482456","133.287339","0","1"
"34","広島県","34207","福山市","342070003000","赤坂町大字早戸","34.458476","133.306938","0","1"
"34","広島県","34207","福山市","342070004001","曙町一丁目","34.475324","133.397803","0","3"
"34","広島県","34207","福山市","342070004002","曙町二丁目","34.474649","133.404964","0","3"
"34","広島県","34207","福山市","342070004003","曙町三丁目","34.472437","133.396094","0","3"
"34","広島県","34207","福山市","342070004004","曙町四丁目","34.470447","133.403344","0","3"
"34","広島県","34207","福山市","342070004005","曙町五丁目","34.468809","133.394412","0","3"
"34","広島県","34207","福山市","342070004006","曙町六丁目","34.466504","133.401712","0","3"
"34","広島県","34207","福山市","342070005000","旭町","34.490819","133.374174","0","1"
"34","広島県","34207","福山市","342070006000","芦田町大字上有地","34.519997","133.255837","0","1"
"34","広島県","34207","福山市","342070007000","芦田町大字向陽台","34.524113","133.289906","0","1"
"34","広島県","34207","福山市","342070008000","芦田町大字下有地","34.521829","133.271769","0","1"
"34","広島県","34207","福山市","342070009000","芦田町大字柞磨","34.521767","133.231921","0","1"
"34","広島県","34207","福山市","342070010000","芦田町大字福田","34.521673","133.284186","0","1"
"34","広島県","34207","福山市","342070011001","伊勢丘一丁目","34.501369","133.423450","0","3"
"34","広島県","34207","福山市","342070011002","伊勢丘二丁目","34.503099","133.425095","0","3"
"34","広島県","34207","福山市","342070011003","伊勢丘三丁目","34.504863","133.418987","0","3"
"34","広島県","34207","福山市","342070011004","伊勢丘四丁目","34.504311","133.425671","0","3"
"34","広島県","34207","福山市","342070011005","伊勢丘五丁目","34.506093","133.422164","0","3"
"34","広島県","34207","福山市","342070011006","伊勢丘六丁目","34.506532","133.427568","0","3"
"34","広島県","34207","福山市","342070011007","伊勢丘七丁目","34.508984","133.430445","0","3"
"34","広島県","34207","福山市","342070011008","伊勢丘八丁目","34.505742","133.431133","0","3"
"34","広島県","34207","福山市","342070012000","一文字町","34.469654","133.408804","0","1"
"34","広島県","34207","福山市","342070013000","今津町","34.456189","133.251060","0","1"
"34","広島県","34207","福山市","342070014002","今津町二丁目","34.451396","133.256016","0","3"
"34","広島県","34207","福山市","342070014003","今津町三丁目","34.453112","133.255769","0","3"
"34","広島県","34207","福山市","342070014004","今津町四丁目","34.449780","133.252843","0","3"
"34","広島県","34207","福山市","342070014005","今津町五丁目","34.452041","133.252352","0","3"
"34","広島県","34207","福山市","342070014006","今津町六丁目","34.448678","133.243268","0","3"
"34","広島県","34207","福山市","342070014007","今津町七丁目","34.446145","133.244336","0","3"
"34","広島県","34207","福山市","342070015000","今町","34.489777","133.367730","0","1"
"34","広島県","34207","福山市","342070016001","入船町一丁目","34.488578","133.374131","0","3"
"34","広島県","34207","福山市","342070016002","入船町二丁目","34.486479","133.374173","0","3"
"34","広島県","34207","福山市","342070016003","入船町三丁目","34.485792","133.377728","0","3"
"34","広島県","34207","福山市","342070017000","内海町","34.357783","133.314323","0","1"
"34","広島県","34207","福山市","342070018000","駅家町大字雨木","34.608088","133.297774","0","1"
"34","広島県","34207","福山市","342070019000","駅家町大字今岡","34.521028","133.316764","0","1"
"34","広島県","34207","福山市","342070020000","駅家町大字江良","34.539221","133.321193","0","1"
"34","広島県","34207","福山市","342070021000","駅家町大字大橋","34.528246","133.307281","0","1"
"34","広島県","34207","福山市","342070022000","駅家町大字上山守","34.531145","133.330622","0","1"
"34","広島県","34207","福山市","342070023000","駅家町大字倉光","34.544371","133.324477","0","1"
"34","広島県","34207","福山市","342070024000","駅家町大字下山守","34.528550","133.341535","0","1"
"34","広島県","34207","福山市","342070025000","駅家町大字助元","34.582148","133.304607","0","1"
"34","広島県","34207","福山市","342070026000","駅家町大字近田","34.543765","133.312606","0","1"
"34","広島県","34207","福山市","342070027000","駅家町大字中島","34.552126","133.316196","0","1"
"34","広島県","34207","福山市","342070028000","駅家町大字新山","34.560591","133.307822","0","1"
"34","広島県","34207","福山市","342070029000","駅家町大字服部永谷","34.595299","133.322901","0","1"
"34","広島県","34207","福山市","342070030000","駅家町大字服部本郷","34.617175","133.307066","0","1"
"34","広島県","34207","福山市","342070031000","駅家町大字坊寺","34.535593","133.320737","0","1"
"34","広島県","34207","福山市","342070032000","駅家町大字法成寺","34.565178","133.325076","0","1"
"34","広島県","34207","福山市","342070033000","駅家町大字万能倉","34.549963","133.332748","0","1"
"34","広島県","34207","福山市","342070034000","駅家町大字向永谷","34.520354","133.298010","0","1"
"34","広島県","34207","福山市","342070035000","駅家町大字弥生ケ丘","34.550151","133.302451","0","1"
"34","広島県","34207","福山市","342070036000","胡町","34.493492","133.366633","0","1"
"34","広島県","34207","福山市","342070037001","王子町一丁目","34.486784","133.384060","0","3"
"34","広島県","34207","福山市","342070037002","王子町二丁目","34.489204","133.381605","0","3"
"34","広島県","34207","福山市","342070038001","大谷台一丁目","34.516823","133.441666","0","3"
"34","広島県","34207","福山市","342070038002","大谷台二丁目","34.513681","133.447341","0","3"
"34","広島県","34207","福山市","342070038003","大谷台三丁目","34.514379","133.442410","0","3"
"34","広島県","34207","福山市","342070039001","沖野上町一丁目","34.475358","133.377888","0","3"
"34","広島県","34207","福山市","342070039002","沖野上町二丁目","34.473585","133.376321","0","3"
"34","広島県","34207","福山市","342070039003","沖野上町三丁目","34.472111","133.373999","0","3"
"34","広島県","34207","福山市","342070039004","沖野上町四丁目","34.471802","133.370432","0","3"
"34","広島県","34207","福山市","342070039005","沖野上町五丁目","34.471373","133.367193","0","3"
"34","広島県","34207","福山市","342070039006","沖野上町六丁目","34.471879","133.364265","0","3"
"34","広島県","34207","福山市","342070040000","卸町","34.463127","133.402039","0","1"
"34","広島県","34207","福山市","342070041000","笠岡町","34.488413","133.368110","0","1"
"34","広島県","34207","福山市","342070042000","神島町","34.485571","133.340885","0","1"
"34","広島県","34207","福山市","342070043000","春日池","34.516971","133.421841","0","1"
"34","広島県","34207","福山市","342070044000","春日台","34.510135","133.426805","0","1"
"34","広島県","34207","福山市","342070045001","春日町一丁目","34.507320","133.404568","0","3"
"34","広島県","34207","福山市","342070045002","春日町二丁目","34.508959","133.409057","0","3"
"34","広島県","34207","福山市","342070045003","春日町三丁目","34.511792","133.414841","0","3"
"34","広島県","34207","福山市","342070045004","春日町四丁目","34.514111","133.419920","0","3"
"34","広島県","34207","福山市","342070045005","春日町五丁目","34.504206","133.407942","0","3"
"34","広島県","34207","福山市","342070045006","春日町六丁目","34.506231","133.412267","0","3"
"34","広島県","34207","福山市","342070045007","春日町七丁目","34.508920","133.415618","0","3"
"34","広島県","34207","福山市","342070046000","春日町宇山","34.526843","133.405918","0","1"
"34","広島県","34207","福山市","342070047000","春日町浦上","34.522700","133.421686","0","1"
"34","広島県","34207","福山市","342070048000","春日町吉田","34.509498","133.405630","0","1"
"34","広島県","34207","福山市","342070049001","霞町一丁目","34.484067","133.365557","0","3"
"34","広島県","34207","福山市","342070049002","霞町二丁目","34.483566","133.363662","0","3"
"34","広島県","34207","福山市","342070049003","霞町三丁目","34.483228","133.361757","0","3"
"34","広島県","34207","福山市","342070049004","霞町四丁目","34.483058","133.359858","0","3"
"34","広島県","34207","福山市","342070050000","金江町金見","34.429166","133.289505","0","1"
"34","広島県","34207","福山市","342070051000","金江町藁江","34.442550","133.295763","0","1"
"34","広島県","34207","福山市","342070052000","神村町","34.472820","133.271844","0","1"
"34","広島県","34207","福山市","342070053000","加茂町","34.598498","133.342732","0","1"
"34","広島県","34207","福山市","342070054000","加茂町大字下加茂","34.572507","133.337902","0","1"
"34","広島県","34207","福山市","342070055001","川口町一丁目","34.471008","133.387619","0","3"
"34","広島県","34207","福山市","342070055002","川口町二丁目","34.468385","133.386120","0","3"
"34","広島県","34207","福山市","342070055003","川口町三丁目","34.466245","133.384883","0","3"
"34","広島県","34207","福山市","342070055004","川口町四丁目","34.464183","133.383894","0","3"
"34","広島県","34207","福山市","342070055005","川口町五丁目","34.462460","133.381886","0","3"
"34","広島県","34207","福山市","342070056000","神辺町","34.580601","133.391262","0","1"
"34","広島県","34207","福山市","342070057000","神辺町旭丘","34.558680","133.432547","0","1"
"34","広島県","34207","福山市","342070058000","神辺町大字上竹田","34.544325","133.439285","0","1"
"34","広島県","34207","福山市","342070059000","神辺町大字川北","34.545661","133.378970","0","1"
"34","広島県","34207","福山市","342070060000","神辺町大字川南","34.531943","133.381121","0","1"
"34","広島県","34207","福山市","342070061000","神辺町大字下竹田","34.546007","133.418964","0","1"
"34","広島県","34207","福山市","342070062000","神辺町大字新十九","34.545496","133.360013","0","1"
"34","広島県","34207","福山市","342070063000","神辺町大字新徳田","34.547375","133.369449","0","1"
"34","広島県","34207","福山市","342070064000","神辺町大字新道上","34.543962","133.358553","0","1"
"34","広島県","34207","福山市","342070065000","神辺町大字新湯野","34.556822","133.389635","0","1"
"34","広島県","34207","福山市","342070066000","神辺町大字八尋","34.564325","133.423437","0","1"
"34","広島県","34207","福山市","342070067001","北本庄一丁目","34.493848","133.351159","0","3"
"34","広島県","34207","福山市","342070067002","北本庄二丁目","34.496506","133.347832","0","3"
"34","広島県","34207","福山市","342070067003","北本庄三丁目","34.495966","133.343622","0","3"
"34","広島県","34207","福山市","342070067004","北本庄四丁目","34.505111","133.349605","0","3"
"34","広島県","34207","福山市","342070067005","北本庄五丁目","34.505481","133.345456","0","3"
"34","広島県","34207","福山市","342070068000","北美台","34.501468","133.364660","0","1"
"34","広島県","34207","福山市","342070069001","北吉津町一丁目","34.494954","133.361086","0","3"
"34","広島県","34207","福山市","342070069002","北吉津町二丁目","34.496734","133.364430","0","3"
"34","広島県","34207","福山市","342070069003","北吉津町三丁目","34.499418","133.364203","0","3"
"34","広島県","34207","福山市","342070069004","北吉津町四丁目","34.497585","133.370767","0","3"
"34","広島県","34207","福山市","342070069005","北吉津町五丁目","34.498692","133.369068","0","3"
"34","広島県","34207","福山市","342070070001","木之庄町一丁目","34.494793","133.354788","0","3"
"34","広島県","34207","福山市","342070070002","木之庄町二丁目","34.498621","133.352982","0","3"
"34","広島県","34207","福山市","342070070003","木之庄町三丁目","34.499450","133.355795","0","3"
"34","広島県","34207","福山市","342070070004","木之庄町四丁目","34.495887","133.358899","0","3"
"34","広島県","34207","福山市","342070070005","木之庄町五丁目","34.498077","133.359655","0","3"
"34","広島県","34207","福山市","342070070006","木之庄町六丁目","34.502433","133.361458","0","3"
"34","広島県","34207","福山市","342070071000","草戸町","34.474221","133.350499","0","1"
"34","広島県","34207","福山市","342070072001","草戸町一丁目","34.479749","133.352791","0","3"
"34","広島県","34207","福山市","342070072002","草戸町二丁目","34.476968","133.355054","0","3"
"34","広島県","34207","福山市","342070072003","草戸町三丁目","34.476931","133.359999","0","3"
"34","広島県","34207","福山市","342070072004","草戸町四丁目","34.472648","133.359578","0","3"
"34","広島県","34207","福山市","342070072005","草戸町五丁目","34.468000","133.364159","0","3"
"34","広島県","34207","福山市","342070073000","熊野町","34.423595","133.356860","0","1"
"34","広島県","34207","福山市","342070074000","鋼管町","34.466416","133.429895","0","1"
"34","広島県","34207","福山市","342070075001","光南町一丁目","34.481130","133.366457","0","3"
"34","広島県","34207","福山市","342070075002","光南町二丁目","34.478908","133.367143","0","3"
"34","広島県","34207","福山市","342070075003","光南町三丁目","34.476171","133.368384","0","3"
"34","広島県","34207","福山市","342070076000","郷分町","34.513588","133.334476","0","1"
"34","広島県","34207","福山市","342070077001","向陽町一丁目","34.505989","133.361285","0","3"
"34","広島県","34207","福山市","342070077002","向陽町二丁目","34.509671","133.361093","0","3"
"34","広島県","34207","福山市","342070078000","蔵王町","34.514378","133.389584","0","1"
"34","広島県","34207","福山市","342070079001","蔵王町一丁目","34.505850","133.387888","0","3"
"34","広島県","34207","福山市","342070079002","蔵王町二丁目","34.506216","133.394576","0","3"
"34","広島県","34207","福山市","342070079003","蔵王町三丁目","34.508670","133.392421","0","3"
"34","広島県","34207","福山市","342070079004","蔵王町四丁目","34.509872","133.389678","0","3"
"34","広島県","34207","福山市","342070079005","蔵王町五丁目","34.510735","133.398256","0","3"
"34","広島県","34207","福山市","342070079006","蔵王町六丁目","34.511360","133.393280","0","3"
"34","広島県","34207","福山市","342070080000","桜馬場町","34.495403","133.369474","0","1"
"34","広島県","34207","福山市","342070081000","佐波町","34.481213","133.339057","0","1"
"34","広島県","34207","福山市","342070082000","三之丸町","34.488492","133.360685","0","1"
"34","広島県","34207","福山市","342070083000","地吹町","34.480117","133.360095","0","1"
"34","広島県","34207","福山市","342070084000","清水ケ丘","34.507274","133.366439","0","1"
"34","広島県","34207","福山市","342070085000","城興ケ丘","34.492761","133.431521","0","1"
"34","広島県","34207","福山市","342070086000","昭和町","34.485324","133.368248","0","1"
"34","広島県","34207","福山市","342070087001","城見町一丁目","34.491162","133.365336","0","3"
"34","広島県","34207","福山市","342070087002","城見町二丁目","34.492192","133.365033","0","3"
"34","広島県","34207","福山市","342070088000","新市町大字金丸","34.622244","133.246049","0","1"
"34","広島県","34207","福山市","342070089000","新市町大字上安井","34.590640","133.276653","0","1"
"34","広島県","34207","福山市","342070090000","新市町大字相方","34.545144","133.275864","0","1"
"34","広島県","34207","福山市","342070091000","新市町大字下安井","34.572900","133.285664","0","1"
"34","広島県","34207","福山市","342070092000","新市町大字新市","34.555290","133.276232","0","1"
"34","広島県","34207","福山市","342070093000","新市町大字常","34.601987","133.278453","0","1"
"34","広島県","34207","福山市","342070094000","新市町大字戸手","34.556489","133.293417","0","1"
"34","広島県","34207","福山市","342070095000","新市町大字藤尾","34.639877","133.270543","0","1"
"34","広島県","34207","福山市","342070096000","新市町大字宮内","34.576210","133.272241","0","1"
"34","広島県","34207","福山市","342070097001","新涯町一丁目","34.464021","133.391420","0","3"
"34","広島県","34207","福山市","342070097002","新涯町二丁目","34.460391","133.402234","0","3"
"34","広島県","34207","福山市","342070097003","新涯町三丁目","34.460423","133.391311","0","3"
"34","広島県","34207","福山市","342070097004","新涯町四丁目","34.458090","133.397970","0","3"
"34","広島県","34207","福山市","342070097005","新涯町五丁目","34.456924","133.389876","0","3"
"34","広島県","34207","福山市","342070097006","新涯町六丁目","34.455009","133.397198","0","3"
"34","広島県","34207","福山市","342070098001","新浜町一丁目","34.477736","133.397247","0","3"
"34","広島県","34207","福山市","342070098002","新浜町二丁目","34.478090","133.404780","0","3"
"34","広島県","34207","福山市","342070099000","住吉町","34.485676","133.370971","0","1"
"34","広島県","34207","福山市","342070100000","瀬戸町大字山北","34.473252","133.314363","0","1"
"34","広島県","34207","福山市","342070101000","瀬戸町大字地頭分","34.461071","133.323045","0","1"
"34","広島県","34207","福山市","342070102000","瀬戸町大字長和","34.463231","133.341600","0","1"
"34","広島県","34207","福山市","342070103000","千田町","34.515964","133.360449","0","1"
"34","広島県","34207","福山市","342070104001","千田町一丁目","34.512218","133.366076","0","3"
"34","広島県","34207","福山市","342070104002","千田町二丁目","34.517797","133.368109","0","3"
"34","広島県","34207","福山市","342070104003","千田町三丁目","34.520547","133.376859","0","3"
"34","広島県","34207","福山市","342070104004","千田町四丁目","34.524440","133.373686","0","3"
"34","広島県","34207","福山市","342070105000","千田町大字坂田","34.511695","133.357751","0","1"
"34","広島県","34207","福山市","342070106000","千田町大字千田","34.518573","133.385867","0","1"
"34","広島県","34207","福山市","342070107000","千田町大字藪路","34.511108","133.363873","0","1"
"34","広島県","34207","福山市","342070108000","大黒町","34.491307","133.367307","0","1"
"34","広島県","34207","福山市","342070109001","大門町一丁目","34.498342","133.435900","0","3"
"34","広島県","34207","福山市","342070109002","大門町二丁目","34.495373","133.438412","0","3"
"34","広島県","34207","福山市","342070109003","大門町三丁目","34.493452","133.439249","0","3"
"34","広島県","34207","福山市","342070109004","大門町四丁目","34.491107","133.440862","0","3"
"34","広島県","34207","福山市","342070109005","大門町五丁目","34.487126","133.441721","0","3"
"34","広島県","34207","福山市","342070109006","大門町六丁目","34.490017","133.448771","0","3"
"34","広島県","34207","福山市","342070109007","大門町七丁目","34.494219","133.450543","0","3"
"34","広島県","34207","福山市","342070109008","大門町八丁目","34.495255","133.445678","0","3"
"34","広島県","34207","福山市","342070110000","大門町旭","34.497518","133.453995","0","1"
"34","広島県","34207","福山市","342070111000","大門町大字日之出丘","34.501655","133.443493","0","1"
"34","広島県","34207","福山市","342070112000","大門町大門","34.503246","133.436840","0","1"
"34","広島県","34207","福山市","342070113000","大門町津之下","34.490334","133.434475","0","1"
"34","広島県","34207","福山市","342070114000","大門町野々浜","34.501516","133.448651","0","1"
"34","広島県","34207","福山市","342070115001","高西町一丁目","34.447283","133.240001","0","3"
"34","広島県","34207","福山市","342070115002","高西町二丁目","34.444403","133.242142","0","3"
"34","広島県","34207","福山市","342070115003","高西町三丁目","34.443275","133.238351","0","3"
"34","広島県","34207","福山市","342070115004","高西町四丁目","34.445068","133.238092","0","3"
"34","広島県","34207","福山市","342070116000","高西町川尻","34.447789","133.228952","0","1"
"34","広島県","34207","福山市","342070117000","高西町真田","34.448586","133.238982","0","1"
"34","広島県","34207","福山市","342070118000","高西町南","34.429740","133.242942","0","1"
"34","広島県","34207","福山市","342070119000","高美台","34.503336","133.365470","0","1"
"34","広島県","34207","福山市","342070120000","宝町","34.489131","133.366150","0","1"
"34","広島県","34207","福山市","342070121001","多治米町一丁目","34.473490","133.381765","0","3"
"34","広島県","34207","福山市","342070121002","多治米町二丁目","34.471177","133.380352","0","3"
"34","広島県","34207","福山市","342070121003","多治米町三丁目","34.469230","133.378736","0","3"
"34","広島県","34207","福山市","342070121004","多治米町四丁目","34.467505","133.376958","0","3"
"34","広島県","34207","福山市","342070121005","多治米町五丁目","34.466372","133.374660","0","3"
"34","広島県","34207","福山市","342070121006","多治米町六丁目","34.465177","133.372873","0","3"
"34","広島県","34207","福山市","342070122000","田尻町","34.420539","133.380667","0","1"
"34","広島県","34207","福山市","342070123000","長者町","34.491318","133.352553","0","1"
"34","広島県","34207","福山市","342070124001","千代田町一丁目","34.463742","133.369279","0","3"
"34","広島県","34207","福山市","342070124002","千代田町二丁目","34.460026","133.374537","0","3"
"34","広島県","34207","福山市","342070125000","津之郷町大字加屋","34.482521","133.301858","0","1"
"34","広島県","34207","福山市","342070126000","津之郷町大字津之郷","34.495132","133.302843","0","1"
"34","広島県","34207","福山市","342070127000","坪生町","34.528326","133.433326","0","1"
"34","広島県","34207","福山市","342070128001","坪生町一丁目","34.522463","133.435043","0","3"
"34","広島県","34207","福山市","342070128002","坪生町二丁目","34.525404","133.434996","0","3"
"34","広島県","34207","福山市","342070128003","坪生町三丁目","34.524075","133.447294","0","3"
"34","広島県","34207","福山市","342070128004","坪生町四丁目","34.528177","133.442645","0","3"
"34","広島県","34207","福山市","342070128005","坪生町五丁目","34.530067","133.441682","0","3"
"34","広島県","34207","福山市","342070128006","坪生町六丁目","34.531231","133.448334","0","3"
"34","広島県","34207","福山市","342070129001","坪生町南一丁目","34.519389","133.435460","0","3"
"34","広島県","34207","福山市","342070129002","坪生町南二丁目","34.518829","133.437582","0","3"
"34","広島県","34207","福山市","342070129003","坪生町南三丁目","34.519489","133.441744","0","3"
"34","広島県","34207","福山市","342070130001","手城町一丁目","34.485690","133.386365","0","3"
"34","広島県","34207","福山市","342070130002","手城町二丁目","34.486124","133.389968","0","3"
"34","広島県","34207","福山市","342070130003","手城町三丁目","34.486564","133.394012","0","3"
"34","広島県","34207","福山市","342070130004","手城町四丁目","34.487114","133.398364","0","3"
"34","広島県","34207","福山市","342070131000","寺町","34.490558","133.371521","0","1"
"34","広島県","34207","福山市","342070132000","道三町","34.481909","133.363089","0","1"
"34","広島県","34207","福山市","342070133001","東陽台一丁目","34.516419","133.429459","0","3"
"34","広島県","34207","福山市","342070133002","東陽台二丁目","34.516152","133.433104","0","3"
"34","広島県","34207","福山市","342070134000","鞆町後地","34.386922","133.376993","0","1"
"34","広島県","34207","福山市","342070135000","奈良津町","34.506020","133.378709","0","1"
"34","広島県","34207","福山市","342070136001","奈良津町一丁目","34.502482","133.369161","0","3"
"34","広島県","34207","福山市","342070136002","奈良津町二丁目","34.503966","133.371472","0","3"
"34","広島県","34207","福山市","342070136003","奈良津町三丁目","34.503683","133.375267","0","3"
"34","広島県","34207","福山市","342070137001","西桜町一丁目","34.484459","133.357347","0","3"
"34","広島県","34207","福山市","342070137002","西桜町二丁目","34.484700","133.355175","0","3"
"34","広島県","34207","福山市","342070138001","西新涯町一丁目","34.459811","133.383976","0","3"
"34","広島県","34207","福山市","342070138002","西新涯町二丁目","34.457522","133.381953","0","3"
"34","広島県","34207","福山市","342070139001","西深津町一丁目","34.493441","133.381183","0","3"
"34","広島県","34207","福山市","342070139002","西深津町二丁目","34.495543","133.380490","0","3"
"34","広島県","34207","福山市","342070139003","西深津町三丁目","34.495545","133.383255","0","3"
"34","広島県","34207","福山市","342070139004","西深津町四丁目","34.497763","133.381386","0","3"
"34","広島県","34207","福山市","342070139005","西深津町五丁目","34.499751","133.377736","0","3"
"34","広島県","34207","福山市","342070139006","西深津町六丁目","34.500619","133.383605","0","3"
"34","広島県","34207","福山市","342070139007","西深津町七丁目","34.503764","133.381854","0","3"
"34","広島県","34207","福山市","342070140001","西町一丁目","34.487173","133.356539","0","3"
"34","広島県","34207","福山市","342070140002","西町二丁目","34.490113","133.357065","0","3"
"34","広島県","34207","福山市","342070140003","西町三丁目","34.491913","133.355846","0","3"
"34","広島県","34207","福山市","342070141000","沼隈町大字上山南","34.429932","133.314714","0","1"
"34","広島県","34207","福山市","342070142000","沼隈町大字草深","34.390349","133.327045","0","1"
"34","広島県","34207","福山市","342070143000","沼隈町大字下山南","34.405036","133.307828","0","1"
"34","広島県","34207","福山市","342070144000","沼隈町大字常石","34.389211","133.302120","0","1"
"34","広島県","34207","福山市","342070145000","沼隈町大字中山南","34.409191","133.340179","0","1"
"34","広島県","34207","福山市","342070146000","沼隈町大字能登原","34.380628","133.352322","0","1"
"34","広島県","34207","福山市","342070147001","能島一丁目","34.509017","133.419125","0","3"
"34","広島県","34207","福山市","342070147002","能島二丁目","34.510302","133.421952","0","3"
"34","広島県","34207","福山市","342070147003","能島三丁目","34.512657","133.424389","0","3"
"34","広島県","34207","福山市","342070148001","野上町一丁目","34.480328","133.363804","0","3"
"34","広島県","34207","福山市","342070148002","野上町二丁目","34.478585","133.363552","0","3"
"34","広島県","34207","福山市","342070148003","野上町三丁目","34.475768","133.364850","0","3"
"34","広島県","34207","福山市","342070149000","延広町","34.486442","133.365185","0","1"
"34","広島県","34207","福山市","342070150000","走島町","34.343495","133.437178","0","1"
"34","広島県","34207","福山市","342070151001","花園町一丁目","34.481116","133.372088","0","3"
"34","広島県","34207","福山市","342070151002","花園町二丁目","34.480405","133.373733","0","3"
"34","広島県","34207","福山市","342070152001","東川口町一丁目","34.479051","133.385696","0","3"
"34","広島県","34207","福山市","342070152002","東川口町二丁目","34.478296","133.382267","0","3"
"34","広島県","34207","福山市","342070152003","東川口町三丁目","34.476014","133.384913","0","3"
"34","広島県","34207","福山市","342070152004","東川口町四丁目","34.475096","133.388367","0","3"
"34","広島県","34207","福山市","342070152005","東川口町五丁目","34.474181","133.390850","0","3"
"34","広島県","34207","福山市","342070153000","東桜町","34.486372","133.361286","0","1"
"34","広島県","34207","福山市","342070154001","東手城町一丁目","34.486130","133.403982","0","3"
"34","広島県","34207","福山市","342070154002","東手城町二丁目","34.481512","133.404763","0","3"
"34","広島県","34207","福山市","342070154003","東手城町三丁目","34.485901","133.408127","0","3"
"34","広島県","34207","福山市","342070154004","東手城町四丁目","34.484815","133.409288","0","3"
"34","広島県","34207","福山市","342070155001","東深津町一丁目","34.498940","133.387563","0","3"
"34","広島県","34207","福山市","342070155002","東深津町二丁目","34.494504","133.390256","0","3"
"34","広島県","34207","福山市","342070155003","東深津町三丁目","34.495325","133.395940","0","3"
"34","広島県","34207","福山市","342070155004","東深津町四丁目","34.490094","133.388419","0","3"
"34","広島県","34207","福山市","342070155005","東深津町五丁目","34.490511","133.384369","0","3"
"34","広島県","34207","福山市","342070155006","東深津町六丁目","34.494587","133.385908","0","3"
"34","広島県","34207","福山市","342070155007","東深津町七丁目","34.497221","133.386279","0","3"
"34","広島県","34207","福山市","342070156001","東町一丁目","34.490162","133.369120","0","3"
"34","広島県","34207","福山市","342070156002","東町二丁目","34.491674","133.369226","0","3"
"34","広島県","34207","福山市","342070156003","東町三丁目","34.493525","133.369431","0","3"
"34","広島県","34207","福山市","342070157000","東明王台","34.472281","133.345881","0","1"
"34","広島県","34207","福山市","342070158000","東村町","34.466708","133.224002","0","1"
"34","広島県","34207","福山市","342070159000","東吉津町","34.498358","133.375354","0","1"
"34","広島県","34207","福山市","342070160000","引野町","34.485865","133.415140","0","1"
"34","広島県","34207","福山市","342070161001","引野町一丁目","34.496811","133.405670","0","3"
"34","広島県","34207","福山市","342070161002","引野町二丁目","34.499045","133.415811","0","3"
"34","広島県","34207","福山市","342070161003","引野町三丁目","34.493325","133.414687","0","3"
"34","広島県","34207","福山市","342070161004","引野町四丁目","34.493399","133.410009","0","3"
"34","広島県","34207","福山市","342070161005","引野町五丁目","34.492130","133.404486","0","3"
"34","広島県","34207","福山市","342070162001","引野町北一丁目","34.498431","133.407685","0","3"
"34","広島県","34207","福山市","342070162002","引野町北二丁目","34.501234","133.410634","0","3"
"34","広島県","34207","福山市","342070162003","引野町北三丁目","34.501186","133.415974","0","3"
"34","広島県","34207","福山市","342070162004","引野町北四丁目","34.503762","133.416785","0","3"
"34","広島県","34207","福山市","342070162005","引野町北五丁目","34.500772","133.420419","0","3"
"34","広島県","34207","福山市","342070163000","引野町東","34.496861","133.427611","0","1"
"34","広島県","34207","福山市","342070164001","引野町南一丁目","34.490894","133.420440","0","3"
"34","広島県","34207","福山市","342070164002","引野町南二丁目","34.491490","133.426361","0","3"
"34","広島県","34207","福山市","342070164003","引野町南三丁目","34.487532","133.422051","0","3"
"34","広島県","34207","福山市","342070165001","久松台一丁目","34.502765","133.358033","0","3"
"34","広島県","34207","福山市","342070165002","久松台二丁目","34.505891","133.356528","0","3"
"34","広島県","34207","福山市","342070165003","久松台三丁目","34.500121","133.349964","0","3"
"34","広島県","34207","福山市","342070166001","日吉台一丁目","34.510429","133.403519","0","3"
"34","広島県","34207","福山市","342070166002","日吉台二丁目","34.515019","133.405543","0","3"
"34","広島県","34207","福山市","342070166003","日吉台三丁目","34.511402","133.408823","0","3"
"34","広島県","34207","福山市","342070167000","藤江町","34.415022","133.290434","0","1"
"34","広島県","34207","福山市","342070168000","伏見町","34.488811","133.364073","0","1"
"34","広島県","34207","福山市","342070169000","船町","34.486919","133.367973","0","1"
"34","広島県","34207","福山市","342070170000","古野上町","34.482399","133.357124","0","1"
"34","広島県","34207","福山市","342070171000","平成台","34.488444","133.425740","0","1"
"34","広島県","34207","福山市","342070172000","本郷町","34.484203","133.241607","0","1"
"34","広島県","34207","福山市","342070173001","本庄町中一丁目","34.490937","133.350514","0","3"
"34","広島県","34207","福山市","342070173002","本庄町中二丁目","34.489541","133.349128","0","3"
"34","広島県","34207","福山市","342070173003","本庄町中三丁目","34.491348","133.344684","0","3"
"34","広島県","34207","福山市","342070173004","本庄町中四丁目","34.492383","133.347661","0","3"
"34","広島県","34207","福山市","342070174000","本町","34.493460","133.364566","0","1"
"34","広島県","34207","福山市","342070175001","幕山台一丁目","34.512677","133.431056","0","3"
"34","広島県","34207","福山市","342070175002","幕山台二丁目","34.510424","133.433319","0","3"
"34","広島県","34207","福山市","342070175003","幕山台三丁目","34.508567","133.437855","0","3"
"34","広島県","34207","福山市","342070175004","幕山台四丁目","34.509136","133.442939","0","3"
"34","広島県","34207","福山市","342070175005","幕山台五丁目","34.512224","133.443921","0","3"
"34","広島県","34207","福山市","342070175006","幕山台六丁目","34.511070","133.440239","0","3"
"34","広島県","34207","福山市","342070175007","幕山台七丁目","34.513916","133.437678","0","3"
"34","広島県","34207","福山市","342070175008","幕山台八丁目","34.515699","133.436043","0","3"
"34","広島県","34207","福山市","342070176000","松永町","34.451309","133.259182","0","1"
"34","広島県","34207","福山市","342070177001","松永町一丁目","34.450044","133.255435","0","3"
"34","広島県","34207","福山市","342070177002","松永町二丁目","34.446982","133.249320","0","3"
"34","広島県","34207","福山市","342070177003","松永町三丁目","34.447742","133.255816","0","3"
"34","広島県","34207","福山市","342070177004","松永町四丁目","34.449835","133.261369","0","3"
"34","広島県","34207","福山市","342070177005","松永町五丁目","34.445269","133.260981","0","3"
"34","広島県","34207","福山市","342070177006","松永町六丁目","34.443523","133.255119","0","3"
"34","広島県","34207","福山市","342070177007","松永町七丁目","34.440259","133.256651","0","3"
"34","広島県","34207","福山市","342070178001","松浜町一丁目","34.484317","133.373830","0","3"
"34","広島県","34207","福山市","342070178002","松浜町二丁目","34.482928","133.375473","0","3"
"34","広島県","34207","福山市","342070178003","松浜町三丁目","34.481022","133.377159","0","3"
"34","広島県","34207","福山市","342070178004","松浜町四丁目","34.478041","133.378604","0","3"
"34","広島県","34207","福山市","342070179001","丸之内一丁目","34.491277","133.361872","0","3"
"34","広島県","34207","福山市","342070179002","丸之内二丁目","34.493176","133.362161","0","3"
"34","広島県","34207","福山市","342070180001","御門町一丁目","34.481172","133.369348","0","3"
"34","広島県","34207","福山市","342070180002","御門町二丁目","34.479511","133.369887","0","3"
"34","広島県","34207","福山市","342070180003","御門町三丁目","34.477744","133.370178","0","3"
"34","広島県","34207","福山市","342070181000","緑町","34.476033","133.372927","0","1"
"34","広島県","34207","福山市","342070182001","港町一丁目","34.484441","133.380160","0","3"
"34","広島県","34207","福山市","342070182002","港町二丁目","34.483794","133.382239","0","3"
"34","広島県","34207","福山市","342070183000","南今津町","34.440192","133.244049","0","1"
"34","広島県","34207","福山市","342070184001","南蔵王町一丁目","34.502277","133.388141","0","3"
"34","広島県","34207","福山市","342070184002","南蔵王町二丁目","34.504045","133.394445","0","3"
"34","広島県","34207","福山市","342070184003","南蔵王町三丁目","34.500713","133.394939","0","3"
"34","広島県","34207","福山市","342070184004","南蔵王町四丁目","34.498477","133.395197","0","3"
"34","広島県","34207","福山市","342070184005","南蔵王町五丁目","34.503795","133.401283","0","3"
"34","広島県","34207","福山市","342070184006","南蔵王町六丁目","34.500803","133.404299","0","3"
"34","広島県","34207","福山市","342070185001","南手城町一丁目","34.481835","133.385816","0","3"
"34","広島県","34207","福山市","342070185002","南手城町二丁目","34.481344","133.390434","0","3"
"34","広島県","34207","福山市","342070185003","南手城町三丁目","34.481622","133.394631","0","3"
"34","広島県","34207","福山市","342070185004","南手城町四丁目","34.482167","133.399080","0","3"
"34","広島県","34207","福山市","342070186001","南本庄一丁目","34.487257","133.352181","0","3"
"34","広島県","34207","福山市","342070186002","南本庄二丁目","34.486380","133.347288","0","3"
"34","広島県","34207","福山市","342070186003","南本庄三丁目","34.483865","133.352951","0","3"
"34","広島県","34207","福山市","342070186004","南本庄四丁目","34.483858","133.348661","0","3"
"34","広島県","34207","福山市","342070186005","南本庄五丁目","34.481443","133.350078","0","3"
"34","広島県","34207","福山市","342070187000","南町","34.483486","133.371047","0","1"
"34","広島県","34207","福山市","342070188001","南松永町一丁目","34.443648","133.248833","0","3"
"34","広島県","34207","福山市","342070188002","南松永町二丁目","34.438465","133.249559","0","3"
"34","広島県","34207","福山市","342070188003","南松永町三丁目","34.432640","133.250597","0","3"
"34","広島県","34207","福山市","342070188004","南松永町四丁目","34.426951","133.252574","0","3"
"34","広島県","34207","福山市","342070189000","箕沖町","34.440170","133.425218","0","1"
"34","広島県","34207","福山市","342070190000","箕島町","34.446871","133.406734","0","1"
"34","広島県","34207","福山市","342070191000","水呑町","34.449414","133.382535","0","1"
"34","広島県","34207","福山市","342070192000","水呑向丘","34.439570","133.382766","0","1"
"34","広島県","34207","福山市","342070193001","御船町一丁目","34.488156","133.370002","0","3"
"34","広島県","34207","福山市","342070193002","御船町二丁目","34.488206","133.371869","0","3"
"34","広島県","34207","福山市","342070194001","宮前町一丁目","34.453061","133.259514","0","3"
"34","広島県","34207","福山市","342070194002","宮前町二丁目","34.454087","133.261156","0","3"
"34","広島県","34207","福山市","342070195000","御幸町大字上岩成","34.548079","133.346589","0","1"
"34","広島県","34207","福山市","342070196000","御幸町大字下岩成","34.541157","133.348024","0","1"
"34","広島県","34207","福山市","342070197000","御幸町大字中津原","34.524082","133.359144","0","1"
"34","広島県","34207","福山市","342070198000","御幸町大字森脇","34.532542","133.350854","0","1"
"34","広島県","34207","福山市","342070199001","明王台一丁目","34.477019","133.342549","0","3"
"34","広島県","34207","福山市","342070199002","明王台二丁目","34.472826","133.341629","0","3"
"34","広島県","34207","福山市","342070199003","明王台三丁目","34.476791","133.340020","0","3"
"34","広島県","34207","福山市","342070199004","明王台四丁目","34.479480","133.336519","0","3"
"34","広島県","34207","福山市","342070199005","明王台五丁目","34.477251","133.334907","0","3"
"34","広島県","34207","福山市","342070200001","明神町一丁目","34.490855","133.393571","0","3"
"34","広島県","34207","福山市","342070200002","明神町二丁目","34.491733","133.398226","0","3"
"34","広島県","34207","福山市","342070201001","三吉町一丁目","34.494078","133.372940","0","3"
"34","広島県","34207","福山市","342070201002","三吉町二丁目","34.496207","133.372555","0","3"
"34","広島県","34207","福山市","342070201003","三吉町三丁目","34.493027","133.377208","0","3"
"34","広島県","34207","福山市","342070201004","三吉町四丁目","34.494898","133.376878","0","3"
"34","広島県","34207","福山市","342070201005","三吉町五丁目","34.496617","133.376481","0","3"
"34","広島県","34207","福山市","342070202001","三吉町南一丁目","34.491220","133.377633","0","3"
"34","広島県","34207","福山市","342070202002","三吉町南二丁目","34.489210","133.378065","0","3"
"34","広島県","34207","福山市","342070203000","明治町","34.483143","133.368280","0","1"
"34","広島県","34207","福山市","342070204000","元町","34.487578","133.364964","0","1"
"34","広島県","34207","福山市","342070205000","紅葉町","34.484751","133.361576","0","1"
"34","広島県","34207","福山市","342070206000","柳津町","34.442642","133.273154","0","1"
"34","広島県","34207","福山市","342070207001","柳津町一丁目","34.439351","133.259738","0","3"
"34","広島県","34207","福山市","342070207002","柳津町二丁目","34.440274","133.264571","0","3"
"34","広島県","34207","福山市","342070207003","柳津町三丁目","34.437780","133.262969","0","3"
"34","広島県","34207","福山市","342070207004","柳津町四丁目","34.436480","133.265703","0","3"
"34","広島県","34207","福山市","342070207005","柳津町五丁目","34.438141","133.267988","0","3"
"34","広島県","34207","福山市","342070208000","山手町","34.498650","133.322587","0","1"
"34","広島県","34207","福山市","342070209001","山手町一丁目","34.489529","133.331350","0","3"
"34","広島県","34207","福山市","342070209002","山手町二丁目","34.489842","133.334326","0","3"
"34","広島県","34207","福山市","342070209003","山手町三丁目","34.494199","133.331064","0","3"
"34","広島県","34207","福山市","342070209004","山手町四丁目","34.495446","133.333578","0","3"
"34","広島県","34207","福山市","342070209005","山手町五丁目","34.490698","133.338656","0","3"
"34","広島県","34207","福山市","342070209006","山手町六丁目","34.496812","133.338844","0","3"
"34","広島県","34207","福山市","342070209007","山手町七丁目","34.499526","133.335595","0","3"
"34","広島県","34207","福山市","342070210000","山野町大字矢川","34.651411","133.333325","0","1"
"34","広島県","34207","福山市","342070211000","山野町大字山野","34.665002","133.370502","0","1"
"34","広島県","34207","福山市","342070212000","横尾町","34.524524","133.366154","0","1"
"34","広島県","34207","福山市","342070213001","横尾町一丁目","34.523225","133.364077","0","3"
"34","広島県","34207","福山市","342070213002","横尾町二丁目","34.520262","133.362500","0","3"
"34","広島県","34207","福山市","342070214000","吉津町","34.495553","133.366068","0","1"
"34","広島県","34207","福山市","342070215001","緑陽町一丁目","34.507141","133.369337","0","3"
"34","広島県","34207","福山市","342070215002","緑陽町二丁目","34.508577","133.371136","0","3"
"34","広島県","34207","福山市","342070216000","若松町","34.492288","133.372649","0","1"
