"PrefCode","PrefName","MuniCode","MuniName","DistCode","DistName","lat","lon","SrcCode","CatCode"
"35","山口県","35206","防府市","352060001000","伊佐江町","34.044443","131.550385","0","1"
"35","山口県","35206","防府市","352060002001","石が口一丁目","34.042919","131.565920","0","3"
"35","山口県","35206","防府市","352060002002","石が口二丁目","34.043503","131.562646","0","3"
"35","山口県","35206","防府市","352060002003","石が口三丁目","34.040048","131.562944","0","3"
"35","山口県","35206","防府市","352060003001","岩畠一丁目","34.058264","131.595109","0","3"
"35","山口県","35206","防府市","352060003002","岩畠二丁目","34.062846","131.593566","0","3"
"35","山口県","35206","防府市","352060003003","岩畠三丁目","34.062709","131.597617","0","3"
"35","山口県","35206","防府市","352060004000","駅南町","34.051254","131.565769","0","1"
"35","山口県","35206","防府市","352060005000","大字伊佐江","34.038054","131.554074","0","1"
"35","山口県","35206","防府市","352060006000","大字植松","34.045599","131.528473","0","1"
"35","山口県","35206","防府市","352060007000","大字江泊","34.038073","131.612949","0","1"
"35","山口県","35206","防府市","352060008000","大字奥畑","34.146268","131.643444","0","1"
"35","山口県","35206","防府市","352060009000","大字切畑","34.083874","131.501542","0","1"
"35","山口県","35206","防府市","352060010000","大字佐野","34.057477","131.518451","0","1"
"35","山口県","35206","防府市","352060011000","大字新田","34.029526","131.567740","0","1"
"35","山口県","35206","防府市","352060012000","大字鈴屋","34.115170","131.583237","0","1"
"35","山口県","35206","防府市","352060013000","大字台道","34.052521","131.480863","0","1"
"35","山口県","35206","防府市","352060014000","大字田島","34.014605","131.530924","0","1"
"35","山口県","35206","防府市","352060015000","大字富海","34.057678","131.645588","0","1"
"35","山口県","35206","防府市","352060016000","大字中山","34.139730","131.609275","0","1"
"35","山口県","35206","防府市","352060017000","大字奈美","34.133392","131.587485","0","1"
"35","山口県","35206","防府市","352060018000","大字仁井令","34.037713","131.556812","0","1"
"35","山口県","35206","防府市","352060019000","大字西浦","34.023198","131.521390","0","1"
"35","山口県","35206","防府市","352060020000","大字野島","33.940874","131.695423","0","1"
"35","山口県","35206","防府市","352060021000","大字浜方","34.016450","131.557279","0","1"
"35","山口県","35206","防府市","352060022000","大字久兼","34.110882","131.635598","0","1"
"35","山口県","35206","防府市","352060023000","大字真尾","34.095797","131.604705","0","1"
"35","山口県","35206","防府市","352060024000","大字三田尻村","34.038272","131.571610","0","1"
"35","山口県","35206","防府市","352060025000","大字向島","34.005026","131.580689","0","1"
"35","山口県","35206","防府市","352060026000","大字牟礼","34.070195","131.610600","0","1"
"35","山口県","35206","防府市","352060027000","大字和字","34.120023","131.614323","0","1"
"35","山口県","35206","防府市","352060028000","岡村町","34.046110","131.570025","0","1"
"35","山口県","35206","防府市","352060029001","沖今宿一丁目","34.050152","131.598558","0","3"
"35","山口県","35206","防府市","352060029002","沖今宿二丁目","34.048478","131.601887","0","3"
"35","山口県","35206","防府市","352060030000","お茶屋町","34.045653","131.572747","0","1"
"35","山口県","35206","防府市","352060031001","勝間一丁目","34.045303","131.581329","0","3"
"35","山口県","35206","防府市","352060031002","勝間二丁目","34.048045","131.583321","0","3"
"35","山口県","35206","防府市","352060031003","勝間三丁目","34.050038","131.587062","0","3"
"35","山口県","35206","防府市","352060032000","鐘紡町","34.044706","131.585973","0","1"
"35","山口県","35206","防府市","352060033001","華浦一丁目","34.041168","131.571653","0","3"
"35","山口県","35206","防府市","352060033002","華浦二丁目","34.039731","131.569687","0","3"
"35","山口県","35206","防府市","352060034000","上天神町","34.059758","131.573883","0","1"
"35","山口県","35206","防府市","352060035001","岸津一丁目","34.054106","131.594335","0","3"
"35","山口県","35206","防府市","352060035002","岸津二丁目","34.050681","131.594183","0","3"
"35","山口県","35206","防府市","352060036000","協和町","34.038898","131.576776","0","1"
"35","山口県","35206","防府市","352060037001","桑山一丁目","34.046964","131.565928","0","3"
"35","山口県","35206","防府市","352060037002","桑山二丁目","34.048071","131.560521","0","3"
"35","山口県","35206","防府市","352060038001","警固町一丁目","34.049696","131.579935","0","3"
"35","山口県","35206","防府市","352060038002","警固町二丁目","34.050934","131.583140","0","3"
"35","山口県","35206","防府市","352060039001","国衙一丁目","34.054187","131.584060","0","3"
"35","山口県","35206","防府市","352060039002","国衙二丁目","34.057289","131.583019","0","3"
"35","山口県","35206","防府市","352060039003","国衙三丁目","34.057098","131.586824","0","3"
"35","山口県","35206","防府市","352060039004","国衙四丁目","34.056891","131.590954","0","3"
"35","山口県","35206","防府市","352060039005","国衙五丁目","34.053626","131.589439","0","3"
"35","山口県","35206","防府市","352060040000","国分寺町","34.064666","131.579477","0","1"
"35","山口県","35206","防府市","352060041000","寿町","34.051295","131.561137","0","1"
"35","山口県","35206","防府市","352060042001","佐波一丁目","34.053588","131.561133","0","3"
"35","山口県","35206","防府市","352060043000","敷山町","34.067038","131.598571","0","1"
"35","山口県","35206","防府市","352060044000","清水町","34.047624","131.551773","0","1"
"35","山口県","35206","防府市","352060045001","自由ケ丘一丁目","34.068645","131.537832","0","3"
"35","山口県","35206","防府市","352060045002","自由ケ丘二丁目","34.070511","131.536678","0","3"
"35","山口県","35206","防府市","352060045003","自由ケ丘三丁目","34.070064","131.541742","0","3"
"35","山口県","35206","防府市","352060045004","自由ケ丘四丁目","34.072999","131.536162","0","3"
"35","山口県","35206","防府市","352060046000","自力町","34.042441","131.574989","0","1"
"35","山口県","35206","防府市","352060047000","新築地町","34.041631","131.592210","0","1"
"35","山口県","35206","防府市","352060048001","新田一丁目","34.036757","131.567775","0","3"
"35","山口県","35206","防府市","352060049000","酢貝","34.058262","131.598834","0","1"
"35","山口県","35206","防府市","352060050001","桑南一丁目","34.043775","131.559619","0","3"
"35","山口県","35206","防府市","352060050002","桑南二丁目","34.039985","131.559584","0","3"
"35","山口県","35206","防府市","352060051000","中西","34.062927","131.601811","0","1"
"35","山口県","35206","防府市","352060052000","仁井令町","34.050697","131.555381","0","1"
"35","山口県","35206","防府市","352060053001","西仁井令一丁目","34.050532","131.546404","0","3"
"35","山口県","35206","防府市","352060053002","西仁井令二丁目","34.048909","131.546885","0","3"
"35","山口県","35206","防府市","352060054001","八王子一丁目","34.055385","131.566414","0","3"
"35","山口県","35206","防府市","352060054002","八王子二丁目","34.058707","131.566921","0","3"
"35","山口県","35206","防府市","352060055001","華城中央一丁目","34.044225","131.545181","0","3"
"35","山口県","35206","防府市","352060055002","華城中央二丁目","34.044990","131.543102","0","3"
"35","山口県","35206","防府市","352060056000","華園町","34.043961","131.555896","0","1"
"35","山口県","35206","防府市","352060057000","東仁井令町","34.047478","131.556052","0","1"
"35","山口県","35206","防府市","352060058000","東松崎町","34.059612","131.577454","0","1"
"35","山口県","35206","防府市","352060059001","東三田尻一丁目","34.048451","131.576407","0","3"
"35","山口県","35206","防府市","352060059002","東三田尻二丁目","34.046536","131.577174","0","3"
"35","山口県","35206","防府市","352060060000","松崎町","34.063344","131.575254","0","1"
"35","山口県","35206","防府市","352060061000","松原町","34.042300","131.568129","0","1"
"35","山口県","35206","防府市","352060062000","鞠生町","34.040112","131.565772","0","1"
"35","山口県","35206","防府市","352060063001","三田尻一丁目","34.047101","131.574099","0","3"
"35","山口県","35206","防府市","352060063002","三田尻二丁目","34.042151","131.578340","0","3"
"35","山口県","35206","防府市","352060063003","三田尻三丁目","34.044733","131.578314","0","3"
"35","山口県","35206","防府市","352060064000","三田尻本町","34.043556","131.573103","0","1"
"35","山口県","35206","防府市","352060065002","緑町二丁目","34.054408","131.580365","0","3"
"35","山口県","35206","防府市","352060066000","南松崎町","34.057642","131.577816","0","1"
"35","山口県","35206","防府市","352060067000","宮市町","34.061095","131.570878","0","1"
"35","山口県","35206","防府市","352060068000","美和町","34.057477","131.580654","0","1"
"35","山口県","35206","防府市","352060069001","牟礼今宿一丁目","34.053657","131.598895","0","3"
"35","山口県","35206","防府市","352060069002","牟礼今宿二丁目","34.052490","131.602277","0","3"
"35","山口県","35206","防府市","352060070000","牟礼柳","34.058013","131.602395","0","1"
"35","山口県","35206","防府市","352060071000","大字西佐波令","34.053627","131.543057","0","1"
"35","山口県","35206","防府市","352060072000","大字大崎","34.072057","131.543914","0","1"
"35","山口県","35206","防府市","352060073000","開出西町","34.052878","131.546123","0","1"
"35","山口県","35206","防府市","352060042002","佐波二丁目","34.056077","131.562751","0","3"
"35","山口県","35206","防府市","352060074002","高倉二丁目","34.052862","131.555924","0","3"
"35","山口県","35206","防府市","352060075001","千日一丁目","34.058399","131.559709","0","3"
"35","山口県","35206","防府市","352060074001","高倉一丁目","34.056624","131.557658","0","3"
"35","山口県","35206","防府市","352060076000","開出本町","34.053324","131.551034","0","1"
"35","山口県","35206","防府市","352060077000","古祖原","34.059023","131.550174","0","1"
"35","山口県","35206","防府市","352060078000","平和町","34.058187","131.563411","0","1"
"35","山口県","35206","防府市","352060075002","千日二丁目","34.061372","131.562524","0","3"
"35","山口県","35206","防府市","352060079000","今市町","34.061846","131.566206","0","1"
"35","山口県","35206","防府市","352060080000","大字下右田","34.082198","131.556276","0","1"
"35","山口県","35206","防府市","352060081000","本橋町","34.066423","131.564626","0","1"
"35","山口県","35206","防府市","352060082000","大字高井","34.078851","131.546984","0","1"
"35","山口県","35206","防府市","352060083000","泉町","34.060923","131.555060","0","1"
"35","山口県","35206","防府市","352060084000","新橋町","34.063343","131.559538","0","1"
"35","山口県","35206","防府市","352060085000","大字上右田","34.096364","131.567973","0","1"
"35","山口県","35206","防府市","352060086000","迫戸町","34.066627","131.569074","0","1"
"35","山口県","35206","防府市","352060087000","大字東佐波令","34.073427","131.581410","0","1"
"35","山口県","35206","防府市","352060088000","惣社町","34.061986","131.581391","0","1"
"35","山口県","35206","防府市","352060089001","多々良一丁目","34.063034","131.586717","0","3"
"35","山口県","35206","防府市","352060089002","多々良二丁目","34.060292","131.589302","0","3"
"35","山口県","35206","防府市","352060090000","中央町","34.050803","131.570154","0","1"
"35","山口県","35206","防府市","352060091000","鋳物師町","34.051393","131.576750","0","1"
"35","山口県","35206","防府市","352060065001","緑町一丁目","34.054680","131.577139","0","3"
"35","山口県","35206","防府市","352060092000","車塚町","34.051505","131.573441","0","1"
"35","山口県","35206","防府市","352060093002","戎町二丁目","34.058796","131.569916","0","3"
"35","山口県","35206","防府市","352060093001","戎町一丁目","34.055050","131.569553","0","3"
"35","山口県","35206","防府市","352060094002","天神二丁目","34.057399","131.574232","0","3"
"35","山口県","35206","防府市","352060094001","天神一丁目","34.054271","131.573537","0","3"
"35","山口県","35206","防府市","352060095002","栄町二丁目","34.058655","131.571707","0","3"
"35","山口県","35206","防府市","352060095001","栄町一丁目","34.055260","131.571348","0","3"
"35","山口県","35206","防府市","352060096000","中泉町","34.056044","131.547263","0","1"
"35","山口県","35206","防府市","352060097000","開出","34.056979","131.553572","0","1"
