"PrefCode","PrefName","MuniCode","MuniName","DistCode","DistName","lat","lon","SrcCode","CatCode"
"35","山口県","35210","光市","352100001001","浅江一丁目","33.971764","131.929261","0","3"
"35","山口県","35210","光市","352100001002","浅江二丁目","33.972912","131.925935","0","3"
"35","山口県","35210","光市","352100001003","浅江三丁目","33.974165","131.922663","0","3"
"35","山口県","35210","光市","352100001004","浅江四丁目","33.967583","131.928018","0","3"
"35","山口県","35210","光市","352100001005","浅江五丁目","33.970137","131.924097","0","3"
"35","山口県","35210","光市","352100001006","浅江六丁目","33.963561","131.924767","0","3"
"35","山口県","35210","光市","352100001007","浅江七丁目","33.967122","131.921976","0","3"
"35","山口県","35210","光市","352100002001","岩狩一丁目","33.993334","131.953777","0","3"
"35","山口県","35210","光市","352100002002","岩狩二丁目","33.994630","131.957110","0","3"
"35","山口県","35210","光市","352100002003","岩狩三丁目","33.998368","131.955423","0","3"
"35","山口県","35210","光市","352100003000","大字浅江","33.989029","131.911032","0","1"
"35","山口県","35210","光市","352100004000","大字岩田","33.982563","131.988393","0","1"
"35","山口県","35210","光市","352100005000","大字岩田立野","33.993447","131.982729","0","1"
"35","山口県","35210","光市","352100006000","大字牛島","33.861597","132.018468","0","1"
"35","山口県","35210","光市","352100007000","大字小周防","34.020056","131.981583","0","1"
"35","山口県","35210","光市","352100008000","大字塩田","33.998239","132.037231","0","1"
"35","山口県","35210","光市","352100009000","大字島田","33.978770","131.963299","0","1"
"35","山口県","35210","光市","352100010000","大字立野","33.999272","131.974781","0","1"
"35","山口県","35210","光市","352100011000","大字束荷","34.011847","132.009973","0","1"
"35","山口県","35210","光市","352100012000","大字三井","33.998071","131.944115","0","1"
"35","山口県","35210","光市","352100013000","大字光井","33.964789","131.969663","0","1"
"35","山口県","35210","光市","352100014000","大字三輪","33.974776","132.002690","0","1"
"35","山口県","35210","光市","352100015000","大字室積村","33.930718","131.992409","0","1"
"35","山口県","35210","光市","352100016001","上島田一丁目","33.982249","131.956525","0","3"
"35","山口県","35210","光市","352100016002","上島田二丁目","33.986107","131.957822","0","3"
"35","山口県","35210","光市","352100016003","上島田三丁目","33.985939","131.959520","0","3"
"35","山口県","35210","光市","352100016004","上島田四丁目","33.991018","131.961031","0","3"
"35","山口県","35210","光市","352100016005","上島田五丁目","33.990468","131.964439","0","3"
"35","山口県","35210","光市","352100016006","上島田六丁目","33.995537","131.965876","0","3"
"35","山口県","35210","光市","352100016007","上島田七丁目","33.992626","131.967151","0","3"
"35","山口県","35210","光市","352100016008","上島田八丁目","33.991618","131.972407","0","3"
"35","山口県","35210","光市","352100016009","上島田九丁目","33.993502","131.970258","0","3"
"35","山口県","35210","光市","352100017001","木園一丁目","33.977150","131.930066","0","3"
"35","山口県","35210","光市","352100018000","協和町","33.984749","131.928910","0","1"
"35","山口県","35210","光市","352100019001","島田一丁目","33.969808","131.936020","0","3"
"35","山口県","35210","光市","352100019002","島田二丁目","33.971313","131.932964","0","3"
"35","山口県","35210","光市","352100019003","島田三丁目","33.974561","131.938569","0","3"
"35","山口県","35210","光市","352100019004","島田四丁目","33.975763","131.934222","0","3"
"35","山口県","35210","光市","352100019005","島田五丁目","33.978779","131.940339","0","3"
"35","山口県","35210","光市","352100019006","島田六丁目","33.979742","131.935498","0","3"
"35","山口県","35210","光市","352100019007","島田七丁目","33.982897","131.933903","0","3"
"35","山口県","35210","光市","352100020001","千坊台一丁目","33.946822","131.965995","0","3"
"35","山口県","35210","光市","352100020002","千坊台二丁目","33.946237","131.969138","0","3"
"35","山口県","35210","光市","352100020003","千坊台三丁目","33.946306","131.971915","0","3"
"35","山口県","35210","光市","352100021000","宝町","33.987412","131.928297","0","1"
"35","山口県","35210","光市","352100022001","中央一丁目","33.954651","131.950545","0","3"
"35","山口県","35210","光市","352100022002","中央二丁目","33.956220","131.948014","0","3"
"35","山口県","35210","光市","352100022003","中央三丁目","33.957764","131.945704","0","3"
"35","山口県","35210","光市","352100022004","中央四丁目","33.959363","131.943234","0","3"
"35","山口県","35210","光市","352100022005","中央五丁目","33.962501","131.940173","0","3"
"35","山口県","35210","光市","352100022006","中央六丁目","33.964583","131.942302","0","3"
"35","山口県","35210","光市","352100023001","中島田一丁目","33.980668","131.949060","0","3"
"35","山口県","35210","光市","352100023002","中島田二丁目","33.983223","131.949277","0","3"
"35","山口県","35210","光市","352100023003","中島田三丁目","33.984729","131.946613","0","3"
"35","山口県","35210","光市","352100024000","中村町","33.977414","131.918478","0","1"
"35","山口県","35210","光市","352100025001","虹ケ丘一丁目","33.976558","131.916533","0","3"
"35","山口県","35210","光市","352100025003","虹ケ丘三丁目","33.977602","131.911948","0","3"
"35","山口県","35210","光市","352100025004","虹ケ丘四丁目","33.980112","131.914768","0","3"
"35","山口県","35210","光市","352100025005","虹ケ丘五丁目","33.977991","131.906357","0","3"
"35","山口県","35210","光市","352100025006","虹ケ丘六丁目","33.975969","131.903515","0","3"
"35","山口県","35210","光市","352100026001","虹ケ浜一丁目","33.972465","131.919337","0","3"
"35","山口県","35210","光市","352100026002","虹ケ浜二丁目","33.969529","131.917965","0","3"
"35","山口県","35210","光市","352100027001","花園一丁目","33.976496","131.926058","0","3"
"35","山口県","35210","光市","352100027002","花園二丁目","33.974882","131.927744","0","3"
"35","山口県","35210","光市","352100028000","光ケ丘","33.979740","131.921803","0","1"
"35","山口県","35210","光市","352100029000","丸山町","33.988351","131.925073","0","1"
"35","山口県","35210","光市","352100030001","三井一丁目","33.988079","131.940405","0","3"
"35","山口県","35210","光市","352100030002","三井二丁目","33.986124","131.942108","0","3"
"35","山口県","35210","光市","352100030003","三井三丁目","33.987875","131.944556","0","3"
"35","山口県","35210","光市","352100030004","三井四丁目","33.987423","131.947853","0","3"
"35","山口県","35210","光市","352100030005","三井五丁目","33.990975","131.951200","0","3"
"35","山口県","35210","光市","352100030006","三井六丁目","33.988542","131.955862","0","3"
"35","山口県","35210","光市","352100030007","三井七丁目","33.991820","131.956145","0","3"
"35","山口県","35210","光市","352100030008","三井八丁目","33.991392","131.958645","0","3"
"35","山口県","35210","光市","352100031001","光井一丁目","33.949231","131.959149","0","3"
"35","山口県","35210","光市","352100031002","光井二丁目","33.951603","131.952193","0","3"
"35","山口県","35210","光市","352100031003","光井三丁目","33.954865","131.957161","0","3"
"35","山口県","35210","光市","352100031004","光井四丁目","33.957754","131.956465","0","3"
"35","山口県","35210","光市","352100031005","光井五丁目","33.964266","131.960102","0","3"
"35","山口県","35210","光市","352100031006","光井六丁目","33.964106","131.953953","0","3"
"35","山口県","35210","光市","352100031007","光井七丁目","33.958930","131.952472","0","3"
"35","山口県","35210","光市","352100031008","光井八丁目","33.962137","131.948009","0","3"
"35","山口県","35210","光市","352100031009","光井九丁目","33.960466","131.946657","0","3"
"35","山口県","35210","光市","352100032000","宮ノ下町","33.981841","131.930209","0","1"
"35","山口県","35210","光市","352100033001","室積一丁目","33.931298","131.973616","0","3"
"35","山口県","35210","光市","352100033002","室積二丁目","33.929152","131.974797","0","3"
"35","山口県","35210","光市","352100033003","室積三丁目","33.928801","131.971957","0","3"
"35","山口県","35210","光市","352100033004","室積四丁目","33.930827","131.970464","0","3"
"35","山口県","35210","光市","352100033005","室積五丁目","33.927169","131.970181","0","3"
"35","山口県","35210","光市","352100033006","室積六丁目","33.927385","131.966305","0","3"
"35","山口県","35210","光市","352100033007","室積七丁目","33.924848","131.968824","0","3"
"35","山口県","35210","光市","352100033008","室積八丁目","33.921730","131.968529","0","3"
"35","山口県","35210","光市","352100034000","室積市延","33.934514","131.979073","0","1"
"35","山口県","35210","光市","352100035000","室積大町","33.939206","131.970662","0","1"
"35","山口県","35210","光市","352100036000","室積沖田","33.933649","131.975636","0","1"
"35","山口県","35210","光市","352100037001","室積新開一丁目","33.942790","131.965215","0","3"
"35","山口県","35210","光市","352100037002","室積新開二丁目","33.943261","131.967554","0","3"
"35","山口県","35210","光市","352100038000","室積神田","33.931978","131.976964","0","1"
"35","山口県","35210","光市","352100039000","室積中央町","33.934142","131.972337","0","1"
"35","山口県","35210","光市","352100040000","室積西ノ庄","33.936783","131.976231","0","1"
"35","山口県","35210","光市","352100041000","室積東ノ庄","33.930261","131.981661","0","1"
"35","山口県","35210","光市","352100042000","室積正木","33.936857","131.971242","0","1"
"35","山口県","35210","光市","352100043000","室積松原","33.936261","131.968803","0","1"
"35","山口県","35210","光市","352100044000","和田町","33.983793","131.927408","0","1"
"35","山口県","35210","光市","352100026003","虹ケ浜三丁目","33.972698","131.911833","0","3"
"35","山口県","35210","光市","352100025007","虹ケ丘七丁目","33.975713","131.907332","0","3"
"35","山口県","35210","光市","352100025002","虹ケ丘二丁目","33.975320","131.912541","0","3"
