"PrefCode","PrefName","MuniCode","MuniName","DistCode","DistName","lat","lon","SrcCode","CatCode"
"47","沖縄県","47209","名護市","472090001005","宇茂佐の森五丁目","26.603581","127.962329","0","3"
"47","沖縄県","47209","名護市","472090001004","宇茂佐の森四丁目","26.602057","127.961358","0","3"
"47","沖縄県","47209","名護市","472090001003","宇茂佐の森三丁目","26.600669","127.956430","0","3"
"47","沖縄県","47209","名護市","472090001002","宇茂佐の森二丁目","26.599042","127.961925","0","3"
"47","沖縄県","47209","名護市","472090001001","宇茂佐の森一丁目","26.599464","127.965258","0","3"
"47","沖縄県","47209","名護市","472090002000","字嘉陽","26.555861","128.113087","0","1"
"47","沖縄県","47209","名護市","472090003000","字天仁屋","26.577972","128.117936","0","1"
"47","沖縄県","47209","名護市","472090004000","字久志","26.522811","127.997811","0","1"
"47","沖縄県","47209","名護市","472090005000","字許田","26.540748","127.979509","0","1"
"47","沖縄県","47209","名護市","472090006000","字数久田","26.556203","127.987429","0","1"
"47","沖縄県","47209","名護市","472090007000","字世冨慶","26.566739","128.003534","0","1"
"47","沖縄県","47209","名護市","472090008000","字名護","26.585680","128.010169","0","1"
"47","沖縄県","47209","名護市","472090009000","字三原","26.569704","128.085969","0","1"
"47","沖縄県","47209","名護市","472090010000","字源河","26.613891","128.076819","0","1"
"47","沖縄県","47209","名護市","472090011000","字田井等","26.600531","128.023649","0","1"
"47","沖縄県","47209","名護市","472090012000","字大川","26.579326","128.042264","0","1"
"47","沖縄県","47209","名護市","472090013000","字汀間","26.568599","128.063652","0","1"
"47","沖縄県","47209","名護市","472090014000","字瀬嵩","26.568281","128.056890","0","1"
"47","沖縄県","47209","名護市","472090015000","字呉我","26.634502","127.998262","0","1"
"47","沖縄県","47209","名護市","472090016000","字我部","26.661094","128.000603","0","1"
"47","沖縄県","47209","名護市","472090017003","城三丁目","26.587433","127.981774","0","3"
"47","沖縄県","47209","名護市","472090017002","城二丁目","26.587564","127.984232","0","3"
"47","沖縄県","47209","名護市","472090018003","大北三丁目","26.604597","127.995911","0","3"
"47","沖縄県","47209","名護市","472090018002","大北二丁目","26.601178","127.998515","0","3"
"47","沖縄県","47209","名護市","472090019000","字我部祖河","26.626295","127.999117","0","1"
"47","沖縄県","47209","名護市","472090020000","字古我知","26.626180","127.983267","0","1"
"47","沖縄県","47209","名護市","472090021002","東江二丁目","26.586579","127.990737","0","3"
"47","沖縄県","47209","名護市","472090021001","東江一丁目","26.585814","127.986880","0","3"
"47","沖縄県","47209","名護市","472090022000","字伊差川","26.605593","128.005374","0","1"
"47","沖縄県","47209","名護市","472090023000","字運天原","26.670432","128.001310","0","1"
"47","沖縄県","47209","名護市","472090024000","字済井出","26.669420","128.015092","0","1"
"47","沖縄県","47209","名護市","472090025000","字大浦","26.562912","128.040626","0","1"
"47","沖縄県","47209","名護市","472090026000","字安部","26.545460","128.087198","0","1"
"47","沖縄県","47209","名護市","472090027000","字豊原","26.526122","128.017287","0","1"
"47","沖縄県","47209","名護市","472090028000","字辺野古","26.534958","128.027871","0","1"
"47","沖縄県","47209","名護市","472090029000","字二見","26.556215","128.025550","0","1"
"47","沖縄県","47209","名護市","472090021004","東江四丁目","26.582920","127.985570","0","3"
"47","沖縄県","47209","名護市","472090021005","東江五丁目","26.580619","127.984374","0","3"
"47","沖縄県","47209","名護市","472090021003","東江三丁目","26.582091","127.987511","0","3"
"47","沖縄県","47209","名護市","472090030000","字幸喜","26.532351","127.959187","0","1"
"47","沖縄県","47209","名護市","472090031000","字喜瀬","26.527142","127.943567","0","1"
"47","沖縄県","47209","名護市","472090032000","字川上","26.618202","128.022232","0","1"
"47","沖縄県","47209","名護市","472090033000","字仲尾","26.626641","128.011316","0","1"
"47","沖縄県","47209","名護市","472090034000","字振慶名","26.608642","128.013352","0","1"
"47","沖縄県","47209","名護市","472090035000","字饒平名","26.659492","128.016595","0","1"
"47","沖縄県","47209","名護市","472090036000","字屋我","26.651748","128.031040","0","1"
"47","沖縄県","47209","名護市","472090037000","字稲嶺","26.626873","128.048158","0","1"
"47","沖縄県","47209","名護市","472090038000","字親川","26.609492","128.024212","0","1"
"47","沖縄県","47209","名護市","472090039000","字真喜屋","26.615920","128.047895","0","1"
"47","沖縄県","47209","名護市","472090040000","字仲尾次","26.609425","128.038782","0","1"
"47","沖縄県","47209","名護市","472090041004","宮里四丁目","26.599199","127.968752","0","3"
"47","沖縄県","47209","名護市","472090042004","大中四丁目","26.597126","127.989078","0","3"
"47","沖縄県","47209","名護市","472090042001","大中一丁目","26.590985","127.984080","0","3"
"47","沖縄県","47209","名護市","472090017001","城一丁目","26.589600","127.982036","0","3"
"47","沖縄県","47209","名護市","472090042002","大中二丁目","26.592596","127.985295","0","3"
"47","沖縄県","47209","名護市","472090043004","大東四丁目","26.594293","127.992186","0","3"
"47","沖縄県","47209","名護市","472090018001","大北一丁目","26.600301","127.991187","0","3"
"47","沖縄県","47209","名護市","472090042003","大中三丁目","26.595508","127.986371","0","3"
"47","沖縄県","47209","名護市","472090044002","大南二丁目","26.593657","127.976000","0","3"
"47","沖縄県","47209","名護市","472090045003","大西三丁目","26.596871","127.982561","0","3"
"47","沖縄県","47209","名護市","472090045002","大西二丁目","26.594887","127.981279","0","3"
"47","沖縄県","47209","名護市","472090041005","宮里五丁目","26.599579","127.972477","0","3"
"47","沖縄県","47209","名護市","472090044004","大南四丁目","26.598979","127.976470","0","3"
"47","沖縄県","47209","名護市","472090044003","大南三丁目","26.596304","127.977174","0","3"
"47","沖縄県","47209","名護市","472090041001","宮里一丁目","26.594838","127.972653","0","3"
"47","沖縄県","47209","名護市","472090041006","宮里六丁目","26.601808","127.974527","0","3"
"47","沖縄県","47209","名護市","472090046000","字山入端","26.608305","127.934787","0","1"
"47","沖縄県","47209","名護市","472090047000","字宮里","26.598867","127.966616","0","1"
"47","沖縄県","47209","名護市","472090018004","大北四丁目","26.605244","127.989542","0","3"
"47","沖縄県","47209","名護市","472090048000","字勝山","26.623922","127.936608","0","1"
"47","沖縄県","47209","名護市","472090049000","字安和","26.614852","127.916852","0","1"
"47","沖縄県","47209","名護市","472090041002","宮里二丁目","26.591953","127.969875","0","3"
"47","沖縄県","47209","名護市","472090050002","港二丁目","26.590272","127.976052","0","3"
"47","沖縄県","47209","名護市","472090043003","大東三丁目","26.592217","127.989963","0","3"
"47","沖縄県","47209","名護市","472090042005","大中五丁目","26.596111","127.991718","0","3"
"47","沖縄県","47209","名護市","472090043002","大東二丁目","26.589768","127.988877","0","3"
"47","沖縄県","47209","名護市","472090043001","大東一丁目","26.589076","127.985909","0","3"
"47","沖縄県","47209","名護市","472090044001","大南一丁目","26.592764","127.978702","0","3"
"47","沖縄県","47209","名護市","472090045001","大西一丁目","26.592939","127.981160","0","3"
"47","沖縄県","47209","名護市","472090050001","港一丁目","26.591202","127.978201","0","3"
"47","沖縄県","47209","名護市","472090045004","大西四丁目","26.600416","127.979583","0","3"
"47","沖縄県","47209","名護市","472090045005","大西五丁目","26.601235","127.984599","0","3"
"47","沖縄県","47209","名護市","472090041007","宮里七丁目","26.604115","127.978699","0","3"
"47","沖縄県","47209","名護市","472090018005","大北五丁目","26.605756","127.983884","0","3"
"47","沖縄県","47209","名護市","472090041003","宮里三丁目","26.595395","127.968752","0","3"
"47","沖縄県","47209","名護市","472090051000","字旭川","26.621635","127.951648","0","1"
"47","沖縄県","47209","名護市","472090052000","字屋部","26.609001","127.950231","0","1"
"47","沖縄県","47209","名護市","472090053000","字為又","26.614817","127.974155","0","1"
"47","沖縄県","47209","名護市","472090054000","字宇茂佐","26.609574","127.965295","0","1"
"47","沖縄県","47209","名護市","472090055000","字中山","26.628657","127.967478","0","1"
